{"queryCost": 1, "latitude": 35.877601623535156, "longitude": -78.7874984741211, "resolvedAddress": "35.877601623535156, -78.7874984741211", "address": "35.877601623535156, -78.7874984741211", "timezone": "America/New_York", "tzoffset": -5.0, "days": [{"datetime": "2018-02-05", "datetimeEpoch": 1517806800, "tempmax": 8.3, "tempmin": -0.7, "temp": 3.8, "feelslikemax": 7.2, "feelslikemin": -0.7, "feelslike": 2.3, "dew": -1.0, "humidity": 75.0, "precip": 0.0, "precipprob": null, "precipcover": 4.17, "preciptype": null, "snow": 0.0, "snowdepth": 0.0, "windgust": 35.3, "windspeed": 16.5, "winddir": 183.7, "pressure": 1019.9, "cloudcover": 41.5, "visibility": 12.3, "solarradiation": null, "solarenergy": null, "sunrise": "07:12:12", "sunriseEpoch": 1517832732, "sunset": "17:46:34", "sunsetEpoch": 1517870794, "moonphase": 0.65, "conditions": "Partially cloudy", "icon": "partly-cloudy-day", "stations": ["KLHZ", "KTTA", "72306013722", "KRDU", "99999903758"], "source": "obs", "hours": null}], "stations": {"KLHZ": {"distance": 44171.0, "latitude": 36.02, "longitude": -78.33, "useCount": 0, "id": "KLHZ", "name": "KLHZ", "quality": 99, "contribution": 0.0}, "72306013722": {"distance": 1712.0, "latitude": 35.892, "longitude": -78.782, "useCount": 0, "id": "72306013722", "name": "RALEIGH AIRPORT, NC US", "quality": 100, "contribution": 0.0}, "KRDU": {"distance": 2073.0, "latitude": 35.86, "longitude": -78.78, "useCount": 0, "id": "KRDU", "name": "KRDU", "quality": 100, "contribution": 0.0}, "KTTA": {"distance": 42951.0, "latitude": 35.58, "longitude": -79.09, "useCount": 0, "id": "KTTA", "name": "KTTA", "quality": 98, "contribution": 0.0}, "99999903758": {"distance": 29426.0, "latitude": 35.971, "longitude": -79.093, "useCount": 0, "id": "99999903758", "name": "DURHAM 11 W, NC US", "quality": 100, "contribution": 0.0}}}