{"queryCost": 1, "latitude": 33.6367, "longitude": -84.428101, "resolvedAddress": "33.6367, -84.428101", "address": "33.6367, -84.428101", "timezone": "America/New_York", "tzoffset": -5.0, "days": [{"datetime": "2019-02-18", "datetimeEpoch": 1550466000, "tempmax": 15.0, "tempmin": 8.3, "temp": 10.4, "feelslikemax": 15.0, "feelslikemin": 5.1, "feelslike": 8.8, "dew": 3.0, "humidity": 64.3, "precip": 1.61, "precipprob": null, "precipcover": 12.5, "preciptype": null, "snow": 0.0, "snowdepth": 0.0, "windgust": 37.1, "windspeed": 27.6, "winddir": 321.7, "pressure": 1020.9, "cloudcover": 76.8, "visibility": 14.7, "solarradiation": 429.8, "solarenergy": 18.6, "sunrise": "07:19:00", "sunriseEpoch": 1550492340, "sunset": "18:24:44", "sunsetEpoch": 1550532284, "moonphase": 0.49, "conditions": "Rain, Overcast", "icon": "rain", "stations": ["KFTY", "72219013874", "KATL", "72219503888", "72219653863", "KPDK"], "source": "obs", "hours": null}], "stations": {"KFTY": {"distance": 18080.0, "latitude": 33.78, "longitude": -84.52, "useCount": 0, "id": "KFTY", "name": "KFTY", "quality": 100, "contribution": 0.0}, "72219013874": {"distance": 1467.0, "latitude": 33.63, "longitude": -84.442, "useCount": 0, "id": "72219013874", "name": "ATLANTA HARTSFIELD INTERNATIONAL AIRPORT, GA US", "quality": 100, "contribution": 0.0}, "KATL": {"distance": 1660.0, "latitude": 33.65, "longitude": -84.42, "useCount": 0, "id": "KATL", "name": "KATL", "quality": 100, "contribution": 0.0}, "72219503888": {"distance": 18063.0, "latitude": 33.779, "longitude": -84.521, "useCount": 0, "id": "72219503888", "name": "ATLANTA FULTON CO AIRPORT, GA US", "quality": 100, "contribution": 0.0}, "72219653863": {"distance": 28974.0, "latitude": 33.875, "longitude": -84.302, "useCount": 0, "id": "72219653863", "name": "ATLANTA DEKALB PEACHTREE AIRPORT, GA US", "quality": 100, "contribution": 0.0}, "KPDK": {"distance": 29565.0, "latitude": 33.88, "longitude": -84.3, "useCount": 0, "id": "KPDK", "name": "KPDK", "quality": 100, "contribution": 0.0}}}