{"queryCost": 1, "latitude": 40.652099609375, "longitude": -75.44080352783203, "resolvedAddress": "40.652099609375, -75.44080352783203", "address": "40.652099609375, -75.44080352783203", "timezone": "America/New_York", "tzoffset": -5.0, "days": [{"datetime": "2020-01-05", "datetimeEpoch": 1578200400, "tempmax": 5.6, "tempmin": 1.2, "temp": 3.5, "feelslikemax": 1.5, "feelslikemin": -2.0, "feelslike": -0.6, "dew": -5.8, "humidity": 50.61, "precip": 0.0, "precipprob": null, "precipcover": 0.0, "preciptype": null, "snow": 1.88, "snowdepth": 1.88, "windgust": 51.3, "windspeed": 33.4, "winddir": 295.8, "pressure": 1012.0, "cloudcover": 96.2, "visibility": 16.0, "solarradiation": 78.7, "solarenergy": 3.1, "sunrise": "07:25:53", "sunriseEpoch": 1578227153, "sunset": "16:48:22", "sunsetEpoch": 1578260902, "moonphase": 0.36, "conditions": "Overcast", "icon": "snow", "stations": ["72517014737", "72511354786", "KABE", "99999900379", "KXLL", "KDYL"], "source": "obs", "hours": null}], "stations": {"72517014737": {"distance": 636.0, "latitude": 40.65, "longitude": -75.448, "useCount": 0, "id": "72517014737", "name": "ALLENTOWN LEHIGH VALLEY INTERNATIONAL AIRPORT, PA US", "quality": 100, "contribution": 0.0}, "72511354786": {"distance": 44815.0, "latitude": 40.33, "longitude": -75.123, "useCount": 0, "id": "72511354786", "name": "DOYLESTOWN AIRPORT, PA US", "quality": 100, "contribution": 0.0}, "KABE": {"distance": 942.0, "latitude": 40.65, "longitude": -75.43, "useCount": 0, "id": "KABE", "name": "ALLENTOWN-BETHLE, PA", "quality": 100, "contribution": 0.0}, "99999900379": {"distance": 10122.0, "latitude": 40.567, "longitude": -75.483, "useCount": 0, "id": "99999900379", "name": null, "quality": 99, "contribution": 0.0}, "KXLL": {"distance": 9721.0, "latitude": 40.57, "longitude": -75.48, "useCount": 0, "id": "KXLL", "name": "KXLL", "quality": 100, "contribution": 0.0}, "KDYL": {"distance": 44981.0, "latitude": 40.33, "longitude": -75.12, "useCount": 0, "id": "KDYL", "name": "KDYL", "quality": 100, "contribution": 0.0}}}