{"queryCost": 1, "latitude": 40.652099609375, "longitude": -75.44080352783203, "resolvedAddress": "40.652099609375, -75.44080352783203", "address": "40.652099609375, -75.44080352783203", "timezone": "America/New_York", "tzoffset": -5.0, "days": [{"datetime": "2020-01-07", "datetimeEpoch": 1578373200, "tempmax": 5.6, "tempmin": -0.6, "temp": 1.9, "feelslikemax": 5.6, "feelslikemin": -4.4, "feelslike": -0.1, "dew": -4.8, "humidity": 62.69, "precip": 1.44, "precipprob": null, "precipcover": 16.67, "preciptype": null, "snow": 0.0, "snowdepth": 1.04, "windgust": null, "windspeed": 16.5, "winddir": 187.9, "pressure": 1016.0, "cloudcover": 37.4, "visibility": 13.2, "solarradiation": 92.3, "solarenergy": 3.3, "uvindex": 2.0, "sunrise": "07:25:45", "sunriseEpoch": 1578399945, "sunset": "16:50:17", "sunsetEpoch": 1578433817, "moonphase": 0.44, "conditions": "Rain, Partially cloudy", "description": "Partly cloudly with late afternoon rain.", "icon": "rain", "stations": ["72517014737", "72511354786", "KABE", "99999900379", "KXLL", "KDYL"], "source": "obs", "hours": null}], "stations": {"72517014737": {"distance": 636.0, "latitude": 40.65, "longitude": -75.448, "useCount": 0, "id": "72517014737", "name": "ALLENTOWN LEHIGH VALLEY INTERNATIONAL AIRPORT, PA US", "quality": 100, "contribution": 0.0}, "72511354786": {"distance": 44815.0, "latitude": 40.33, "longitude": -75.123, "useCount": 0, "id": "72511354786", "name": "DOYLESTOWN AIRPORT, PA US", "quality": 100, "contribution": 0.0}, "KABE": {"distance": 942.0, "latitude": 40.65, "longitude": -75.43, "useCount": 0, "id": "KABE", "name": "ALLENTOWN-BETHLE, PA", "quality": 100, "contribution": 0.0}, "99999900379": {"distance": 10122.0, "latitude": 40.567, "longitude": -75.483, "useCount": 0, "id": "99999900379", "name": null, "quality": 99, "contribution": 0.0}, "KXLL": {"distance": 9721.0, "latitude": 40.57, "longitude": -75.48, "useCount": 0, "id": "KXLL", "name": "KXLL", "quality": 100, "contribution": 0.0}, "KDYL": {"distance": 44981.0, "latitude": 40.33, "longitude": -75.12, "useCount": 0, "id": "KDYL", "name": "KDYL", "quality": 100, "contribution": 0.0}}}