{"queryCost": 1, "latitude": 31.611299514770508, "longitude": -97.23049926757812, "resolvedAddress": "31.611299514770508, -97.23049926757812", "address": "31.611299514770508, -97.23049926757812", "timezone": "America/Chicago", "tzoffset": -6.0, "days": [{"datetime": "2020-01-01", "datetimeEpoch": 1577858400, "tempmax": 13.8, "tempmin": 3.4, "temp": 10.7, "feelslikemax": 13.8, "feelslikemin": 2.1, "feelslike": 10.3, "dew": 2.2, "humidity": 56.8, "precip": 0.0, "precipprob": null, "precipcover": 0.0, "preciptype": null, "snow": 0.0, "snowdepth": 0.0, "windgust": 33.5, "windspeed": 25.9, "winddir": 181.7, "pressure": 1014.0, "cloudcover": 94.8, "visibility": 15.0, "solarradiation": 66.7, "solarenergy": 2.6, "sunrise": "07:28:37", "sunriseEpoch": 1577885317, "sunset": "17:36:15", "sunsetEpoch": 1577921775, "moonphase": 0.17, "conditions": "Overcast", "icon": "cloudy", "stations": ["KACT", "KPWG", "KTPL", "72256013959", "72256353952", "72029553972"], "source": "obs", "hours": null}], "stations": {"KACT": {"distance": 1389.0, "latitude": 31.62, "longitude": -97.22, "useCount": 0, "id": "KACT", "name": "KACT", "quality": 100, "contribution": 0.0}, "KPWG": {"distance": 15027.0, "latitude": 31.49, "longitude": -97.3, "useCount": 0, "id": "KPWG", "name": "WACO, TX", "quality": 98, "contribution": 0.0}, "KTPL": {"distance": 53819.0, "latitude": 31.15, "longitude": -97.4, "useCount": 0, "id": "KTPL", "name": "TEMPLE/DRAUGHON, TX", "quality": 100, "contribution": 0.0}, "72256013959": {"distance": 871.0, "latitude": 31.619, "longitude": -97.228, "useCount": 0, "id": "72256013959", "name": "WACO REGIONAL AIRPORT, TX US", "quality": 100, "contribution": 0.0}, "72256353952": {"distance": 16279.0, "latitude": 31.485, "longitude": -97.316, "useCount": 0, "id": "72256353952", "name": "WACO MCGREGOR EXECUTIVE AIRPORT, TX US", "quality": 97, "contribution": 0.0}, "72029553972": {"distance": 54066.0, "latitude": 32.084, "longitude": -97.097, "useCount": 0, "id": "72029553972", "name": "HILLSBORO MUNICIPAL AIRPORT, TX US", "quality": 97, "contribution": 0.0}}}