{"queryCost": 1, "latitude": 31.611299514770508, "longitude": -97.23049926757812, "resolvedAddress": "31.611299514770508, -97.23049926757812", "address": "31.611299514770508, -97.23049926757812", "timezone": "America/Chicago", "tzoffset": -6.0, "days": [{"datetime": "2020-01-05", "datetimeEpoch": 1578204000, "tempmax": 25.0, "tempmin": 4.4, "temp": 13.5, "feelslikemax": 25.0, "feelslikemin": 1.3, "feelslike": 12.5, "dew": 0.9, "humidity": 47.25, "precip": 0.0, "precipprob": null, "precipcover": 0.0, "preciptype": null, "snow": 0.0, "snowdepth": 0.0, "windgust": 35.3, "windspeed": 25.9, "winddir": 230.0, "pressure": 1023.7, "cloudcover": 0.0, "visibility": 16.0, "solarradiation": 131.1, "solarenergy": 5.2, "sunrise": "07:29:19", "sunriseEpoch": 1578230959, "sunset": "17:39:16", "sunsetEpoch": 1578267556, "moonphase": 0.36, "conditions": "Clear", "icon": "clear-day", "stations": ["KACT", "KPWG", "KTPL", "72256013959", "72256353952", "72029553972"], "source": "obs", "hours": null}], "stations": {"KACT": {"distance": 1389.0, "latitude": 31.62, "longitude": -97.22, "useCount": 0, "id": "KACT", "name": "KACT", "quality": 100, "contribution": 0.0}, "KPWG": {"distance": 15027.0, "latitude": 31.49, "longitude": -97.3, "useCount": 0, "id": "KPWG", "name": "WACO, TX", "quality": 98, "contribution": 0.0}, "KTPL": {"distance": 53819.0, "latitude": 31.15, "longitude": -97.4, "useCount": 0, "id": "KTPL", "name": "TEMPLE/DRAUGHON, TX", "quality": 100, "contribution": 0.0}, "72256013959": {"distance": 871.0, "latitude": 31.619, "longitude": -97.228, "useCount": 0, "id": "72256013959", "name": "WACO REGIONAL AIRPORT, TX US", "quality": 100, "contribution": 0.0}, "72256353952": {"distance": 16279.0, "latitude": 31.485, "longitude": -97.316, "useCount": 0, "id": "72256353952", "name": "WACO MCGREGOR EXECUTIVE AIRPORT, TX US", "quality": 97, "contribution": 0.0}, "72029553972": {"distance": 54066.0, "latitude": 32.084, "longitude": -97.097, "useCount": 0, "id": "72029553972", "name": "HILLSBORO MUNICIPAL AIRPORT, TX US", "quality": 97, "contribution": 0.0}}}