{"queryCost": 1, "latitude": 39.45759963989258, "longitude": -74.57720184326172, "resolvedAddress": "39.45759963989258, -74.57720184326172", "address": "39.45759963989258, -74.57720184326172", "timezone": "America/New_York", "tzoffset": -5.0, "days": [{"datetime": "2020-01-02", "datetimeEpoch": 1577941200, "tempmax": 11.7, "tempmin": -5.7, "temp": 4.0, "feelslikemax": 11.7, "feelslikemin": -5.7, "feelslike": 3.4, "dew": -1.9, "humidity": 67.05, "precip": 0.0, "precipprob": null, "precipcover": 0.0, "preciptype": null, "snow": 0.0, "snowdepth": 0.0, "windgust": 40.7, "windspeed": 20.5, "winddir": 160.0, "pressure": 1014.5, "cloudcover": 2.1, "visibility": 16.0, "solarradiation": 137.6, "solarenergy": 5.5, "sunrise": "07:18:45", "sunriseEpoch": 1577967525, "sunset": "16:45:48", "sunsetEpoch": 1578001548, "moonphase": 0.22, "conditions": "Clear", "icon": "clear-day", "stations": ["KMJX", "72407513735", "KWWD", "KMIV", "72407093730", "KACY"], "source": "obs", "hours": null}], "stations": {"KMJX": {"distance": 55679.0, "latitude": 39.91, "longitude": -74.3, "useCount": 0, "id": "KMJX", "name": "TOMS RIVER, NJ", "quality": 99, "contribution": 0.0}, "72407513735": {"distance": 44240.0, "latitude": 39.366, "longitude": -75.078, "useCount": 0, "id": "72407513735", "name": "MILLVILLE MUNICIPAL AIRPORT, NJ US", "quality": 100, "contribution": 0.0}, "KWWD": {"distance": 56978.0, "latitude": 39.02, "longitude": -74.92, "useCount": 0, "id": "KWWD", "name": "WILDWOOD, NJ", "quality": 100, "contribution": 0.0}, "KMIV": {"distance": 42923.0, "latitude": 39.36, "longitude": -75.06, "useCount": 0, "id": "KMIV", "name": "KMIV", "quality": 100, "contribution": 0.0}, "72407093730": {"distance": 1076.0, "latitude": 39.452, "longitude": -74.567, "useCount": 0, "id": "72407093730", "name": "ATLANTIC CITY INTERNATIONAL AIRPORT, NJ US", "quality": 100, "contribution": 0.0}, "KACY": {"distance": 1703.0, "latitude": 39.45, "longitude": -74.56, "useCount": 0, "id": "KACY", "name": "KACY", "quality": 98, "contribution": 0.0}}}