{"queryCost": 1, "latitude": 39.45759963989258, "longitude": -74.57720184326172, "resolvedAddress": "39.45759963989258, -74.57720184326172", "address": "39.45759963989258, -74.57720184326172", "timezone": "America/New_York", "tzoffset": -5.0, "days": [{"datetime": "2020-01-06", "datetimeEpoch": 1578286800, "tempmax": 11.1, "tempmin": 1.7, "temp": 5.6, "feelslikemax": 11.1, "feelslikemin": -1.1, "feelslike": 3.6, "dew": -3.6, "humidity": 52.42, "precip": 0.0, "precipprob": null, "precipcover": 0.0, "preciptype": null, "snow": 0.0, "snowdepth": 0.0, "windgust": 46.4, "windspeed": 33.5, "winddir": 242.5, "pressure": 1016.4, "cloudcover": 59.9, "visibility": 16.0, "solarradiation": 92.6, "solarenergy": 3.7, "sunrise": "07:18:53", "sunriseEpoch": 1578313133, "sunset": "16:49:21", "sunsetEpoch": 1578347361, "moonphase": 0.4, "conditions": "Partially cloudy", "icon": "wind", "stations": ["KMJX", "72407513735", "KWWD", "KMIV", "72407093730", "KACY"], "source": "obs", "hours": null}], "stations": {"KMJX": {"distance": 55679.0, "latitude": 39.91, "longitude": -74.3, "useCount": 0, "id": "KMJX", "name": "TOMS RIVER, NJ", "quality": 99, "contribution": 0.0}, "72407513735": {"distance": 44240.0, "latitude": 39.366, "longitude": -75.078, "useCount": 0, "id": "72407513735", "name": "MILLVILLE MUNICIPAL AIRPORT, NJ US", "quality": 100, "contribution": 0.0}, "KWWD": {"distance": 56978.0, "latitude": 39.02, "longitude": -74.92, "useCount": 0, "id": "KWWD", "name": "WILDWOOD, NJ", "quality": 100, "contribution": 0.0}, "KMIV": {"distance": 42923.0, "latitude": 39.36, "longitude": -75.06, "useCount": 0, "id": "KMIV", "name": "KMIV", "quality": 100, "contribution": 0.0}, "72407093730": {"distance": 1076.0, "latitude": 39.452, "longitude": -74.567, "useCount": 0, "id": "72407093730", "name": "ATLANTIC CITY INTERNATIONAL AIRPORT, NJ US", "quality": 100, "contribution": 0.0}, "KACY": {"distance": 1703.0, "latitude": 39.45, "longitude": -74.56, "useCount": 0, "id": "KACY", "name": "KACY", "quality": 98, "contribution": 0.0}}}