{"queryCost": 1, "latitude": 39.45759963989258, "longitude": -74.57720184326172, "resolvedAddress": "39.45759963989258, -74.57720184326172", "address": "39.45759963989258, -74.57720184326172", "timezone": "America/New_York", "tzoffset": -5.0, "days": [{"datetime": "2020-01-05", "datetimeEpoch": 1578200400, "tempmax": 6.1, "tempmin": 2.2, "temp": 4.5, "feelslikemax": 1.2, "feelslikemin": -1.5, "feelslike": -0.2, "dew": -4.2, "humidity": 54.33, "precip": 0.53, "precipprob": null, "precipcover": 8.33, "preciptype": null, "snow": 0.0, "snowdepth": 0.0, "windgust": 68.6, "windspeed": 44.6, "winddir": 295.8, "pressure": 1011.8, "cloudcover": 60.8, "visibility": 16.0, "solarradiation": 119.5, "solarenergy": 4.7, "sunrise": "07:18:55", "sunriseEpoch": 1578226735, "sunset": "16:48:25", "sunsetEpoch": 1578260905, "moonphase": 0.36, "conditions": "Rain, Partially cloudy", "icon": "rain", "stations": ["KMJX", "72407513735", "KWWD", "KMIV", "72407093730", "KACY"], "source": "obs", "hours": null}], "stations": {"KMJX": {"distance": 55679.0, "latitude": 39.91, "longitude": -74.3, "useCount": 0, "id": "KMJX", "name": "TOMS RIVER, NJ", "quality": 99, "contribution": 0.0}, "72407513735": {"distance": 44240.0, "latitude": 39.366, "longitude": -75.078, "useCount": 0, "id": "72407513735", "name": "MILLVILLE MUNICIPAL AIRPORT, NJ US", "quality": 100, "contribution": 0.0}, "KWWD": {"distance": 56978.0, "latitude": 39.02, "longitude": -74.92, "useCount": 0, "id": "KWWD", "name": "WILDWOOD, NJ", "quality": 100, "contribution": 0.0}, "KMIV": {"distance": 42923.0, "latitude": 39.36, "longitude": -75.06, "useCount": 0, "id": "KMIV", "name": "KMIV", "quality": 100, "contribution": 0.0}, "72407093730": {"distance": 1076.0, "latitude": 39.452, "longitude": -74.567, "useCount": 0, "id": "72407093730", "name": "ATLANTIC CITY INTERNATIONAL AIRPORT, NJ US", "quality": 100, "contribution": 0.0}, "KACY": {"distance": 1703.0, "latitude": 39.45, "longitude": -74.56, "useCount": 0, "id": "KACY", "name": "KACY", "quality": 98, "contribution": 0.0}}}