{"queryCost": 1, "latitude": 39.45759963989258, "longitude": -74.57720184326172, "resolvedAddress": "39.45759963989258, -74.57720184326172", "address": "39.45759963989258, -74.57720184326172", "timezone": "America/New_York", "tzoffset": -5.0, "days": [{"datetime": "2020-01-03", "datetimeEpoch": 1578027600, "tempmax": 11.1, "tempmin": 8.3, "temp": 10.0, "feelslikemax": 11.1, "feelslikemin": 5.5, "feelslike": 9.4, "dew": 6.6, "humidity": 80.86, "precip": 5.43, "precipprob": null, "precipcover": 58.33, "preciptype": null, "snow": 0.0, "snowdepth": 0.0, "windgust": 35.3, "windspeed": 18.4, "winddir": 190.4, "pressure": 1010.3, "cloudcover": 93.8, "visibility": 13.3, "solarradiation": 45.1, "solarenergy": 1.6, "sunrise": "07:18:50", "sunriseEpoch": 1578053930, "sunset": "16:46:39", "sunsetEpoch": 1578087999, "moonphase": 0.26, "conditions": "Rain, Overcast", "icon": "rain", "stations": ["KMJX", "72407513735", "KWWD", "KMIV", "72407093730", "KACY"], "source": "obs", "hours": null}], "stations": {"KMJX": {"distance": 55679.0, "latitude": 39.91, "longitude": -74.3, "useCount": 0, "id": "KMJX", "name": "TOMS RIVER, NJ", "quality": 99, "contribution": 0.0}, "72407513735": {"distance": 44240.0, "latitude": 39.366, "longitude": -75.078, "useCount": 0, "id": "72407513735", "name": "MILLVILLE MUNICIPAL AIRPORT, NJ US", "quality": 100, "contribution": 0.0}, "KWWD": {"distance": 56978.0, "latitude": 39.02, "longitude": -74.92, "useCount": 0, "id": "KWWD", "name": "WILDWOOD, NJ", "quality": 100, "contribution": 0.0}, "KMIV": {"distance": 42923.0, "latitude": 39.36, "longitude": -75.06, "useCount": 0, "id": "KMIV", "name": "KMIV", "quality": 100, "contribution": 0.0}, "72407093730": {"distance": 1076.0, "latitude": 39.452, "longitude": -74.567, "useCount": 0, "id": "72407093730", "name": "ATLANTIC CITY INTERNATIONAL AIRPORT, NJ US", "quality": 100, "contribution": 0.0}, "KACY": {"distance": 1703.0, "latitude": 39.45, "longitude": -74.56, "useCount": 0, "id": "KACY", "name": "KACY", "quality": 98, "contribution": 0.0}}}