{"queryCost": 1, "latitude": 31.32740020751953, "longitude": -92.54979705810547, "resolvedAddress": "31.32740020751953, -92.54979705810547", "address": "31.32740020751953, -92.54979705810547", "timezone": "America/Chicago", "tzoffset": -6.0, "days": [{"datetime": "2020-01-06", "datetimeEpoch": 1578290400, "tempmax": 21.2, "tempmin": 7.8, "temp": 14.0, "feelslikemax": 21.2, "feelslikemin": 6.2, "feelslike": 13.4, "dew": 10.5, "humidity": 81.32, "precip": 0.0, "precipprob": null, "precipcover": 0.0, "preciptype": null, "snow": 0.0, "snowdepth": 0.0, "windgust": 42.5, "windspeed": 24.1, "winddir": 190.4, "pressure": 1021.1, "cloudcover": 8.5, "visibility": 13.8, "solarradiation": 289.5, "solarenergy": 11.5, "sunrise": "07:10:02", "sunriseEpoch": 1578316202, "sunset": "17:21:58", "sunsetEpoch": 1578352918, "moonphase": 0.4, "conditions": "Clear", "icon": "clear-day", "stations": ["KAEX", "72248713935", "72282153988", "74754093915", "KESF"], "source": "obs", "hours": null}], "stations": {"KAEX": {"distance": 290.0, "latitude": 31.33, "longitude": -92.55, "useCount": 0, "id": "KAEX", "name": "KAEX", "quality": 100, "contribution": 0.0}, "72248713935": {"distance": 25762.0, "latitude": 31.395, "longitude": -92.291, "useCount": 0, "id": "72248713935", "name": "ALEXANDRIA ESLER FIELD, LA US", "quality": 99, "contribution": 0.0}, "72282153988": {"distance": 48370.0, "latitude": 31.022, "longitude": -92.911, "useCount": 0, "id": "72282153988", "name": "FORT POLK FULLERTON LANDING STRIP, LA US", "quality": 97, "contribution": 0.0}, "74754093915": {"distance": 1167.0, "latitude": 31.335, "longitude": -92.559, "useCount": 0, "id": "74754093915", "name": "ALEXANDRIA INTERNATIONAL AIRPORT, LA US", "quality": 100, "contribution": 0.0}, "KESF": {"distance": 25082.0, "latitude": 31.4, "longitude": -92.3, "useCount": 0, "id": "KESF", "name": "ALEXANDRIA/ESLER, LA", "quality": 100, "contribution": 0.0}}}