{"queryCost": 1, "latitude": 31.32740020751953, "longitude": -92.54979705810547, "resolvedAddress": "31.32740020751953, -92.54979705810547", "address": "31.32740020751953, -92.54979705810547", "timezone": "America/Chicago", "tzoffset": -6.0, "days": [{"datetime": "2020-01-05", "datetimeEpoch": 1578204000, "tempmax": 20.0, "tempmin": 2.2, "temp": 10.8, "feelslikemax": 20.0, "feelslikemin": -0.9, "feelslike": 10.5, "dew": 5.9, "humidity": 74.46, "precip": 0.0, "precipprob": null, "precipcover": 0.0, "preciptype": null, "snow": 0.0, "snowdepth": 0.0, "windgust": null, "windspeed": 20.5, "winddir": 127.5, "pressure": 1026.7, "cloudcover": 0.0, "visibility": 16.0, "solarradiation": 358.7, "solarenergy": 14.2, "sunrise": "07:09:56", "sunriseEpoch": 1578229796, "sunset": "17:21:11", "sunsetEpoch": 1578266471, "moonphase": 0.36, "conditions": "Clear", "icon": "clear-day", "stations": ["KAEX", "72248713935", "72282153988", "74754093915", "KESF"], "source": "obs", "hours": null}], "stations": {"KAEX": {"distance": 290.0, "latitude": 31.33, "longitude": -92.55, "useCount": 0, "id": "KAEX", "name": "KAEX", "quality": 100, "contribution": 0.0}, "72248713935": {"distance": 25762.0, "latitude": 31.395, "longitude": -92.291, "useCount": 0, "id": "72248713935", "name": "ALEXANDRIA ESLER FIELD, LA US", "quality": 99, "contribution": 0.0}, "72282153988": {"distance": 48370.0, "latitude": 31.022, "longitude": -92.911, "useCount": 0, "id": "72282153988", "name": "FORT POLK FULLERTON LANDING STRIP, LA US", "quality": 97, "contribution": 0.0}, "74754093915": {"distance": 1167.0, "latitude": 31.335, "longitude": -92.559, "useCount": 0, "id": "74754093915", "name": "ALEXANDRIA INTERNATIONAL AIRPORT, LA US", "quality": 100, "contribution": 0.0}, "KESF": {"distance": 25082.0, "latitude": 31.4, "longitude": -92.3, "useCount": 0, "id": "KESF", "name": "ALEXANDRIA/ESLER, LA", "quality": 100, "contribution": 0.0}}}