{"queryCost": 1, "latitude": 42.74829864501953, "longitude": -73.80169677734375, "resolvedAddress": "42.74829864501953, -73.80169677734375", "address": "42.74829864501953, -73.80169677734375", "timezone": "America/New_York", "tzoffset": -5.0, "days": [{"datetime": "2020-01-06", "datetimeEpoch": 1578286800, "tempmax": 4.3, "tempmin": -3.3, "temp": 0.4, "feelslikemax": 1.7, "feelslikemin": -5.4, "feelslike": -2.0, "dew": -4.9, "humidity": 68.17, "precip": 0.5, "precipprob": null, "precipcover": 12.5, "preciptype": null, "snow": 1.04, "snowdepth": 3.0, "windgust": 41.4, "windspeed": 16.6, "winddir": 217.0, "pressure": 1012.6, "cloudcover": 75.5, "visibility": 13.3, "solarradiation": 105.9, "solarenergy": 5.3, "sunrise": "07:25:46", "sunriseEpoch": 1578313546, "sunset": "16:36:17", "sunsetEpoch": 1578346577, "moonphase": 0.4, "conditions": "Snow, Overcast", "icon": "snow", "stations": ["72616654781", "72518014735", "KDDH", "72507554768", "KALB", "KAQW"], "source": "obs", "hours": null}], "stations": {"72616654781": {"distance": 47951.0, "latitude": 42.894, "longitude": -73.249, "useCount": 0, "id": "72616654781", "name": "BENNINGTON MORSE STATE AIRPORT, VT US", "quality": 100, "contribution": 0.0}, "72518014735": {"distance": 245.0, "latitude": 42.747, "longitude": -73.799, "useCount": 0, "id": "72518014735", "name": "ALBANY INTERNATIONAL AIRPORT, NY US", "quality": 100, "contribution": 0.0}, "KDDH": {"distance": 47730.0, "latitude": 42.89, "longitude": -73.25, "useCount": 0, "id": "KDDH", "name": "KDDH", "quality": 100, "contribution": 0.0}, "72507554768": {"distance": 51996.0, "latitude": 42.697, "longitude": -73.17, "useCount": 0, "id": "72507554768", "name": "NORTH ADAMS HARRIMAN AIRPORT, MA US", "quality": 100, "contribution": 0.0}, "KALB": {"distance": 235.0, "latitude": 42.75, "longitude": -73.8, "useCount": 0, "id": "KALB", "name": "KALB", "quality": 100, "contribution": 0.0}, "KAQW": {"distance": 51938.0, "latitude": 42.7, "longitude": -73.17, "useCount": 0, "id": "KAQW", "name": "KAQW", "quality": 100, "contribution": 0.0}}}