{"queryCost": 1, "latitude": 61.174400329589844, "longitude": -149.99600219726562, "resolvedAddress": "61.174400329589844, -149.99600219726562", "address": "61.174400329589844, -149.99600219726562", "timezone": "America/Anchorage", "tzoffset": -9.0, "days": [{"datetime": "2020-01-07", "datetimeEpoch": 1578387600, "tempmax": -17.7, "tempmin": -23.3, "temp": -20.3, "feelslikemax": -17.7, "feelslikemin": -24.4, "feelslike": -20.7, "dew": -23.7, "humidity": 74.44, "precip": 0.0, "precipprob": null, "precipcover": 0.0, "preciptype": null, "snow": 0.0, "snowdepth": 19.48, "windgust": null, "windspeed": 7.5, "winddir": 82.4, "pressure": 1016.1, "cloudcover": 66.1, "visibility": 8.2, "solarradiation": 16.6, "solarenergy": 0.8, "uvindex": 0.0, "sunrise": "10:08:47", "sunriseEpoch": 1578424127, "sunset": "16:04:03", "sunsetEpoch": 1578445443, "moonphase": 0.44, "conditions": "Partially cloudy", "description": "Partly cloudly.", "icon": "partly-cloudy-day", "stations": ["PANC", "PAMR", "70273026451", "70273526409", "PALH", "70272526491"], "source": "obs", "hours": null}], "stations": {"PANC": {"distance": 1378.0, "latitude": 61.17, "longitude": -150.02, "useCount": 0, "id": "PANC", "name": "ANCHORAGE INTL ARPT, AK", "quality": 100, "contribution": 0.0}, "PAMR": {"distance": 9332.0, "latitude": 61.22, "longitude": -149.85, "useCount": 0, "id": "PAMR", "name": "MERRILL FIELD, AK", "quality": 100, "contribution": 0.0}, "70273026451": {"distance": 1820.0, "latitude": 61.169, "longitude": -150.028, "useCount": 0, "id": "70273026451", "name": "ANCHORAGE TED STEVENS INTERNATIONAL AIRPORT, AK US", "quality": 100, "contribution": 0.0}, "70273526409": {"distance": 8921.0, "latitude": 61.217, "longitude": -149.855, "useCount": 0, "id": "70273526409", "name": "ANCHORAGE MERRILL FIELD, AK US", "quality": 100, "contribution": 0.0}, "PALH": {"distance": 2228.0, "latitude": 61.19, "longitude": -149.97, "useCount": 0, "id": "PALH", "name": "ANCHORAGE/LAKE HOOD, AK", "quality": 100, "contribution": 0.0}, "70272526491": {"distance": 1662.0, "latitude": 61.178, "longitude": -149.966, "useCount": 0, "id": "70272526491", "name": "ANCHORAGE LAKE HOOD SEA PLANE BASE, AK US", "quality": 100, "contribution": 0.0}}}