{"queryCost": 1, "latitude": 61.174400329589844, "longitude": -149.99600219726562, "resolvedAddress": "61.174400329589844, -149.99600219726562", "address": "61.174400329589844, -149.99600219726562", "timezone": "America/Anchorage", "tzoffset": -8.0, "days": [{"datetime": "2018-05-22", "datetimeEpoch": 1526976000, "tempmax": 15.3, "tempmin": 7.4, "temp": 11.2, "feelslikemax": 15.3, "feelslikemin": 4.6, "feelslike": 10.4, "dew": 3.3, "humidity": 59.62, "precip": 0.34, "precipprob": null, "precipcover": 8.33, "preciptype": null, "snow": 0.0, "snowdepth": 0.0, "windgust": 50.0, "windspeed": 30.5, "winddir": 150.9, "pressure": 1004.0, "cloudcover": 62.9, "visibility": 16.0, "solarradiation": 185.7, "solarenergy": 12.0, "sunrise": "04:55:59", "sunriseEpoch": 1526993759, "sunset": "22:59:06", "sunsetEpoch": 1527058746, "moonphase": 0.27, "conditions": "Rain, Partially cloudy", "icon": "rain", "stations": ["PANC", "PAMR", "70273026451", "70273526409", "PALH", "70272526491"], "source": "obs", "hours": null}], "stations": {"PANC": {"distance": 1378.0, "latitude": 61.17, "longitude": -150.02, "useCount": 0, "id": "PANC", "name": "ANCHORAGE INTL ARPT, AK", "quality": 100, "contribution": 0.0}, "PAMR": {"distance": 9332.0, "latitude": 61.22, "longitude": -149.85, "useCount": 0, "id": "PAMR", "name": "MERRILL FIELD, AK", "quality": 100, "contribution": 0.0}, "70273026451": {"distance": 1820.0, "latitude": 61.169, "longitude": -150.028, "useCount": 0, "id": "70273026451", "name": "ANCHORAGE TED STEVENS INTERNATIONAL AIRPORT, AK US", "quality": 100, "contribution": 0.0}, "70273526409": {"distance": 8921.0, "latitude": 61.217, "longitude": -149.855, "useCount": 0, "id": "70273526409", "name": "ANCHORAGE MERRILL FIELD, AK US", "quality": 100, "contribution": 0.0}, "PALH": {"distance": 2228.0, "latitude": 61.19, "longitude": -149.97, "useCount": 0, "id": "PALH", "name": "ANCHORAGE/LAKE HOOD, AK", "quality": 100, "contribution": 0.0}, "70272526491": {"distance": 1662.0, "latitude": 61.178, "longitude": -149.966, "useCount": 0, "id": "70272526491", "name": "ANCHORAGE LAKE HOOD SEA PLANE BASE, AK US", "quality": 100, "contribution": 0.0}}}