{"queryCost": 1, "latitude": 61.174400329589844, "longitude": -149.99600219726562, "resolvedAddress": "61.174400329589844, -149.99600219726562", "address": "61.174400329589844, -149.99600219726562", "timezone": "America/Anchorage", "tzoffset": -9.0, "days": [{"datetime": "2019-12-20", "datetimeEpoch": 1576832400, "tempmax": -9.1, "tempmin": -12.8, "temp": -10.9, "feelslikemax": -9.3, "feelslikemin": -15.4, "feelslike": -11.2, "dew": -14.7, "humidity": 73.7, "precip": 0.0, "precipprob": null, "precipcover": 0.0, "preciptype": null, "snow": 0.0, "snowdepth": 0.0, "windgust": null, "windspeed": 9.7, "winddir": 86.3, "pressure": 999.9, "cloudcover": 16.6, "visibility": 16.0, "solarradiation": 3.5, "solarenergy": 0.3, "sunrise": "10:13:35", "sunriseEpoch": 1576869215, "sunset": "15:41:41", "sunsetEpoch": 1576888901, "moonphase": 0.83, "conditions": "Clear", "icon": "clear-day", "stations": ["PANC", "PAMR", "70273026451", "70273526409", "PALH", "70272526491"], "source": "obs", "hours": null}], "stations": {"PANC": {"distance": 1378.0, "latitude": 61.17, "longitude": -150.02, "useCount": 0, "id": "PANC", "name": "ANCHORAGE INTL ARPT, AK", "quality": 100, "contribution": 0.0}, "PAMR": {"distance": 9332.0, "latitude": 61.22, "longitude": -149.85, "useCount": 0, "id": "PAMR", "name": "MERRILL FIELD, AK", "quality": 100, "contribution": 0.0}, "70273026451": {"distance": 1820.0, "latitude": 61.169, "longitude": -150.028, "useCount": 0, "id": "70273026451", "name": "ANCHORAGE TED STEVENS INTERNATIONAL AIRPORT, AK US", "quality": 100, "contribution": 0.0}, "70273526409": {"distance": 8921.0, "latitude": 61.217, "longitude": -149.855, "useCount": 0, "id": "70273526409", "name": "ANCHORAGE MERRILL FIELD, AK US", "quality": 100, "contribution": 0.0}, "PALH": {"distance": 2228.0, "latitude": 61.19, "longitude": -149.97, "useCount": 0, "id": "PALH", "name": "ANCHORAGE/LAKE HOOD, AK", "quality": 100, "contribution": 0.0}, "70272526491": {"distance": 1662.0, "latitude": 61.178, "longitude": -149.966, "useCount": 0, "id": "70272526491", "name": "ANCHORAGE LAKE HOOD SEA PLANE BASE, AK US", "quality": 100, "contribution": 0.0}}}