{"queryCost": 1, "latitude": 61.174400329589844, "longitude": -149.99600219726562, "resolvedAddress": "61.174400329589844, -149.99600219726562", "address": "61.174400329589844, -149.99600219726562", "timezone": "America/Anchorage", "tzoffset": -9.0, "days": [{"datetime": "2020-01-02", "datetimeEpoch": 1577955600, "tempmax": -11.1, "tempmin": -15.5, "temp": -12.7, "feelslikemax": -11.1, "feelslikemin": -19.7, "feelslike": -15.1, "dew": -16.1, "humidity": 76.33, "precip": 0.18, "precipprob": null, "precipcover": 4.17, "preciptype": null, "snow": 0.0, "snowdepth": 26.4, "windgust": null, "windspeed": 13.0, "winddir": 59.4, "pressure": 1002.4, "cloudcover": 69.5, "visibility": 12.1, "solarradiation": 3.3, "solarenergy": 0.1, "sunrise": "10:13:15", "sunriseEpoch": 1577992395, "sunset": "15:54:59", "sunsetEpoch": 1578012899, "moonphase": 0.22, "conditions": "Snow, Partially cloudy", "icon": "snow", "stations": ["PANC", "PAMR", "70273026451", "70273526409", "PALH", "70272526491"], "source": "obs", "hours": null}], "stations": {"PANC": {"distance": 1378.0, "latitude": 61.17, "longitude": -150.02, "useCount": 0, "id": "PANC", "name": "ANCHORAGE INTL ARPT, AK", "quality": 100, "contribution": 0.0}, "PAMR": {"distance": 9332.0, "latitude": 61.22, "longitude": -149.85, "useCount": 0, "id": "PAMR", "name": "MERRILL FIELD, AK", "quality": 100, "contribution": 0.0}, "70273026451": {"distance": 1820.0, "latitude": 61.169, "longitude": -150.028, "useCount": 0, "id": "70273026451", "name": "ANCHORAGE TED STEVENS INTERNATIONAL AIRPORT, AK US", "quality": 100, "contribution": 0.0}, "70273526409": {"distance": 8921.0, "latitude": 61.217, "longitude": -149.855, "useCount": 0, "id": "70273526409", "name": "ANCHORAGE MERRILL FIELD, AK US", "quality": 100, "contribution": 0.0}, "PALH": {"distance": 2228.0, "latitude": 61.19, "longitude": -149.97, "useCount": 0, "id": "PALH", "name": "ANCHORAGE/LAKE HOOD, AK", "quality": 100, "contribution": 0.0}, "70272526491": {"distance": 1662.0, "latitude": 61.178, "longitude": -149.966, "useCount": 0, "id": "70272526491", "name": "ANCHORAGE LAKE HOOD SEA PLANE BASE, AK US", "quality": 100, "contribution": 0.0}}}