{"queryCost": 1, "latitude": 61.174400329589844, "longitude": -149.99600219726562, "resolvedAddress": "61.174400329589844, -149.99600219726562", "address": "61.174400329589844, -149.99600219726562", "timezone": "America/Anchorage", "tzoffset": -9.0, "days": [{"datetime": "2018-12-04", "datetimeEpoch": 1543914000, "tempmax": -2.4, "tempmin": -5.3, "temp": -3.8, "feelslikemax": -3.5, "feelslikemin": -10.8, "feelslike": -7.9, "dew": -6.3, "humidity": 82.82, "precip": 0.0, "precipprob": null, "precipcover": 0.0, "preciptype": null, "snow": 0.0, "snowdepth": 0.0, "windgust": null, "windspeed": 16.9, "winddir": 154.5, "pressure": 1020.7, "cloudcover": 62.5, "visibility": 16.0, "solarradiation": 11.4, "solarenergy": 0.3, "sunrise": "09:52:08", "sunriseEpoch": 1543949528, "sunset": "15:48:10", "sunsetEpoch": 1543970890, "moonphase": 0.96, "conditions": "Partially cloudy", "icon": "partly-cloudy-day", "stations": ["PANC", "PAMR", "70273026451", "70273526409", "PALH", "70272526491"], "source": "obs", "hours": null}], "stations": {"PANC": {"distance": 1378.0, "latitude": 61.17, "longitude": -150.02, "useCount": 0, "id": "PANC", "name": "ANCHORAGE INTL ARPT, AK", "quality": 100, "contribution": 0.0}, "PAMR": {"distance": 9332.0, "latitude": 61.22, "longitude": -149.85, "useCount": 0, "id": "PAMR", "name": "MERRILL FIELD, AK", "quality": 100, "contribution": 0.0}, "70273026451": {"distance": 1820.0, "latitude": 61.169, "longitude": -150.028, "useCount": 0, "id": "70273026451", "name": "ANCHORAGE TED STEVENS INTERNATIONAL AIRPORT, AK US", "quality": 100, "contribution": 0.0}, "70273526409": {"distance": 8921.0, "latitude": 61.217, "longitude": -149.855, "useCount": 0, "id": "70273526409", "name": "ANCHORAGE MERRILL FIELD, AK US", "quality": 100, "contribution": 0.0}, "PALH": {"distance": 2228.0, "latitude": 61.19, "longitude": -149.97, "useCount": 0, "id": "PALH", "name": "ANCHORAGE/LAKE HOOD, AK", "quality": 100, "contribution": 0.0}, "70272526491": {"distance": 1662.0, "latitude": 61.178, "longitude": -149.966, "useCount": 0, "id": "70272526491", "name": "ANCHORAGE LAKE HOOD SEA PLANE BASE, AK US", "quality": 100, "contribution": 0.0}}}