{"queryCost": 1, "latitude": 45.0780983, "longitude": -83.56030273, "resolvedAddress": "45.0780983, -83.56030273", "address": "45.0780983, -83.56030273", "timezone": "America/Detroit", "tzoffset": -5.0, "days": [{"datetime": "2020-01-03", "datetimeEpoch": 1578027600, "tempmax": 4.4, "tempmin": -0.6, "temp": 2.0, "feelslikemax": 4.4, "feelslikemin": -3.9, "feelslike": -0.4, "dew": -2.2, "humidity": 73.69, "precip": 0.0, "precipprob": null, "precipcover": 0.0, "preciptype": null, "snow": 0.01, "snowdepth": 3.0, "windgust": 27.7, "windspeed": 16.5, "winddir": 296.6, "pressure": 1007.8, "cloudcover": 98.9, "visibility": 16.0, "solarradiation": null, "solarenergy": null, "sunrise": "08:12:55", "sunriseEpoch": 1578057175, "sunset": "17:04:30", "sunsetEpoch": 1578089070, "moonphase": 0.26, "conditions": "Overcast", "icon": "snow", "stations": ["72741754825", "KAPN", "KOSC", "72639094849", "APNM4"], "source": "obs", "hours": null}], "stations": {"72741754825": {"distance": 41650.0, "latitude": 45.407, "longitude": -83.813, "useCount": 0, "id": "72741754825", "name": "ROGERS CITY PRESQUE ISLE CO AIRPORT, MI US", "quality": 50, "contribution": 0.0}, "72639094849": {"distance": 792.0, "latitude": 45.072, "longitude": -83.564, "useCount": 0, "id": "72639094849", "name": "ALPENA CO REGIONAL AIRPORT, MI US", "quality": 100, "contribution": 0.0}, "KAPN": {"distance": 1181.0, "latitude": 45.07, "longitude": -83.57, "useCount": 0, "id": "KAPN", "name": "KAPN", "quality": 100, "contribution": 0.0}, "KOSC": {"distance": 71058.0, "latitude": 44.45, "longitude": -83.4, "useCount": 0, "id": "KOSC", "name": "KOSC", "quality": 100, "contribution": 0.0}, "APNM4": {"distance": 9220.0, "latitude": 45.05, "longitude": -83.45, "useCount": 0, "id": "APNM4", "name": "APNM4 (maritime)", "quality": 50, "contribution": 0.0}}}