{"queryCost": 1, "latitude": 33.6367, "longitude": -84.428101, "resolvedAddress": "33.6367, -84.428101", "address": "33.6367, -84.428101", "timezone": "America/New_York", "tzoffset": -4.0, "days": [{"datetime": "2019-07-08", "datetimeEpoch": 1562558400, "tempmax": 32.2, "tempmin": 23.3, "temp": 27.4, "feelslikemax": 35.7, "feelslikemin": 23.3, "feelslike": 29.0, "dew": 21.9, "humidity": 73.26, "precip": 2.29, "precipprob": null, "precipcover": 8.33, "preciptype": null, "snow": 0.0, "snowdepth": 0.0, "windgust": 53.6, "windspeed": 29.2, "winddir": 253.7, "pressure": 1011.3, "cloudcover": 50.4, "visibility": 15.1, "solarradiation": 172.3, "solarenergy": 9.3, "sunrise": "06:34:23", "sunriseEpoch": 1562582063, "sunset": "20:51:01", "sunsetEpoch": 1562633461, "moonphase": 0.2, "conditions": "Rain, Partially cloudy", "icon": "rain", "stations": ["KFTY", "72219013874", "KATL", "72219503888", "72219653863", "KPDK"], "source": "obs", "hours": null}], "stations": {"KFTY": {"distance": 18080.0, "latitude": 33.78, "longitude": -84.52, "useCount": 0, "id": "KFTY", "name": "KFTY", "quality": 100, "contribution": 0.0}, "72219013874": {"distance": 1467.0, "latitude": 33.63, "longitude": -84.442, "useCount": 0, "id": "72219013874", "name": "ATLANTA HARTSFIELD INTERNATIONAL AIRPORT, GA US", "quality": 100, "contribution": 0.0}, "KATL": {"distance": 1660.0, "latitude": 33.65, "longitude": -84.42, "useCount": 0, "id": "KATL", "name": "KATL", "quality": 100, "contribution": 0.0}, "72219503888": {"distance": 18063.0, "latitude": 33.779, "longitude": -84.521, "useCount": 0, "id": "72219503888", "name": "ATLANTA FULTON CO AIRPORT, GA US", "quality": 100, "contribution": 0.0}, "72219653863": {"distance": 28974.0, "latitude": 33.875, "longitude": -84.302, "useCount": 0, "id": "72219653863", "name": "ATLANTA DEKALB PEACHTREE AIRPORT, GA US", "quality": 100, "contribution": 0.0}, "KPDK": {"distance": 29565.0, "latitude": 33.88, "longitude": -84.3, "useCount": 0, "id": "KPDK", "name": "KPDK", "quality": 100, "contribution": 0.0}}}