{"queryCost": 1, "latitude": 33.6367, "longitude": -84.428101, "resolvedAddress": "33.6367, -84.428101", "address": "33.6367, -84.428101", "timezone": "America/New_York", "tzoffset": -4.0, "days": [{"datetime": "2018-05-09", "datetimeEpoch": 1525838400, "tempmax": 28.9, "tempmin": 16.7, "temp": 22.6, "feelslikemax": 28.1, "feelslikemin": 16.7, "feelslike": 22.6, "dew": 14.5, "humidity": 62.89, "precip": 0.0, "precipprob": null, "precipcover": 0.0, "preciptype": null, "snow": 0.0, "snowdepth": 0.0, "windgust": null, "windspeed": 12.9, "winddir": 113.3, "pressure": 1018.7, "cloudcover": 43.1, "visibility": 16.0, "solarradiation": null, "solarenergy": null, "sunrise": "06:41:42", "sunriseEpoch": 1525862502, "sunset": "20:27:03", "sunsetEpoch": 1525912023, "moonphase": 0.82, "conditions": "Partially cloudy", "icon": "partly-cloudy-day", "stations": ["KFTY", "72219013874", "KATL", "72219503888", "72219653863", "KPDK"], "source": "obs", "hours": null}], "stations": {"KFTY": {"distance": 18080.0, "latitude": 33.78, "longitude": -84.52, "useCount": 0, "id": "KFTY", "name": "KFTY", "quality": 100, "contribution": 0.0}, "72219013874": {"distance": 1467.0, "latitude": 33.63, "longitude": -84.442, "useCount": 0, "id": "72219013874", "name": "ATLANTA HARTSFIELD INTERNATIONAL AIRPORT, GA US", "quality": 100, "contribution": 0.0}, "KATL": {"distance": 1660.0, "latitude": 33.65, "longitude": -84.42, "useCount": 0, "id": "KATL", "name": "KATL", "quality": 100, "contribution": 0.0}, "72219503888": {"distance": 18063.0, "latitude": 33.779, "longitude": -84.521, "useCount": 0, "id": "72219503888", "name": "ATLANTA FULTON CO AIRPORT, GA US", "quality": 100, "contribution": 0.0}, "72219653863": {"distance": 28974.0, "latitude": 33.875, "longitude": -84.302, "useCount": 0, "id": "72219653863", "name": "ATLANTA DEKALB PEACHTREE AIRPORT, GA US", "quality": 100, "contribution": 0.0}, "KPDK": {"distance": 29565.0, "latitude": 33.88, "longitude": -84.3, "useCount": 0, "id": "KPDK", "name": "KPDK", "quality": 100, "contribution": 0.0}}}