{"queryCost": 1, "latitude": 33.6367, "longitude": -84.428101, "resolvedAddress": "33.6367, -84.428101", "address": "33.6367, -84.428101", "timezone": "America/New_York", "tzoffset": -4.0, "days": [{"datetime": "2019-07-26", "datetimeEpoch": 1564113600, "tempmax": 31.1, "tempmin": 20.6, "temp": 26.2, "feelslikemax": 30.5, "feelslikemin": 20.6, "feelslike": 26.0, "dew": 14.4, "humidity": 49.47, "precip": 0.0, "precipprob": null, "precipcover": 0.0, "preciptype": null, "snow": 0.0, "snowdepth": 0.0, "windgust": 27.7, "windspeed": 14.7, "winddir": 70.5, "pressure": 1022.3, "cloudcover": 35.4, "visibility": 15.9, "solarradiation": 351.8, "solarenergy": 17.7, "sunrise": "06:45:33", "sunriseEpoch": 1564137933, "sunset": "20:42:34", "sunsetEpoch": 1564188154, "moonphase": 0.83, "conditions": "Partially cloudy", "icon": "partly-cloudy-day", "stations": ["KFTY", "72219013874", "KATL", "72219503888", "72219653863", "KPDK"], "source": "obs", "hours": null}], "stations": {"KFTY": {"distance": 18080.0, "latitude": 33.78, "longitude": -84.52, "useCount": 0, "id": "KFTY", "name": "KFTY", "quality": 100, "contribution": 0.0}, "72219013874": {"distance": 1467.0, "latitude": 33.63, "longitude": -84.442, "useCount": 0, "id": "72219013874", "name": "ATLANTA HARTSFIELD INTERNATIONAL AIRPORT, GA US", "quality": 100, "contribution": 0.0}, "KATL": {"distance": 1660.0, "latitude": 33.65, "longitude": -84.42, "useCount": 0, "id": "KATL", "name": "KATL", "quality": 100, "contribution": 0.0}, "72219503888": {"distance": 18063.0, "latitude": 33.779, "longitude": -84.521, "useCount": 0, "id": "72219503888", "name": "ATLANTA FULTON CO AIRPORT, GA US", "quality": 100, "contribution": 0.0}, "72219653863": {"distance": 28974.0, "latitude": 33.875, "longitude": -84.302, "useCount": 0, "id": "72219653863", "name": "ATLANTA DEKALB PEACHTREE AIRPORT, GA US", "quality": 100, "contribution": 0.0}, "KPDK": {"distance": 29565.0, "latitude": 33.88, "longitude": -84.3, "useCount": 0, "id": "KPDK", "name": "KPDK", "quality": 100, "contribution": 0.0}}}