{"queryCost": 1, "latitude": 44.258098602299995, "longitude": -88.5190963745, "resolvedAddress": "44.258098602299995, -88.5190963745", "address": "44.258098602299995, -88.5190963745", "timezone": "America/Chicago", "tzoffset": -6.0, "days": [{"datetime": "2020-01-05", "datetimeEpoch": 1578204000, "tempmax": 1.8, "tempmin": -4.1, "temp": -1.0, "feelslikemax": -3.0, "feelslikemin": -9.1, "feelslike": -6.2, "dew": -5.0, "humidity": 74.88, "precip": 0.16, "precipprob": null, "precipcover": 8.33, "preciptype": null, "snow": 0.22, "snowdepth": 3.0, "windgust": 58.7, "windspeed": 33.8, "winddir": 225.7, "pressure": 1012.3, "cloudcover": 63.6, "visibility": 15.6, "solarradiation": 51.2, "solarenergy": 1.8, "sunrise": "07:29:45", "sunriseEpoch": 1578230985, "sunset": "16:29:11", "sunsetEpoch": 1578263351, "moonphase": 0.36, "conditions": "Snow, Partially cloudy", "icon": "snow", "stations": ["72034354852", "72645694855", "72645014898", "KOSH", "KGRB", "KPCZ"], "source": "obs", "hours": null}], "stations": {"72034354852": {"distance": 40755.0, "latitude": 44.333, "longitude": -89.02, "useCount": 0, "id": "72034354852", "name": "WAUPACA MUNICIPAL AIRPORT, WI US", "quality": 100, "contribution": 0.0}, "72645694855": {"distance": 30617.0, "latitude": 43.984, "longitude": -88.557, "useCount": 0, "id": "72645694855", "name": "OSHKOSH WITTMAN REGIONAL AIRPORT, WI US", "quality": 100, "contribution": 0.0}, "72645014898": {"distance": 39158.0, "latitude": 44.479, "longitude": -88.137, "useCount": 0, "id": "72645014898", "name": "GREEN BAY A S INTERNATIONAL AIRPORT, WI US", "quality": 100, "contribution": 0.0}, "KOSH": {"distance": 31056.0, "latitude": 43.98, "longitude": -88.55, "useCount": 0, "id": "KOSH", "name": "KOSH", "quality": 100, "contribution": 0.0}, "KGRB": {"distance": 39609.0, "latitude": 44.48, "longitude": -88.13, "useCount": 0, "id": "KGRB", "name": "KGRB", "quality": 100, "contribution": 0.0}, "KPCZ": {"distance": 40706.0, "latitude": 44.33, "longitude": -89.02, "useCount": 0, "id": "KPCZ", "name": "KPCZ", "quality": 99, "contribution": 0.0}}}