{"queryCost": 1, "latitude": 30.194499969482422, "longitude": -97.6698989868164, "resolvedAddress": "30.194499969482422, -97.6698989868164", "address": "30.194499969482422, -97.6698989868164", "timezone": "America/Chicago", "tzoffset": -5.0, "days": [{"datetime": "2019-05-09", "datetimeEpoch": 1557378000, "tempmax": 30.0, "tempmin": 18.8, "temp": 25.6, "feelslikemax": 34.4, "feelslikemin": 18.8, "feelslike": 26.8, "dew": 21.7, "humidity": 79.74, "precip": 14.27, "precipprob": null, "precipcover": 8.33, "preciptype": null, "snow": 0.0, "snowdepth": 0.0, "windgust": 48.7, "windspeed": 37.0, "winddir": 130.8, "pressure": 1008.0, "cloudcover": 63.6, "visibility": 11.2, "solarradiation": 203.1, "solarenergy": 10.2, "sunrise": "06:41:07", "sunriseEpoch": 1557402067, "sunset": "20:13:32", "sunsetEpoch": 1557450812, "moonphase": 0.11, "conditions": "Rain, Partially cloudy", "icon": "rain", "stations": ["KATT", "KAUS", "72064800230", "KEDC", "72254013904", "72254413958"], "source": "obs", "hours": null}], "stations": {"KATT": {"distance": 16965.0, "latitude": 30.32, "longitude": -97.77, "useCount": 0, "id": "KATT", "name": "KATT", "quality": 100, "contribution": 0.0}, "KAUS": {"distance": 501.0, "latitude": 30.19, "longitude": -97.67, "useCount": 0, "id": "KAUS", "name": "KAUS", "quality": 100, "contribution": 0.0}, "72064800230": {"distance": 24413.0, "latitude": 30.395, "longitude": -97.567, "useCount": 0, "id": "72064800230", "name": "AUSTIN EXECUTIVE AIRPORT, TX US", "quality": 99, "contribution": 0.0}, "KEDC": {"distance": 24810.0, "latitude": 30.4, "longitude": -97.57, "useCount": 0, "id": "KEDC", "name": "KEDC", "quality": 98, "contribution": 0.0}, "72254013904": {"distance": 1593.0, "latitude": 30.183, "longitude": -97.68, "useCount": 0, "id": "72254013904", "name": "AUSTIN BERGSTROM INTERNATIONAL AIRPORT, TX US", "quality": 100, "contribution": 0.0}, "72254413958": {"distance": 16535.0, "latitude": 30.321, "longitude": -97.76, "useCount": 0, "id": "72254413958", "name": "AUSTIN CAMP MABRY, TX US", "quality": 100, "contribution": 0.0}}}