{"queryCost": 1, "latitude": 35.436199, "longitude": -82.541801, "resolvedAddress": "35.436199, -82.541801", "address": "35.436199, -82.541801", "timezone": "America/New_York", "tzoffset": -5.0, "days": [{"datetime": "2020-01-05", "datetimeEpoch": 1578200400, "tempmax": 8.3, "tempmin": -1.2, "temp": 2.6, "feelslikemax": 7.1, "feelslikemin": -5.7, "feelslike": -0.9, "dew": -4.3, "humidity": 61.87, "precip": 0.0, "precipprob": null, "precipcover": 4.17, "preciptype": null, "snow": 0.0, "snowdepth": 0.0, "windgust": 59.4, "windspeed": 30.5, "winddir": 251.7, "pressure": 1021.6, "cloudcover": 14.6, "visibility": 16.0, "solarradiation": 334.3, "solarenergy": 12.0, "sunrise": "07:39:52", "sunriseEpoch": 1578227992, "sunset": "17:31:11", "sunsetEpoch": 1578263471, "moonphase": 0.36, "conditions": "Clear", "icon": "wind", "stations": ["72312003870", "72315003812", "99999953877", "KGSP", "99999953878", "KAVL"], "source": "obs", "hours": null}], "stations": {"72312003870": {"distance": 66182.0, "latitude": 34.906, "longitude": -82.212, "useCount": 0, "id": "72312003870", "name": "GRNVL SPART INTERNATIONAL AIRPORT, SC US", "quality": 100, "contribution": 0.0}, "72315003812": {"distance": 617.0, "latitude": 35.432, "longitude": -82.537, "useCount": 0, "id": "72315003812", "name": "ASHEVILLE AIRPORT, NC US", "quality": 100, "contribution": 0.0}, "99999953877": {"distance": 9231.0, "latitude": 35.495, "longitude": -82.614, "useCount": 0, "id": "99999953877", "name": "ASHEVILLE 8 SSW, NC US", "quality": 100, "contribution": 0.0}, "KGSP": {"distance": 66486.0, "latitude": 34.9, "longitude": -82.22, "useCount": 0, "id": "KGSP", "name": "KGSP", "quality": 100, "contribution": 0.0}, "99999953878": {"distance": 2389.0, "latitude": 35.419, "longitude": -82.557, "useCount": 0, "id": "99999953878", "name": "ASHEVILLE 13 S, NC US", "quality": 100, "contribution": 0.0}, "KAVL": {"distance": 1015.0, "latitude": 35.43, "longitude": -82.55, "useCount": 0, "id": "KAVL", "name": "KAVL", "quality": 100, "contribution": 0.0}}}