{"queryCost": 1, "latitude": 41.338500976599995, "longitude": -75.72339630130001, "resolvedAddress": "41.338500976599995, -75.72339630130001", "address": "41.338500976599995, -75.72339630130001", "timezone": "America/New_York", "tzoffset": -4.0, "days": [{"datetime": "2019-06-27", "datetimeEpoch": 1561608000, "tempmax": 30.6, "tempmin": 17.2, "temp": 24.0, "feelslikemax": 29.8, "feelslikemin": 17.2, "feelslike": 23.8, "dew": 15.1, "humidity": 62.0, "precip": 0.0, "precipprob": null, "precipcover": 0.0, "preciptype": null, "snow": 0.0, "snowdepth": 0.0, "windgust": 31.7, "windspeed": 16.6, "winddir": 222.0, "pressure": 1020.7, "cloudcover": 4.8, "visibility": 15.7, "solarradiation": 449.8, "solarenergy": 21.1, "sunrise": "05:31:33", "sunriseEpoch": 1561627893, "sunset": "20:40:15", "sunsetEpoch": 1561682415, "moonphase": 0.85, "conditions": "Clear", "icon": "clear-day", "stations": ["72513014777", "72543454789", "72517014737", "KMPO", "KAVP", "KHZL"], "source": "obs", "hours": null}], "stations": {"72513014777": {"distance": 619.0, "latitude": 41.334, "longitude": -75.727, "useCount": 0, "id": "72513014777", "name": "WILKES BARRE SCRANTON INTERNATIONAL AIRPORT, PA US", "quality": 100, "contribution": 0.0}, "72543454789": {"distance": 36371.0, "latitude": 41.139, "longitude": -75.379, "useCount": 0, "id": "72543454789", "name": "MOUNT POCONO POCONO MOUNTAINS MUNICIPAL AIRPORT, PA US", "quality": 100, "contribution": 0.0}, "72517014737": {"distance": 80089.0, "latitude": 40.65, "longitude": -75.448, "useCount": 0, "id": "72517014737", "name": "ALLENTOWN LEHIGH VALLEY INTERNATIONAL AIRPORT, PA US", "quality": 100, "contribution": 0.0}, "KMPO": {"distance": 36257.0, "latitude": 41.14, "longitude": -75.38, "useCount": 0, "id": "KMPO", "name": "KMPO", "quality": 100, "contribution": 0.0}, "KAVP": {"distance": 1096.0, "latitude": 41.33, "longitude": -75.73, "useCount": 0, "id": "KAVP", "name": "KAVP", "quality": 100, "contribution": 0.0}, "KHZL": {"distance": 46153.0, "latitude": 40.98, "longitude": -76.0, "useCount": 0, "id": "KHZL", "name": "KHZL", "quality": 100, "contribution": 0.0}}}