{"queryCost": 1, "latitude": 41.338500976599995, "longitude": -75.72339630130001, "resolvedAddress": "41.338500976599995, -75.72339630130001", "address": "41.338500976599995, -75.72339630130001", "timezone": "America/New_York", "tzoffset": -5.0, "days": [{"datetime": "2020-01-02", "datetimeEpoch": 1577941200, "tempmax": 8.3, "tempmin": -3.9, "temp": 2.5, "feelslikemax": 7.2, "feelslikemin": -7.1, "feelslike": 1.6, "dew": -5.3, "humidity": 58.19, "precip": 0.0, "precipprob": null, "precipcover": 0.0, "preciptype": null, "snow": 0.0, "snowdepth": 0.0, "windgust": 40.7, "windspeed": 18.4, "winddir": 292.5, "pressure": 1011.7, "cloudcover": 8.8, "visibility": 15.9, "solarradiation": 164.3, "solarenergy": 6.5, "sunrise": "07:29:02", "sunriseEpoch": 1577968142, "sunset": "16:44:42", "sunsetEpoch": 1578001482, "moonphase": 0.22, "conditions": "Clear", "icon": "clear-day", "stations": ["72513014777", "72543454789", "72517014737", "KMPO", "KAVP", "KHZL"], "source": "obs", "hours": null}], "stations": {"72513014777": {"distance": 619.0, "latitude": 41.334, "longitude": -75.727, "useCount": 0, "id": "72513014777", "name": "WILKES BARRE SCRANTON INTERNATIONAL AIRPORT, PA US", "quality": 100, "contribution": 0.0}, "72543454789": {"distance": 36371.0, "latitude": 41.139, "longitude": -75.379, "useCount": 0, "id": "72543454789", "name": "MOUNT POCONO POCONO MOUNTAINS MUNICIPAL AIRPORT, PA US", "quality": 100, "contribution": 0.0}, "72517014737": {"distance": 80089.0, "latitude": 40.65, "longitude": -75.448, "useCount": 0, "id": "72517014737", "name": "ALLENTOWN LEHIGH VALLEY INTERNATIONAL AIRPORT, PA US", "quality": 100, "contribution": 0.0}, "KMPO": {"distance": 36257.0, "latitude": 41.14, "longitude": -75.38, "useCount": 0, "id": "KMPO", "name": "KMPO", "quality": 100, "contribution": 0.0}, "KAVP": {"distance": 1096.0, "latitude": 41.33, "longitude": -75.73, "useCount": 0, "id": "KAVP", "name": "KAVP", "quality": 100, "contribution": 0.0}, "KHZL": {"distance": 46153.0, "latitude": 40.98, "longitude": -76.0, "useCount": 0, "id": "KHZL", "name": "KHZL", "quality": 100, "contribution": 0.0}}}