{"queryCost": 1, "latitude": 41.338500976599995, "longitude": -75.72339630130001, "resolvedAddress": "41.338500976599995, -75.72339630130001", "address": "41.338500976599995, -75.72339630130001", "timezone": "America/New_York", "tzoffset": -5.0, "days": [{"datetime": "2020-01-03", "datetimeEpoch": 1578027600, "tempmax": 7.2, "tempmin": 4.3, "temp": 6.1, "feelslikemax": 7.2, "feelslikemin": 3.3, "feelslike": 5.7, "dew": 2.8, "humidity": 80.51, "precip": 2.95, "precipprob": null, "precipcover": 41.67, "preciptype": null, "snow": 0.0, "snowdepth": 0.0, "windgust": null, "windspeed": 9.4, "winddir": 281.3, "pressure": 1008.9, "cloudcover": 95.3, "visibility": 9.2, "solarradiation": 33.2, "solarenergy": 1.3, "sunrise": "07:29:05", "sunriseEpoch": 1578054545, "sunset": "16:45:35", "sunsetEpoch": 1578087935, "moonphase": 0.26, "conditions": "Rain, Overcast", "icon": "rain", "stations": ["72513014777", "72543454789", "72517014737", "KMPO", "KAVP", "KHZL"], "source": "obs", "hours": null}], "stations": {"72513014777": {"distance": 619.0, "latitude": 41.334, "longitude": -75.727, "useCount": 0, "id": "72513014777", "name": "WILKES BARRE SCRANTON INTERNATIONAL AIRPORT, PA US", "quality": 100, "contribution": 0.0}, "72543454789": {"distance": 36371.0, "latitude": 41.139, "longitude": -75.379, "useCount": 0, "id": "72543454789", "name": "MOUNT POCONO POCONO MOUNTAINS MUNICIPAL AIRPORT, PA US", "quality": 100, "contribution": 0.0}, "72517014737": {"distance": 80089.0, "latitude": 40.65, "longitude": -75.448, "useCount": 0, "id": "72517014737", "name": "ALLENTOWN LEHIGH VALLEY INTERNATIONAL AIRPORT, PA US", "quality": 100, "contribution": 0.0}, "KMPO": {"distance": 36257.0, "latitude": 41.14, "longitude": -75.38, "useCount": 0, "id": "KMPO", "name": "KMPO", "quality": 100, "contribution": 0.0}, "KAVP": {"distance": 1096.0, "latitude": 41.33, "longitude": -75.73, "useCount": 0, "id": "KAVP", "name": "KAVP", "quality": 100, "contribution": 0.0}, "KHZL": {"distance": 46153.0, "latitude": 40.98, "longitude": -76.0, "useCount": 0, "id": "KHZL", "name": "KHZL", "quality": 100, "contribution": 0.0}}}