{"queryCost": 1, "latitude": 33.30780029, "longitude": -111.6549988, "resolvedAddress": "33.30780029, -111.6549988", "address": "33.30780029, -111.6549988", "timezone": "America/Phoenix", "tzoffset": -7.0, "days": [{"datetime": "2018-11-24", "datetimeEpoch": 1543042800, "tempmax": 20.4, "tempmin": 8.4, "temp": 14.1, "feelslikemax": 20.4, "feelslikemin": 7.9, "feelslike": 14.0, "dew": 4.3, "humidity": 53.68, "precip": 0.0, "precipprob": null, "precipcover": 0.0, "preciptype": null, "snow": 0.0, "snowdepth": 0.0, "windgust": null, "windspeed": 10.4, "winddir": 106.3, "pressure": 1012.0, "cloudcover": 4.5, "visibility": 16.0, "solarradiation": 162.0, "solarenergy": 12.2, "sunrise": "07:06:12", "sunriseEpoch": 1543068372, "sunset": "17:20:17", "sunsetEpoch": 1543105217, "moonphase": 0.52, "conditions": "Clear", "icon": "clear-day", "stations": ["72278023183", "KPHX", "KCGZ", "KFFZ", "72274803914"], "source": "obs", "hours": null}], "stations": {"KCGZ": {"distance": 41248.0, "latitude": 32.95, "longitude": -111.77, "useCount": 0, "id": "KCGZ", "name": "CASA GRANDA, AZ", "quality": 99, "contribution": 0.0}, "KFFZ": {"distance": 19355.0, "latitude": 33.47, "longitude": -111.73, "useCount": 0, "id": "KFFZ", "name": "FALCON FLD MESA, AZ", "quality": 100, "contribution": 0.0}, "72278023183": {"distance": 35084.0, "latitude": 33.428, "longitude": -112.004, "useCount": 0, "id": "72278023183", "name": "PHOENIX AIRPORT, AZ US", "quality": 100, "contribution": 0.0}, "72274803914": {"distance": 41176.0, "latitude": 32.95, "longitude": -111.767, "useCount": 0, "id": "72274803914", "name": "CASA GRANDE MUNICIPAL AIRPORT, AZ US", "quality": 99, "contribution": 0.0}, "KPHX": {"distance": 36559.0, "latitude": 33.43, "longitude": -112.02, "useCount": 0, "id": "KPHX", "name": "KPHX", "quality": 100, "contribution": 0.0}}}