{"queryCost": 1, "latitude": 33.30780029, "longitude": -111.6549988, "resolvedAddress": "33.30780029, -111.6549988", "address": "33.30780029, -111.6549988", "timezone": "America/Phoenix", "tzoffset": -7.0, "days": [{"datetime": "2020-01-05", "datetimeEpoch": 1578207600, "tempmax": 20.0, "tempmin": 5.9, "temp": 12.1, "feelslikemax": 20.0, "feelslikemin": 4.6, "feelslike": 11.5, "dew": 2.5, "humidity": 54.11, "precip": 0.0, "precipprob": null, "precipcover": 0.0, "preciptype": null, "snow": 0.0, "snowdepth": 0.0, "windgust": 27.7, "windspeed": 15.9, "winddir": 151.4, "pressure": 1023.2, "cloudcover": 9.5, "visibility": 16.0, "solarradiation": 296.2, "solarenergy": 12.8, "sunrise": "07:31:02", "sunriseEpoch": 1578234662, "sunset": "17:32:59", "sunsetEpoch": 1578270779, "moonphase": 0.36, "conditions": "Clear", "icon": "clear-day", "stations": ["72278023183", "KPHX", "KCGZ", "72278303185", "KFFZ", "72274803914"], "source": "obs", "hours": null}], "stations": {"72278023183": {"distance": 35084.0, "latitude": 33.428, "longitude": -112.004, "useCount": 0, "id": "72278023183", "name": "PHOENIX AIRPORT, AZ US", "quality": 100, "contribution": 0.0}, "KPHX": {"distance": 36559.0, "latitude": 33.43, "longitude": -112.02, "useCount": 0, "id": "KPHX", "name": "KPHX", "quality": 100, "contribution": 0.0}, "KCGZ": {"distance": 41248.0, "latitude": 32.95, "longitude": -111.77, "useCount": 0, "id": "KCGZ", "name": "CASA GRANDA, AZ", "quality": 99, "contribution": 0.0}, "72278303185": {"distance": 19117.0, "latitude": 33.467, "longitude": -111.733, "useCount": 0, "id": "72278303185", "name": "MESA FALCON FIELD, AZ US", "quality": 100, "contribution": 0.0}, "KFFZ": {"distance": 19355.0, "latitude": 33.47, "longitude": -111.73, "useCount": 0, "id": "KFFZ", "name": "FALCON FLD MESA, AZ", "quality": 100, "contribution": 0.0}, "72274803914": {"distance": 41176.0, "latitude": 32.95, "longitude": -111.767, "useCount": 0, "id": "72274803914", "name": "CASA GRANDE MUNICIPAL AIRPORT, AZ US", "quality": 99, "contribution": 0.0}}}