{"queryCost": 1, "latitude": 33.30780029, "longitude": -111.6549988, "resolvedAddress": "33.30780029, -111.6549988", "address": "33.30780029, -111.6549988", "timezone": "America/Phoenix", "tzoffset": -7.0, "days": [{"datetime": "2018-01-13", "datetimeEpoch": 1515826800, "tempmax": 25.2, "tempmin": 8.8, "temp": 16.1, "feelslikemax": 25.2, "feelslikemin": 8.4, "feelslike": 16.1, "dew": 1.0, "humidity": 44.04, "precip": 0.0, "precipprob": null, "precipcover": 0.0, "preciptype": null, "snow": 0.0, "snowdepth": 0.0, "windgust": 31.7, "windspeed": 17.5, "winddir": 67.4, "pressure": 1020.9, "cloudcover": 8.3, "visibility": 24.8, "solarradiation": 186.5, "solarenergy": 12.8, "sunrise": "07:30:43", "sunriseEpoch": 1515853843, "sunset": "17:40:19", "sunsetEpoch": 1515890419, "moonphase": 0.95, "conditions": "Clear", "icon": "clear-day", "stations": ["72278903192", "72278403184", "KSDL", "KDVT", "72278023183", "KPHX", "72278303185", "KFFZ"], "source": "obs", "hours": null}], "stations": {"72278903192": {"distance": 42365.0, "latitude": 33.623, "longitude": -111.911, "useCount": 0, "id": "72278903192", "name": "SCOTTSDALE MUNICIPAL AIRPORT, AZ US", "quality": 100, "contribution": 0.0}, "72278403184": {"distance": 58011.0, "latitude": 33.688, "longitude": -112.082, "useCount": 0, "id": "72278403184", "name": "PHOENIX DEER VALLEY MUNICIPAL AIRPORT, AZ US", "quality": 100, "contribution": 0.0}, "KSDL": {"distance": 41682.0, "latitude": 33.61, "longitude": -111.92, "useCount": 0, "id": "KSDL", "name": "KSDL", "quality": 100, "contribution": 0.0}, "KDVT": {"distance": 56577.0, "latitude": 33.68, "longitude": -112.07, "useCount": 0, "id": "KDVT", "name": "KDVT", "quality": 100, "contribution": 0.0}, "72278023183": {"distance": 35084.0, "latitude": 33.428, "longitude": -112.004, "useCount": 0, "id": "72278023183", "name": "PHOENIX AIRPORT, AZ US", "quality": 100, "contribution": 0.0}, "KPHX": {"distance": 36559.0, "latitude": 33.43, "longitude": -112.02, "useCount": 0, "id": "KPHX", "name": "KPHX", "quality": 100, "contribution": 0.0}, "72278303185": {"distance": 19117.0, "latitude": 33.467, "longitude": -111.733, "useCount": 0, "id": "72278303185", "name": "MESA FALCON FIELD, AZ US", "quality": 100, "contribution": 0.0}, "KFFZ": {"distance": 19355.0, "latitude": 33.47, "longitude": -111.73, "useCount": 0, "id": "KFFZ", "name": "FALCON FLD MESA, AZ", "quality": 100, "contribution": 0.0}}}