{"queryCost": 1, "latitude": 42.234901428222656, "longitude": -85.5521011352539, "resolvedAddress": "42.234901428222656, -85.5521011352539", "address": "42.234901428222656, -85.5521011352539", "timezone": "America/Detroit", "tzoffset": -5.0, "days": [{"datetime": "2020-01-03", "datetimeEpoch": 1578027600, "tempmax": 6.1, "tempmin": 1.2, "temp": 3.2, "feelslikemax": 4.0, "feelslikemin": -2.0, "feelslike": 0.8, "dew": 0.2, "humidity": 80.76, "precip": 0.0, "precipprob": null, "precipcover": 0.0, "preciptype": null, "snow": 0.0, "snowdepth": 2.74, "windgust": null, "windspeed": 14.8, "winddir": 315.8, "pressure": 1008.7, "cloudcover": 79.1, "visibility": 13.2, "solarradiation": 49.3, "solarenergy": 1.8, "sunrise": "08:11:14", "sunriseEpoch": 1578057074, "sunset": "17:22:06", "sunsetEpoch": 1578090126, "moonphase": 0.26, "conditions": "Overcast", "icon": "cloudy", "stations": ["72635794815", "72538354827", "72539614815", "KAZO", "KBTL", "KIRS"], "source": "obs", "hours": null}], "stations": {"72635794815": {"distance": 28.0, "latitude": 42.235, "longitude": -85.552, "useCount": 0, "id": "72635794815", "name": "KALAMAZOO BATTLE CREEK INTERNATIONAL AIRPORT, MI US", "quality": 100, "contribution": 0.0}, "72538354827": {"distance": 47579.0, "latitude": 41.817, "longitude": -85.433, "useCount": 0, "id": "72538354827", "name": "STURGIS KIRSCH MUNICIPAL AIRPORT, MI US", "quality": 98, "contribution": 0.0}, "72539614815": {"distance": 26078.0, "latitude": 42.308, "longitude": -85.251, "useCount": 0, "id": "72539614815", "name": "BATTLE CREEK KELLOGG AIRPORT, MI US", "quality": 100, "contribution": 0.0}, "KAZO": {"distance": 572.0, "latitude": 42.23, "longitude": -85.55, "useCount": 0, "id": "KAZO", "name": "KAZO", "quality": 100, "contribution": 0.0}, "KBTL": {"distance": 25920.0, "latitude": 42.3, "longitude": -85.25, "useCount": 0, "id": "KBTL", "name": "KBTL", "quality": 100, "contribution": 0.0}, "KIRS": {"distance": 48200.0, "latitude": 41.81, "longitude": -85.44, "useCount": 0, "id": "KIRS", "name": "KIRS", "quality": 100, "contribution": 0.0}}}