{"queryCost": 1, "latitude": 42.234901428222656, "longitude": -85.5521011352539, "resolvedAddress": "42.234901428222656, -85.5521011352539", "address": "42.234901428222656, -85.5521011352539", "timezone": "America/Detroit", "tzoffset": -5.0, "days": [{"datetime": "2020-01-04", "datetimeEpoch": 1578114000, "tempmax": 2.2, "tempmin": -1.1, "temp": 0.5, "feelslikemax": -1.2, "feelslikemin": -7.3, "feelslike": -4.0, "dew": -4.6, "humidity": 68.96, "precip": 0.0, "precipprob": null, "precipcover": 0.0, "preciptype": null, "snow": 0.0, "snowdepth": 0.35, "windgust": 44.6, "windspeed": 31.7, "winddir": 331.7, "pressure": 1013.8, "cloudcover": 100.0, "visibility": 15.8, "solarradiation": 67.3, "solarenergy": 2.4, "sunrise": "08:11:15", "sunriseEpoch": 1578143475, "sunset": "17:23:01", "sunsetEpoch": 1578176581, "moonphase": 0.31, "conditions": "Overcast", "icon": "wind", "stations": ["72635794815", "72538354827", "72539614815", "KAZO", "KBTL", "KIRS"], "source": "obs", "hours": null}], "stations": {"72635794815": {"distance": 28.0, "latitude": 42.235, "longitude": -85.552, "useCount": 0, "id": "72635794815", "name": "KALAMAZOO BATTLE CREEK INTERNATIONAL AIRPORT, MI US", "quality": 100, "contribution": 0.0}, "72538354827": {"distance": 47579.0, "latitude": 41.817, "longitude": -85.433, "useCount": 0, "id": "72538354827", "name": "STURGIS KIRSCH MUNICIPAL AIRPORT, MI US", "quality": 98, "contribution": 0.0}, "72539614815": {"distance": 26078.0, "latitude": 42.308, "longitude": -85.251, "useCount": 0, "id": "72539614815", "name": "BATTLE CREEK KELLOGG AIRPORT, MI US", "quality": 100, "contribution": 0.0}, "KAZO": {"distance": 572.0, "latitude": 42.23, "longitude": -85.55, "useCount": 0, "id": "KAZO", "name": "KAZO", "quality": 100, "contribution": 0.0}, "KBTL": {"distance": 25920.0, "latitude": 42.3, "longitude": -85.25, "useCount": 0, "id": "KBTL", "name": "KBTL", "quality": 100, "contribution": 0.0}, "KIRS": {"distance": 48200.0, "latitude": 41.81, "longitude": -85.44, "useCount": 0, "id": "KIRS", "name": "KIRS", "quality": 100, "contribution": 0.0}}}