{"queryCost": 1, "latitude": 42.234901428222656, "longitude": -85.5521011352539, "resolvedAddress": "42.234901428222656, -85.5521011352539", "address": "42.234901428222656, -85.5521011352539", "timezone": "America/Detroit", "tzoffset": -5.0, "days": [{"datetime": "2020-01-02", "datetimeEpoch": 1577941200, "tempmax": 7.8, "tempmin": 2.8, "temp": 5.1, "feelslikemax": 5.1, "feelslikemin": -2.1, "feelslike": 1.3, "dew": -0.9, "humidity": 65.74, "precip": 0.0, "precipprob": null, "precipcover": 0.0, "preciptype": null, "snow": 2.98, "snowdepth": 5.88, "windgust": 47.7, "windspeed": 27.7, "winddir": 202.9, "pressure": 1003.6, "cloudcover": 17.1, "visibility": 16.0, "solarradiation": 188.7, "solarenergy": 6.8, "sunrise": "08:11:12", "sunriseEpoch": 1577970672, "sunset": "17:21:12", "sunsetEpoch": 1578003672, "moonphase": 0.22, "conditions": "Clear", "icon": "snow", "stations": ["72635794815", "72538354827", "72539614815", "KAZO", "KBTL", "KIRS"], "source": "obs", "hours": null}], "stations": {"72635794815": {"distance": 28.0, "latitude": 42.235, "longitude": -85.552, "useCount": 0, "id": "72635794815", "name": "KALAMAZOO BATTLE CREEK INTERNATIONAL AIRPORT, MI US", "quality": 100, "contribution": 0.0}, "72538354827": {"distance": 47579.0, "latitude": 41.817, "longitude": -85.433, "useCount": 0, "id": "72538354827", "name": "STURGIS KIRSCH MUNICIPAL AIRPORT, MI US", "quality": 98, "contribution": 0.0}, "72539614815": {"distance": 26078.0, "latitude": 42.308, "longitude": -85.251, "useCount": 0, "id": "72539614815", "name": "BATTLE CREEK KELLOGG AIRPORT, MI US", "quality": 100, "contribution": 0.0}, "KAZO": {"distance": 572.0, "latitude": 42.23, "longitude": -85.55, "useCount": 0, "id": "KAZO", "name": "KAZO", "quality": 100, "contribution": 0.0}, "KBTL": {"distance": 25920.0, "latitude": 42.3, "longitude": -85.25, "useCount": 0, "id": "KBTL", "name": "KBTL", "quality": 100, "contribution": 0.0}, "KIRS": {"distance": 48200.0, "latitude": 41.81, "longitude": -85.44, "useCount": 0, "id": "KIRS", "name": "KIRS", "quality": 100, "contribution": 0.0}}}