{"queryCost": 1, "latitude": 41.9388999939, "longitude": -72.68319702149999, "resolvedAddress": "41.9388999939, -72.68319702149999", "address": "41.9388999939, -72.68319702149999", "timezone": "America/New_York", "tzoffset": -5.0, "days": [{"datetime": "2020-01-02", "datetimeEpoch": 1577941200, "tempmax": 7.9, "tempmin": -1.7, "temp": 2.8, "feelslikemax": 5.1, "feelslikemin": -5.1, "feelslike": -0.4, "dew": -4.1, "humidity": 61.21, "precip": 0.0, "precipprob": null, "precipcover": 0.0, "preciptype": null, "snow": 0.0, "snowdepth": 3.0, "windgust": 29.5, "windspeed": 22.3, "winddir": 207.5, "pressure": 1011.6, "cloudcover": 85.2, "visibility": 16.0, "solarradiation": 38.4, "solarenergy": 1.4, "sunrise": "07:18:46", "sunriseEpoch": 1577967526, "sunset": "16:30:39", "sunsetEpoch": 1578000639, "moonphase": 0.22, "conditions": "Overcast", "icon": "cloudy", "stations": ["KHFD", "74491514775", "72508014740", "KBDL", "72508714752", "KBAF"], "source": "obs", "hours": null}], "stations": {"KHFD": {"distance": 23417.0, "latitude": 41.73, "longitude": -72.65, "useCount": 0, "id": "KHFD", "name": "KHFD", "quality": 100, "contribution": 0.0}, "74491514775": {"distance": 24519.0, "latitude": 42.158, "longitude": -72.716, "useCount": 0, "id": "74491514775", "name": "WESTFIELD BARNES MUNICIPAL AIRPORT, MA US", "quality": 100, "contribution": 0.0}, "72508014740": {"distance": 189.0, "latitude": 41.938, "longitude": -72.682, "useCount": 0, "id": "72508014740", "name": "HARTFORD BRADLEY INTERNATIONAL AIRPORT, CT US", "quality": 100, "contribution": 0.0}, "KBDL": {"distance": 1026.0, "latitude": 41.93, "longitude": -72.68, "useCount": 0, "id": "KBDL", "name": "KBDL", "quality": 100, "contribution": 0.0}, "72508714752": {"distance": 22737.0, "latitude": 41.736, "longitude": -72.651, "useCount": 0, "id": "72508714752", "name": "HARTFORD BRAINARD FIELD, CT US", "quality": 100, "contribution": 0.0}, "KBAF": {"distance": 25905.0, "latitude": 42.17, "longitude": -72.72, "useCount": 0, "id": "KBAF", "name": "KBAF", "quality": 100, "contribution": 0.0}}}