{"queryCost": 1, "latitude": 41.9388999939, "longitude": -72.68319702149999, "resolvedAddress": "41.9388999939, -72.68319702149999", "address": "41.9388999939, -72.68319702149999", "timezone": "America/New_York", "tzoffset": -4.0, "days": [{"datetime": "2019-08-14", "datetimeEpoch": 1565755200, "tempmax": 27.8, "tempmin": 19.4, "temp": 22.9, "feelslikemax": 28.3, "feelslikemin": 19.4, "feelslike": 23.0, "dew": 17.5, "humidity": 73.56, "precip": 0.0, "precipprob": null, "precipcover": 0.0, "preciptype": null, "snow": 0.0, "snowdepth": 0.0, "windgust": null, "windspeed": 18.4, "winddir": 227.8, "pressure": 1010.4, "cloudcover": 76.1, "visibility": 15.1, "solarradiation": 293.6, "solarenergy": 15.9, "sunrise": "05:57:23", "sunriseEpoch": 1565776643, "sunset": "19:52:47", "sunsetEpoch": 1565826767, "moonphase": 0.5, "conditions": "Overcast", "icon": "cloudy", "stations": ["KHFD", "74491514775", "72508014740", "KBDL", "72508714752", "KBAF"], "source": "obs", "hours": null}], "stations": {"KHFD": {"distance": 23417.0, "latitude": 41.73, "longitude": -72.65, "useCount": 0, "id": "KHFD", "name": "KHFD", "quality": 100, "contribution": 0.0}, "74491514775": {"distance": 24519.0, "latitude": 42.158, "longitude": -72.716, "useCount": 0, "id": "74491514775", "name": "WESTFIELD BARNES MUNICIPAL AIRPORT, MA US", "quality": 100, "contribution": 0.0}, "72508014740": {"distance": 189.0, "latitude": 41.938, "longitude": -72.682, "useCount": 0, "id": "72508014740", "name": "HARTFORD BRADLEY INTERNATIONAL AIRPORT, CT US", "quality": 100, "contribution": 0.0}, "KBDL": {"distance": 1026.0, "latitude": 41.93, "longitude": -72.68, "useCount": 0, "id": "KBDL", "name": "KBDL", "quality": 100, "contribution": 0.0}, "72508714752": {"distance": 22737.0, "latitude": 41.736, "longitude": -72.651, "useCount": 0, "id": "72508714752", "name": "HARTFORD BRAINARD FIELD, CT US", "quality": 100, "contribution": 0.0}, "KBAF": {"distance": 25905.0, "latitude": 42.17, "longitude": -72.72, "useCount": 0, "id": "KBAF", "name": "KBAF", "quality": 100, "contribution": 0.0}}}