{"queryCost": 1, "latitude": 60.77980042, "longitude": -161.8379974, "resolvedAddress": "60.77980042, -161.8379974", "address": "60.77980042, -161.8379974", "timezone": "America/Anchorage", "tzoffset": -9.0, "days": [{"datetime": "2020-01-07", "datetimeEpoch": 1578387600, "tempmax": -28.3, "tempmin": -30.0, "temp": -29.1, "feelslikemax": -40.5, "feelslikemin": -44.1, "feelslike": -42.3, "dew": -32.6, "humidity": 71.56, "precip": 0.0, "precipprob": null, "precipcover": 0.0, "preciptype": null, "snow": 0.0, "snowdepth": 0.0, "windgust": 48.2, "windspeed": 29.4, "winddir": 45.8, "pressure": 1020.0, "cloudcover": 1.2, "visibility": 16.0, "solarradiation": null, "solarenergy": null, "uvindex": 0.0, "sunrise": "10:52:20", "sunriseEpoch": 1578426740, "sunset": "16:55:15", "sunsetEpoch": 1578448515, "moonphase": 0.44, "conditions": "Clear", "description": "Clear conditions.", "icon": "clear-day", "stations": ["PABE", "PANA", "70219026615", "70219599999", "PFKW", "PPIT"], "source": "obs", "hours": null}], "stations": {"PABE": {"distance": 2065.0, "latitude": 60.78, "longitude": -161.8, "useCount": 0, "id": "PABE", "name": "BETHEL AIRPOR, AK", "quality": 100, "contribution": 0.0}, "PANA": {"distance": 12635.0, "latitude": 60.69, "longitude": -161.98, "useCount": 0, "id": "PANA", "name": "NAPAKIAK, AK", "quality": 76, "contribution": 0.0}, "70219026615": {"distance": 758.0, "latitude": 60.785, "longitude": -161.829, "useCount": 0, "id": "70219026615", "name": "BETHEL AIRPORT, AK US", "quality": 100, "contribution": 0.0}, "70219599999": {"distance": 13330.0, "latitude": 60.683, "longitude": -161.983, "useCount": 0, "id": "70219599999", "name": "NAPAKIAK, AK US", "quality": 74, "contribution": 0.0}, "PFKW": {"distance": 21655.0, "latitude": 60.79, "longitude": -161.44, "useCount": 0, "id": "PFKW", "name": "KWETHLUK, AK", "quality": 87, "contribution": 0.0}, "PPIT": {"distance": 35720.0, "latitude": 60.91, "longitude": -162.44, "useCount": 0, "id": "PPIT", "name": "NUNAPITCHUK, AK", "quality": 96, "contribution": 0.0}}}