{"queryCost": 1, "latitude": 30.626800537100003, "longitude": -88.06809997559999, "resolvedAddress": "30.626800537100003, -88.06809997559999", "address": "30.626800537100003, -88.06809997559999", "timezone": "America/Chicago", "tzoffset": -6.0, "days": [{"datetime": "2020-01-06", "datetimeEpoch": 1578290400, "tempmax": 18.3, "tempmin": 5.0, "temp": 12.0, "feelslikemax": 18.3, "feelslikemin": 5.0, "feelslike": 12.0, "dew": 8.3, "humidity": 79.42, "precip": 0.0, "precipprob": null, "precipcover": 0.0, "preciptype": null, "snow": 0.0, "snowdepth": 0.0, "windgust": null, "windspeed": 18.4, "winddir": 189.7, "pressure": 1023.5, "cloudcover": 1.2, "visibility": 15.7, "solarradiation": 329.5, "solarenergy": 13.0, "sunrise": "06:50:31", "sunriseEpoch": 1578315031, "sunset": "17:05:38", "sunsetEpoch": 1578351938, "moonphase": 0.4, "conditions": "Clear", "icon": "clear-day", "stations": ["99999963869", "72223513838", "KMOB", "72223013894", "KBFM", "KCQF"], "source": "obs", "hours": null}], "stations": {"99999963869": {"distance": 20394.0, "latitude": 30.549, "longitude": -87.876, "useCount": 0, "id": "99999963869", "name": "FAIRHOPE 3 NE, AL US", "quality": 99, "contribution": 0.0}, "72223513838": {"distance": 45.0, "latitude": 30.626, "longitude": -88.068, "useCount": 0, "id": "72223513838", "name": "MOBILE DOWNTOWN AIRPORT, AL US", "quality": 100, "contribution": 0.0}, "KMOB": {"distance": 18399.0, "latitude": 30.68, "longitude": -88.25, "useCount": 0, "id": "KMOB", "name": "KMOB", "quality": 100, "contribution": 0.0}, "72223013894": {"distance": 18324.0, "latitude": 30.688, "longitude": -88.246, "useCount": 0, "id": "72223013894", "name": "MOBILE REGIONAL AIRPORT, AL US", "quality": 100, "contribution": 0.0}, "KBFM": {"distance": 400.0, "latitude": 30.63, "longitude": -88.07, "useCount": 0, "id": "KBFM", "name": "KBFM", "quality": 100, "contribution": 0.0}, "KCQF": {"distance": 25226.0, "latitude": 30.46, "longitude": -87.89, "useCount": 0, "id": "KCQF", "name": "KCQF", "quality": 97, "contribution": 0.0}}}