{"queryCost": 1, "latitude": 30.626800537100003, "longitude": -88.06809997559999, "resolvedAddress": "30.626800537100003, -88.06809997559999", "address": "30.626800537100003, -88.06809997559999", "timezone": "America/Chicago", "tzoffset": -6.0, "days": [{"datetime": "2020-01-07", "datetimeEpoch": 1578376800, "tempmax": 19.3, "tempmin": 7.8, "temp": 14.0, "feelslikemax": 19.3, "feelslikemin": 6.2, "feelslike": 13.7, "dew": 4.1, "humidity": 56.45, "precip": 0.0, "precipprob": null, "precipcover": 0.0, "preciptype": null, "snow": 0.0, "snowdepth": 0.0, "windgust": 46.4, "windspeed": 31.7, "winddir": 298.3, "pressure": 1024.7, "cloudcover": 9.5, "visibility": 16.0, "solarradiation": 350.3, "solarenergy": 13.9, "uvindex": 6.0, "sunrise": "06:50:37", "sunriseEpoch": 1578401437, "sunset": "17:06:25", "sunsetEpoch": 1578438385, "moonphase": 0.44, "conditions": "Clear", "description": "Clear conditions.", "icon": "wind", "stations": ["99999963869", "72223513838", "KMOB", "72223013894", "KBFM"], "source": "obs", "hours": null}], "stations": {"99999963869": {"distance": 20394.0, "latitude": 30.549, "longitude": -87.876, "useCount": 0, "id": "99999963869", "name": "FAIRHOPE 3 NE, AL US", "quality": 99, "contribution": 0.0}, "72223513838": {"distance": 45.0, "latitude": 30.626, "longitude": -88.068, "useCount": 0, "id": "72223513838", "name": "MOBILE DOWNTOWN AIRPORT, AL US", "quality": 100, "contribution": 0.0}, "72223013894": {"distance": 18324.0, "latitude": 30.688, "longitude": -88.246, "useCount": 0, "id": "72223013894", "name": "MOBILE REGIONAL AIRPORT, AL US", "quality": 100, "contribution": 0.0}, "KBFM": {"distance": 400.0, "latitude": 30.63, "longitude": -88.07, "useCount": 0, "id": "KBFM", "name": "KBFM", "quality": 100, "contribution": 0.0}, "KMOB": {"distance": 18399.0, "latitude": 30.68, "longitude": -88.25, "useCount": 0, "id": "KMOB", "name": "KMOB", "quality": 100, "contribution": 0.0}}}