{"queryCost": 1, "latitude": 30.626800537100003, "longitude": -88.06809997559999, "resolvedAddress": "30.626800537100003, -88.06809997559999", "address": "30.626800537100003, -88.06809997559999", "timezone": "America/Chicago", "tzoffset": -6.0, "days": [{"datetime": "2020-01-02", "datetimeEpoch": 1577944800, "tempmax": 21.2, "tempmin": 15.0, "temp": 18.9, "feelslikemax": 21.2, "feelslikemin": 15.0, "feelslike": 19.0, "dew": 17.5, "humidity": 91.61, "precip": 0.3, "precipprob": null, "precipcover": 33.33, "preciptype": null, "snow": 0.0, "snowdepth": 0.0, "windgust": 55.4, "windspeed": 25.9, "winddir": 126.3, "pressure": 1011.4, "cloudcover": 91.5, "visibility": 10.7, "solarradiation": 49.4, "solarenergy": 2.0, "sunrise": "06:49:53", "sunriseEpoch": 1577969393, "sunset": "17:02:37", "sunsetEpoch": 1578006157, "moonphase": 0.22, "conditions": "Rain, Overcast", "icon": "rain", "stations": ["99999963869", "72223513838", "KMOB", "72223013894", "KBFM"], "source": "obs", "hours": null}], "stations": {"99999963869": {"distance": 20394.0, "latitude": 30.549, "longitude": -87.876, "useCount": 0, "id": "99999963869", "name": "FAIRHOPE 3 NE, AL US", "quality": 99, "contribution": 0.0}, "72223513838": {"distance": 45.0, "latitude": 30.626, "longitude": -88.068, "useCount": 0, "id": "72223513838", "name": "MOBILE DOWNTOWN AIRPORT, AL US", "quality": 100, "contribution": 0.0}, "72223013894": {"distance": 18324.0, "latitude": 30.688, "longitude": -88.246, "useCount": 0, "id": "72223013894", "name": "MOBILE REGIONAL AIRPORT, AL US", "quality": 100, "contribution": 0.0}, "KBFM": {"distance": 400.0, "latitude": 30.63, "longitude": -88.07, "useCount": 0, "id": "KBFM", "name": "KBFM", "quality": 100, "contribution": 0.0}, "KMOB": {"distance": 18399.0, "latitude": 30.68, "longitude": -88.25, "useCount": 0, "id": "KMOB", "name": "KMOB", "quality": 100, "contribution": 0.0}}}