{"queryCost": 1, "latitude": 30.626800537100003, "longitude": -88.06809997559999, "resolvedAddress": "30.626800537100003, -88.06809997559999", "address": "30.626800537100003, -88.06809997559999", "timezone": "America/Chicago", "tzoffset": -6.0, "days": [{"datetime": "2020-01-01", "datetimeEpoch": 1577858400, "tempmax": 15.0, "tempmin": 5.0, "temp": 10.9, "feelslikemax": 15.0, "feelslikemin": 3.3, "feelslike": 10.4, "dew": 4.3, "humidity": 65.95, "precip": 0.0, "precipprob": null, "precipcover": 0.0, "preciptype": null, "snow": 0.0, "snowdepth": 0.0, "windgust": null, "windspeed": 11.2, "winddir": 189.1, "pressure": 1019.1, "cloudcover": 51.3, "visibility": 15.3, "solarradiation": 247.4, "solarenergy": 9.8, "sunrise": "06:49:39", "sunriseEpoch": 1577882979, "sunset": "17:01:53", "sunsetEpoch": 1577919713, "moonphase": 0.17, "conditions": "Partially cloudy", "icon": "partly-cloudy-day", "stations": ["99999963869", "72223513838", "KMOB", "72223013894", "KBFM"], "source": "obs", "hours": null}], "stations": {"99999963869": {"distance": 20394.0, "latitude": 30.549, "longitude": -87.876, "useCount": 0, "id": "99999963869", "name": "FAIRHOPE 3 NE, AL US", "quality": 99, "contribution": 0.0}, "72223513838": {"distance": 45.0, "latitude": 30.626, "longitude": -88.068, "useCount": 0, "id": "72223513838", "name": "MOBILE DOWNTOWN AIRPORT, AL US", "quality": 100, "contribution": 0.0}, "72223013894": {"distance": 18324.0, "latitude": 30.688, "longitude": -88.246, "useCount": 0, "id": "72223013894", "name": "MOBILE REGIONAL AIRPORT, AL US", "quality": 100, "contribution": 0.0}, "KBFM": {"distance": 400.0, "latitude": 30.63, "longitude": -88.07, "useCount": 0, "id": "KBFM", "name": "KBFM", "quality": 100, "contribution": 0.0}, "KMOB": {"distance": 18399.0, "latitude": 30.68, "longitude": -88.25, "useCount": 0, "id": "KMOB", "name": "KMOB", "quality": 100, "contribution": 0.0}}}