{"queryCost": 1, "latitude": 44.80739974975586, "longitude": -68.8281021118164, "resolvedAddress": "44.80739974975586, -68.8281021118164", "address": "44.80739974975586, -68.8281021118164", "timezone": "America/New_York", "tzoffset": -5.0, "days": [{"datetime": "2020-01-06", "datetimeEpoch": 1578286800, "tempmax": -6.2, "tempmin": -15.0, "temp": -8.8, "feelslikemax": -6.2, "feelslikemin": -16.3, "feelslike": -10.8, "dew": -11.8, "humidity": 79.54, "precip": 1.07, "precipprob": null, "precipcover": 25.0, "preciptype": null, "snow": 1.25, "snowdepth": 9.3, "windgust": null, "windspeed": 13.0, "winddir": 175.8, "pressure": 1013.5, "cloudcover": 56.4, "visibility": 12.7, "solarradiation": 72.1, "solarenergy": 2.6, "sunrise": "07:12:45", "sunriseEpoch": 1578312765, "sunset": "16:09:30", "sunsetEpoch": 1578344970, "moonphase": 0.4, "conditions": "Snow, Partially cloudy", "icon": "snow", "stations": ["KBGR", "KBHB", "99999994644", "72607014606", "72607714616", "72607314615"], "source": "obs", "hours": null}], "stations": {"KBGR": {"distance": 837.0, "latitude": 44.8, "longitude": -68.83, "useCount": 0, "id": "KBGR", "name": "KBGR", "quality": 100, "contribution": 0.0}, "KBHB": {"distance": 53852.0, "latitude": 44.45, "longitude": -68.37, "useCount": 0, "id": "KBHB", "name": "BAR HARBOR, ME", "quality": 100, "contribution": 0.0}, "99999994644": {"distance": 16785.0, "latitude": 44.928, "longitude": -68.701, "useCount": 0, "id": "99999994644", "name": "OLD TOWN 2 W, ME US", "quality": 100, "contribution": 0.0}, "72607014606": {"distance": 1310.0, "latitude": 44.798, "longitude": -68.818, "useCount": 0, "id": "72607014606", "name": "BANGOR INTERNATIONAL AIRPORT, ME US", "quality": 100, "contribution": 0.0}, "72607714616": {"distance": 54028.0, "latitude": 44.45, "longitude": -68.367, "useCount": 0, "id": "72607714616", "name": "BAR HARBOR AIRPORT, ME US", "quality": 98, "contribution": 0.0}, "72607314615": {"distance": 73064.0, "latitude": 44.533, "longitude": -69.667, "useCount": 0, "id": "72607314615", "name": "WATERVILLE LEFLEUR AIRPORT, ME US", "quality": 99, "contribution": 0.0}}}