{"queryCost": 1, "latitude": 33.56290054, "longitude": -86.75350189, "resolvedAddress": "33.56290054, -86.75350189", "address": "33.56290054, -86.75350189", "timezone": "America/Chicago", "tzoffset": -6.0, "days": [{"datetime": "2020-01-02", "datetimeEpoch": 1577944800, "tempmax": 20.7, "tempmin": 7.8, "temp": 12.1, "feelslikemax": 20.7, "feelslikemin": 6.2, "feelslike": 11.8, "dew": 8.6, "humidity": 80.63, "precip": 53.07, "precipprob": null, "precipcover": 75.0, "preciptype": null, "snow": 0.0, "snowdepth": 0.0, "windgust": 40.7, "windspeed": 29.5, "winddir": 137.2, "pressure": 1011.9, "cloudcover": 86.0, "visibility": 11.5, "solarradiation": 14.2, "solarenergy": 0.5, "sunrise": "06:51:37", "sunriseEpoch": 1577969497, "sunset": "16:50:21", "sunsetEpoch": 1578005421, "moonphase": 0.22, "conditions": "Rain, Overcast", "icon": "rain", "stations": ["72228013876", "72050799999", "72230053864", "72050899999", "KEET", "KBHM"], "source": "obs", "hours": null}], "stations": {"72228013876": {"distance": 844.0, "latitude": 33.566, "longitude": -86.745, "useCount": 0, "id": "72228013876", "name": "BIRMINGHAM AIRPORT, AL US", "quality": 100, "contribution": 0.0}, "72050799999": {"distance": 32109.0, "latitude": 33.313, "longitude": -86.926, "useCount": 0, "id": "72050799999", "name": "BESSEMER AIPORT, AL US", "quality": 99, "contribution": 0.0}, "72230053864": {"distance": 42894.0, "latitude": 33.178, "longitude": -86.782, "useCount": 0, "id": "72230053864", "name": "ALABASTER SHELBY CO AIRPORT, AL US", "quality": 100, "contribution": 0.0}, "72050899999": {"distance": 60251.0, "latitude": 33.172, "longitude": -86.305, "useCount": 0, "id": "72050899999", "name": "MERKEL FIELD SYLACAUGA MUNICIPAL, AL US", "quality": 97, "contribution": 0.0}, "KEET": {"distance": 42695.0, "latitude": 33.18, "longitude": -86.78, "useCount": 0, "id": "KEET", "name": "KEET", "quality": 100, "contribution": 0.0}, "KBHM": {"distance": 854.0, "latitude": 33.57, "longitude": -86.75, "useCount": 0, "id": "KBHM", "name": "KBHM", "quality": 100, "contribution": 0.0}}}