{"queryCost": 1, "latitude": 33.56290054, "longitude": -86.75350189, "resolvedAddress": "33.56290054, -86.75350189", "address": "33.56290054, -86.75350189", "timezone": "America/Chicago", "tzoffset": -6.0, "days": [{"datetime": "2018-11-08", "datetimeEpoch": 1541656800, "tempmax": 16.1, "tempmin": 12.8, "temp": 14.5, "feelslikemax": 16.1, "feelslikemin": 12.8, "feelslike": 14.4, "dew": 11.5, "humidity": 82.61, "precip": 1.4, "precipprob": null, "precipcover": 25.0, "preciptype": null, "snow": 0.0, "snowdepth": 0.0, "windgust": null, "windspeed": 13.0, "winddir": 115.4, "pressure": 1018.6, "cloudcover": 99.0, "visibility": 15.3, "solarradiation": 99.5, "solarenergy": 3.6, "sunrise": "06:12:13", "sunriseEpoch": 1541679133, "sunset": "16:48:53", "sunsetEpoch": 1541717333, "moonphase": 0.0, "conditions": "Rain, Overcast", "icon": "rain", "stations": ["72228013876", "72050799999", "72230053864", "72050899999", "KEET", "KBHM"], "source": "obs", "hours": null}], "stations": {"72228013876": {"distance": 844.0, "latitude": 33.566, "longitude": -86.745, "useCount": 0, "id": "72228013876", "name": "BIRMINGHAM AIRPORT, AL US", "quality": 100, "contribution": 0.0}, "72050799999": {"distance": 32109.0, "latitude": 33.313, "longitude": -86.926, "useCount": 0, "id": "72050799999", "name": "BESSEMER AIPORT, AL US", "quality": 99, "contribution": 0.0}, "72230053864": {"distance": 42894.0, "latitude": 33.178, "longitude": -86.782, "useCount": 0, "id": "72230053864", "name": "ALABASTER SHELBY CO AIRPORT, AL US", "quality": 100, "contribution": 0.0}, "72050899999": {"distance": 60251.0, "latitude": 33.172, "longitude": -86.305, "useCount": 0, "id": "72050899999", "name": "MERKEL FIELD SYLACAUGA MUNICIPAL, AL US", "quality": 97, "contribution": 0.0}, "KEET": {"distance": 42695.0, "latitude": 33.18, "longitude": -86.78, "useCount": 0, "id": "KEET", "name": "KEET", "quality": 100, "contribution": 0.0}, "KBHM": {"distance": 854.0, "latitude": 33.57, "longitude": -86.75, "useCount": 0, "id": "KBHM", "name": "KBHM", "quality": 100, "contribution": 0.0}}}