{"queryCost": 1, "latitude": 33.56290054, "longitude": -86.75350189, "resolvedAddress": "33.56290054, -86.75350189", "address": "33.56290054, -86.75350189", "timezone": "America/Chicago", "tzoffset": -6.0, "days": [{"datetime": "2020-01-04", "datetimeEpoch": 1578117600, "tempmax": 13.8, "tempmin": 1.2, "temp": 9.8, "feelslikemax": 13.8, "feelslikemin": 0.0, "feelslike": 8.9, "dew": 3.9, "humidity": 68.96, "precip": 0.8, "precipprob": null, "precipcover": 8.33, "preciptype": null, "snow": 0.0, "snowdepth": 0.0, "windgust": 52.8, "windspeed": 33.5, "winddir": 295.2, "pressure": 1019.3, "cloudcover": 41.7, "visibility": 15.4, "solarradiation": 309.8, "solarenergy": 12.3, "sunrise": "06:51:56", "sunriseEpoch": 1578142316, "sunset": "16:51:54", "sunsetEpoch": 1578178314, "moonphase": 0.31, "conditions": "Rain, Partially cloudy", "icon": "rain", "stations": ["72228013876", "72050799999", "72230053864", "72050899999", "KEET", "KBHM"], "source": "obs", "hours": null}], "stations": {"72228013876": {"distance": 844.0, "latitude": 33.566, "longitude": -86.745, "useCount": 0, "id": "72228013876", "name": "BIRMINGHAM AIRPORT, AL US", "quality": 100, "contribution": 0.0}, "72050799999": {"distance": 32109.0, "latitude": 33.313, "longitude": -86.926, "useCount": 0, "id": "72050799999", "name": "BESSEMER AIPORT, AL US", "quality": 99, "contribution": 0.0}, "72230053864": {"distance": 42894.0, "latitude": 33.178, "longitude": -86.782, "useCount": 0, "id": "72230053864", "name": "ALABASTER SHELBY CO AIRPORT, AL US", "quality": 100, "contribution": 0.0}, "72050899999": {"distance": 60251.0, "latitude": 33.172, "longitude": -86.305, "useCount": 0, "id": "72050899999", "name": "MERKEL FIELD SYLACAUGA MUNICIPAL, AL US", "quality": 97, "contribution": 0.0}, "KEET": {"distance": 42695.0, "latitude": 33.18, "longitude": -86.78, "useCount": 0, "id": "KEET", "name": "KEET", "quality": 100, "contribution": 0.0}, "KBHM": {"distance": 854.0, "latitude": 33.57, "longitude": -86.75, "useCount": 0, "id": "KBHM", "name": "KBHM", "quality": 100, "contribution": 0.0}}}