{"queryCost": 1, "latitude": 33.56290054, "longitude": -86.75350189, "resolvedAddress": "33.56290054, -86.75350189", "address": "33.56290054, -86.75350189", "timezone": "America/Chicago", "tzoffset": -6.0, "days": [{"datetime": "2020-01-07", "datetimeEpoch": 1578376800, "tempmax": 14.3, "tempmin": 2.9, "temp": 11.1, "feelslikemax": 14.3, "feelslikemin": 2.9, "feelslike": 10.8, "dew": 0.4, "humidity": 50.46, "precip": 0.0, "precipprob": null, "precipcover": 8.33, "preciptype": null, "snow": 0.0, "snowdepth": 0.0, "windgust": 42.5, "windspeed": 27.7, "winddir": 284.2, "pressure": 1022.7, "cloudcover": 24.3, "visibility": 16.0, "solarradiation": 334.5, "solarenergy": 13.2, "uvindex": 6.0, "sunrise": "06:52:10", "sunriseEpoch": 1578401530, "sunset": "16:54:22", "sunsetEpoch": 1578437662, "moonphase": 0.44, "conditions": "Clear", "description": "Partly cloudly.", "icon": "clear-day", "stations": ["72228013876", "72050799999", "72230053864", "72050899999", "KEET", "KBHM"], "source": "obs", "hours": null}], "stations": {"72228013876": {"distance": 844.0, "latitude": 33.566, "longitude": -86.745, "useCount": 0, "id": "72228013876", "name": "BIRMINGHAM AIRPORT, AL US", "quality": 100, "contribution": 0.0}, "72050799999": {"distance": 32109.0, "latitude": 33.313, "longitude": -86.926, "useCount": 0, "id": "72050799999", "name": "BESSEMER AIPORT, AL US", "quality": 99, "contribution": 0.0}, "72230053864": {"distance": 42894.0, "latitude": 33.178, "longitude": -86.782, "useCount": 0, "id": "72230053864", "name": "ALABASTER SHELBY CO AIRPORT, AL US", "quality": 100, "contribution": 0.0}, "72050899999": {"distance": 60251.0, "latitude": 33.172, "longitude": -86.305, "useCount": 0, "id": "72050899999", "name": "MERKEL FIELD SYLACAUGA MUNICIPAL, AL US", "quality": 97, "contribution": 0.0}, "KEET": {"distance": 42695.0, "latitude": 33.18, "longitude": -86.78, "useCount": 0, "id": "KEET", "name": "KEET", "quality": 100, "contribution": 0.0}, "KBHM": {"distance": 854.0, "latitude": 33.57, "longitude": -86.75, "useCount": 0, "id": "KBHM", "name": "KBHM", "quality": 100, "contribution": 0.0}}}