{"queryCost": 1, "latitude": 38.5452, "longitude": -89.835197, "resolvedAddress": "38.5452, -89.835197", "address": "38.5452, -89.835197", "timezone": "America/Chicago", "tzoffset": -6.0, "days": [{"datetime": "2020-01-07", "datetimeEpoch": 1578376800, "tempmax": 9.3, "tempmin": -2.8, "temp": 2.5, "feelslikemax": 6.5, "feelslikemin": -3.1, "feelslike": 0.5, "dew": -4.8, "humidity": 61.0, "precip": 0.0, "precipprob": null, "precipcover": 0.0, "preciptype": null, "snow": 0.0, "snowdepth": 0.0, "windgust": 44.3, "windspeed": 25.9, "winddir": 248.7, "pressure": 1020.4, "cloudcover": 10.3, "visibility": 16.0, "solarradiation": null, "solarenergy": null, "uvindex": 0.0, "sunrise": "07:17:18", "sunriseEpoch": 1578403038, "sunset": "16:53:54", "sunsetEpoch": 1578437634, "moonphase": 0.44, "conditions": "Clear", "description": "Partly cloudly.", "icon": "clear-day", "stations": ["KBLV", "KSTL", "KCPS", "72434013994", "72433813802", "72531403960"], "source": "obs", "hours": null}], "stations": {"KBLV": {"distance": 1413.0, "latitude": 38.54, "longitude": -89.85, "useCount": 0, "id": "KBLV", "name": "KBLV", "quality": 100, "contribution": 0.0}, "KSTL": {"distance": 51785.0, "latitude": 38.75, "longitude": -90.37, "useCount": 0, "id": "KSTL", "name": "KSTL", "quality": 100, "contribution": 0.0}, "KCPS": {"distance": 27542.0, "latitude": 38.57, "longitude": -90.15, "useCount": 0, "id": "KCPS", "name": "KCPS", "quality": 100, "contribution": 0.0}, "72434013994": {"distance": 52187.0, "latitude": 38.753, "longitude": -90.374, "useCount": 0, "id": "72434013994", "name": "ST LOUIS LAMBERT INTERNATIONAL AIRPORT, MO US", "quality": 100, "contribution": 0.0}, "72433813802": {"distance": 1395.0, "latitude": 38.55, "longitude": -89.85, "useCount": 0, "id": "72433813802", "name": "BELLEVILLE SCOTT AFB, IL US", "quality": 99, "contribution": 0.0}, "72531403960": {"distance": 28181.0, "latitude": 38.571, "longitude": -90.157, "useCount": 0, "id": "72531403960", "name": "CAHOKIA ST LOUIS DOWNTOWN AIRPORT, IL US", "quality": 100, "contribution": 0.0}}}