{"queryCost": 1, "latitude": 40.47710037, "longitude": -88.91590118, "resolvedAddress": "40.47710037, -88.91590118", "address": "40.47710037, -88.91590118", "timezone": "America/Chicago", "tzoffset": -6.0, "days": [{"datetime": "2020-01-05", "datetimeEpoch": 1578204000, "tempmax": 8.4, "tempmin": -6.6, "temp": 0.9, "feelslikemax": 4.2, "feelslikemin": -11.9, "feelslike": -4.7, "dew": -2.8, "humidity": 78.05, "precip": 0.0, "precipprob": null, "precipcover": 0.0, "preciptype": null, "snow": 0.0, "snowdepth": 0.93, "windgust": 63.1, "windspeed": 48.2, "winddir": 237.9, "pressure": 1018.3, "cloudcover": 7.8, "visibility": 15.5, "solarradiation": 247.9, "solarenergy": 8.9, "sunrise": "07:19:15", "sunriseEpoch": 1578230355, "sunset": "16:42:50", "sunsetEpoch": 1578264170, "moonphase": 0.36, "conditions": "Clear", "icon": "wind", "stations": ["KBMI", "72439754831", "72217104889", "KAAA", "KPNT", "74467204862"], "source": "obs", "hours": null}], "stations": {"KBMI": {"distance": 474.0, "latitude": 40.48, "longitude": -88.92, "useCount": 0, "id": "KBMI", "name": "BLOOMINGTON/NRML, IL", "quality": 100, "contribution": 0.0}, "72439754831": {"distance": 2969.0, "latitude": 40.483, "longitude": -88.95, "useCount": 0, "id": "72439754831", "name": "BLOOMINGTON NORMAL AIRPORT, IL US", "quality": 100, "contribution": 0.0}, "72217104889": {"distance": 55425.0, "latitude": 40.924, "longitude": -88.625, "useCount": 0, "id": "72217104889", "name": "PONTIAC MUNICIPAL AIRPORT, IL US", "quality": 100, "contribution": 0.0}, "KAAA": {"distance": 50610.0, "latitude": 40.15, "longitude": -89.33, "useCount": 0, "id": "KAAA", "name": "KAAA", "quality": 100, "contribution": 0.0}, "KPNT": {"distance": 52902.0, "latitude": 40.9, "longitude": -88.63, "useCount": 0, "id": "KPNT", "name": "KPNT", "quality": 100, "contribution": 0.0}, "74467204862": {"distance": 50229.0, "latitude": 40.158, "longitude": -89.335, "useCount": 0, "id": "74467204862", "name": "LINCOLN LOGAN CO AIRPORT, IL US", "quality": 100, "contribution": 0.0}}}