{"queryCost": 1, "latitude": 40.47710037, "longitude": -88.91590118, "resolvedAddress": "40.47710037, -88.91590118", "address": "40.47710037, -88.91590118", "timezone": "America/Chicago", "tzoffset": -6.0, "days": [{"datetime": "2020-01-02", "datetimeEpoch": 1577944800, "tempmax": 8.9, "tempmin": 2.9, "temp": 5.2, "feelslikemax": 5.9, "feelslikemin": -3.2, "feelslike": 1.1, "dew": 1.9, "humidity": 80.05, "precip": 0.0, "precipprob": null, "precipcover": 0.0, "preciptype": null, "snow": 0.0, "snowdepth": 0.0, "windgust": 46.4, "windspeed": 35.3, "winddir": 208.3, "pressure": 1003.6, "cloudcover": 11.5, "visibility": 16.0, "solarradiation": 157.1, "solarenergy": 5.7, "sunrise": "07:19:09", "sunriseEpoch": 1577971149, "sunset": "16:40:10", "sunsetEpoch": 1578004810, "moonphase": 0.22, "conditions": "Clear", "icon": "wind", "stations": ["KBMI", "72439754831", "72217104889", "KAAA", "KPNT", "74467204862"], "source": "obs", "hours": null}], "stations": {"KBMI": {"distance": 474.0, "latitude": 40.48, "longitude": -88.92, "useCount": 0, "id": "KBMI", "name": "BLOOMINGTON/NRML, IL", "quality": 100, "contribution": 0.0}, "72439754831": {"distance": 2969.0, "latitude": 40.483, "longitude": -88.95, "useCount": 0, "id": "72439754831", "name": "BLOOMINGTON NORMAL AIRPORT, IL US", "quality": 100, "contribution": 0.0}, "72217104889": {"distance": 55425.0, "latitude": 40.924, "longitude": -88.625, "useCount": 0, "id": "72217104889", "name": "PONTIAC MUNICIPAL AIRPORT, IL US", "quality": 100, "contribution": 0.0}, "KAAA": {"distance": 50610.0, "latitude": 40.15, "longitude": -89.33, "useCount": 0, "id": "KAAA", "name": "KAAA", "quality": 100, "contribution": 0.0}, "KPNT": {"distance": 52902.0, "latitude": 40.9, "longitude": -88.63, "useCount": 0, "id": "KPNT", "name": "KPNT", "quality": 100, "contribution": 0.0}, "74467204862": {"distance": 50229.0, "latitude": 40.158, "longitude": -89.335, "useCount": 0, "id": "74467204862", "name": "LINCOLN LOGAN CO AIRPORT, IL US", "quality": 100, "contribution": 0.0}}}