{"queryCost": 1, "latitude": 40.47710037, "longitude": -88.91590118, "resolvedAddress": "40.47710037, -88.91590118", "address": "40.47710037, -88.91590118", "timezone": "America/Chicago", "tzoffset": -6.0, "days": [{"datetime": "2020-01-03", "datetimeEpoch": 1578031200, "tempmax": 5.0, "tempmin": 0.7, "temp": 2.2, "feelslikemax": 2.8, "feelslikemin": -3.7, "feelslike": -1.5, "dew": 0.9, "humidity": 90.82, "precip": 0.0, "precipprob": null, "precipcover": 0.0, "preciptype": null, "snow": 1.88, "snowdepth": 1.87, "windgust": null, "windspeed": 25.9, "winddir": 297.9, "pressure": 1010.0, "cloudcover": 91.2, "visibility": 13.6, "solarradiation": 87.6, "solarenergy": 2.8, "sunrise": "07:19:13", "sunriseEpoch": 1578057553, "sunset": "16:41:01", "sunsetEpoch": 1578091261, "moonphase": 0.26, "conditions": "Overcast", "icon": "snow", "stations": ["KBMI", "72439754831", "72217104889", "KAAA", "KPNT", "74467204862"], "source": "obs", "hours": null}], "stations": {"KBMI": {"distance": 474.0, "latitude": 40.48, "longitude": -88.92, "useCount": 0, "id": "KBMI", "name": "BLOOMINGTON/NRML, IL", "quality": 100, "contribution": 0.0}, "72439754831": {"distance": 2969.0, "latitude": 40.483, "longitude": -88.95, "useCount": 0, "id": "72439754831", "name": "BLOOMINGTON NORMAL AIRPORT, IL US", "quality": 100, "contribution": 0.0}, "72217104889": {"distance": 55425.0, "latitude": 40.924, "longitude": -88.625, "useCount": 0, "id": "72217104889", "name": "PONTIAC MUNICIPAL AIRPORT, IL US", "quality": 100, "contribution": 0.0}, "KAAA": {"distance": 50610.0, "latitude": 40.15, "longitude": -89.33, "useCount": 0, "id": "KAAA", "name": "KAAA", "quality": 100, "contribution": 0.0}, "KPNT": {"distance": 52902.0, "latitude": 40.9, "longitude": -88.63, "useCount": 0, "id": "KPNT", "name": "KPNT", "quality": 100, "contribution": 0.0}, "74467204862": {"distance": 50229.0, "latitude": 40.158, "longitude": -89.335, "useCount": 0, "id": "74467204862", "name": "LINCOLN LOGAN CO AIRPORT, IL US", "quality": 100, "contribution": 0.0}}}