{"queryCost": 1, "latitude": 36.1245002746582, "longitude": -86.6781997680664, "resolvedAddress": "36.1245002746582, -86.6781997680664", "address": "36.1245002746582, -86.6781997680664", "timezone": "America/Chicago", "tzoffset": -5.0, "days": [{"datetime": "2018-05-28", "datetimeEpoch": 1527483600, "tempmax": 29.3, "tempmin": 21.7, "temp": 24.3, "feelslikemax": 31.6, "feelslikemin": 21.7, "feelslike": 24.8, "dew": 20.4, "humidity": 79.5, "precip": 2.9, "precipprob": null, "precipcover": 20.83, "preciptype": null, "snow": 0.0, "snowdepth": 0.0, "windgust": 25.9, "windspeed": 16.6, "winddir": 98.7, "pressure": 1011.9, "cloudcover": 94.1, "visibility": 15.8, "solarradiation": 99.6, "solarenergy": 1.8, "sunrise": "05:32:36", "sunriseEpoch": 1527503556, "sunset": "19:55:47", "sunsetEpoch": 1527555347, "moonphase": 0.49, "conditions": "Rain, Overcast", "icon": "rain", "stations": ["72327013897", "KBNA", "KMQY", "72327313827", "KSYI", "K1M5"], "source": "obs", "hours": null}], "stations": {"72327013897": {"distance": 1169.0, "latitude": 36.119, "longitude": -86.689, "useCount": 0, "id": "72327013897", "name": "NASHVILLE INTERNATIONAL AIRPORT, TN US", "quality": 100, "contribution": 0.0}, "KBNA": {"distance": 633.0, "latitude": 36.13, "longitude": -86.68, "useCount": 0, "id": "KBNA", "name": "KBNA", "quality": 100, "contribution": 0.0}, "KMQY": {"distance": 18383.0, "latitude": 36.02, "longitude": -86.52, "useCount": 0, "id": "KMQY", "name": "KMQY", "quality": 100, "contribution": 0.0}, "72327313827": {"distance": 19190.0, "latitude": 36.009, "longitude": -86.52, "useCount": 0, "id": "72327313827", "name": "SMYRNA AIRPORT, TN US", "quality": 100, "contribution": 0.0}, "KSYI": {"distance": 66414.0, "latitude": 35.56, "longitude": -86.44, "useCount": 0, "id": "KSYI", "name": "KSYI", "quality": 99, "contribution": 0.0}, "K1M5": {"distance": 55835.0, "latitude": 36.6, "longitude": -86.48, "useCount": 0, "id": "K1M5", "name": "K1M5", "quality": 99, "contribution": 0.0}}}