{"queryCost": 1, "latitude": 36.1245002746582, "longitude": -86.6781997680664, "resolvedAddress": "36.1245002746582, -86.6781997680664", "address": "36.1245002746582, -86.6781997680664", "timezone": "America/Chicago", "tzoffset": -6.0, "days": [{"datetime": "2019-12-07", "datetimeEpoch": 1575698400, "tempmax": 13.8, "tempmin": 4.3, "temp": 9.2, "feelslikemax": 13.8, "feelslikemin": 3.2, "feelslike": 8.2, "dew": 4.3, "humidity": 72.65, "precip": 0.0, "precipprob": null, "precipcover": 8.33, "preciptype": null, "snow": 0.0, "snowdepth": 0.0, "windgust": null, "windspeed": 16.5, "winddir": 153.7, "pressure": 1025.7, "cloudcover": 57.6, "visibility": 12.5, "solarradiation": 167.0, "solarenergy": 6.0, "sunrise": "06:44:15", "sunriseEpoch": 1575722655, "sunset": "16:31:55", "sunsetEpoch": 1575757915, "moonphase": 0.39, "conditions": "Partially cloudy", "icon": "partly-cloudy-day", "stations": ["72327013897", "KBNA", "KMQY", "72327313827", "KSYI", "K1M5"], "source": "obs", "hours": null}], "stations": {"72327013897": {"distance": 1169.0, "latitude": 36.119, "longitude": -86.689, "useCount": 0, "id": "72327013897", "name": "NASHVILLE INTERNATIONAL AIRPORT, TN US", "quality": 100, "contribution": 0.0}, "KBNA": {"distance": 633.0, "latitude": 36.13, "longitude": -86.68, "useCount": 0, "id": "KBNA", "name": "KBNA", "quality": 100, "contribution": 0.0}, "KMQY": {"distance": 18383.0, "latitude": 36.02, "longitude": -86.52, "useCount": 0, "id": "KMQY", "name": "KMQY", "quality": 100, "contribution": 0.0}, "72327313827": {"distance": 19190.0, "latitude": 36.009, "longitude": -86.52, "useCount": 0, "id": "72327313827", "name": "SMYRNA AIRPORT, TN US", "quality": 100, "contribution": 0.0}, "KSYI": {"distance": 66414.0, "latitude": 35.56, "longitude": -86.44, "useCount": 0, "id": "KSYI", "name": "KSYI", "quality": 99, "contribution": 0.0}, "K1M5": {"distance": 55835.0, "latitude": 36.6, "longitude": -86.48, "useCount": 0, "id": "K1M5", "name": "K1M5", "quality": 99, "contribution": 0.0}}}