{"queryCost": 1, "latitude": 36.1245002746582, "longitude": -86.6781997680664, "resolvedAddress": "36.1245002746582, -86.6781997680664", "address": "36.1245002746582, -86.6781997680664", "timezone": "America/Chicago", "tzoffset": -6.0, "days": [{"datetime": "2020-01-01", "datetimeEpoch": 1577858400, "tempmax": 11.1, "tempmin": 1.1, "temp": 6.2, "feelslikemax": 11.1, "feelslikemin": -1.2, "feelslike": 4.3, "dew": -4.8, "humidity": 46.92, "precip": 0.0, "precipprob": null, "precipcover": 4.17, "preciptype": null, "snow": 0.0, "snowdepth": 0.0, "windgust": 18.4, "windspeed": 20.5, "winddir": 202.3, "pressure": 1016.1, "cloudcover": 41.0, "visibility": 16.0, "solarradiation": 181.6, "solarenergy": 6.5, "sunrise": "06:57:42", "sunriseEpoch": 1577883462, "sunset": "16:42:44", "sunsetEpoch": 1577918564, "moonphase": 0.17, "conditions": "Partially cloudy", "icon": "partly-cloudy-day", "stations": ["72327013897", "KBNA", "KMQY", "72327313827", "KSYI"], "source": "obs", "hours": null}], "stations": {"72327013897": {"distance": 1169.0, "latitude": 36.119, "longitude": -86.689, "useCount": 0, "id": "72327013897", "name": "NASHVILLE INTERNATIONAL AIRPORT, TN US", "quality": 100, "contribution": 0.0}, "KBNA": {"distance": 633.0, "latitude": 36.13, "longitude": -86.68, "useCount": 0, "id": "KBNA", "name": "KBNA", "quality": 100, "contribution": 0.0}, "KMQY": {"distance": 18383.0, "latitude": 36.02, "longitude": -86.52, "useCount": 0, "id": "KMQY", "name": "KMQY", "quality": 100, "contribution": 0.0}, "72327313827": {"distance": 19190.0, "latitude": 36.009, "longitude": -86.52, "useCount": 0, "id": "72327313827", "name": "SMYRNA AIRPORT, TN US", "quality": 100, "contribution": 0.0}, "KSYI": {"distance": 66414.0, "latitude": 35.56, "longitude": -86.44, "useCount": 0, "id": "KSYI", "name": "KSYI", "quality": 99, "contribution": 0.0}}}