{"queryCost": 1, "latitude": 36.1245002746582, "longitude": -86.6781997680664, "resolvedAddress": "36.1245002746582, -86.6781997680664", "address": "36.1245002746582, -86.6781997680664", "timezone": "America/Chicago", "tzoffset": -5.0, "days": [{"datetime": "2018-04-27", "datetimeEpoch": 1524805200, "tempmax": 23.3, "tempmin": 7.8, "temp": 16.5, "feelslikemax": 23.3, "feelslikemin": 7.8, "feelslike": 16.4, "dew": 7.4, "humidity": 60.58, "precip": 0.0, "precipprob": null, "precipcover": 4.17, "preciptype": null, "snow": 0.0, "snowdepth": 0.0, "windgust": 38.9, "windspeed": 20.5, "winddir": 250.8, "pressure": 1011.7, "cloudcover": 31.6, "visibility": 13.2, "solarradiation": 509.9, "solarenergy": 25.7, "sunrise": "05:58:23", "sunriseEpoch": 1524826703, "sunset": "19:30:49", "sunsetEpoch": 1524875449, "moonphase": 0.46, "conditions": "Partially cloudy", "icon": "partly-cloudy-day", "stations": ["72327013897", "KBNA", "KMQY", "72327313827", "KSYI", "K1M5"], "source": "obs", "hours": null}], "stations": {"72327013897": {"distance": 1169.0, "latitude": 36.119, "longitude": -86.689, "useCount": 0, "id": "72327013897", "name": "NASHVILLE INTERNATIONAL AIRPORT, TN US", "quality": 100, "contribution": 0.0}, "KBNA": {"distance": 633.0, "latitude": 36.13, "longitude": -86.68, "useCount": 0, "id": "KBNA", "name": "KBNA", "quality": 100, "contribution": 0.0}, "KMQY": {"distance": 18383.0, "latitude": 36.02, "longitude": -86.52, "useCount": 0, "id": "KMQY", "name": "KMQY", "quality": 100, "contribution": 0.0}, "72327313827": {"distance": 19190.0, "latitude": 36.009, "longitude": -86.52, "useCount": 0, "id": "72327313827", "name": "SMYRNA AIRPORT, TN US", "quality": 100, "contribution": 0.0}, "KSYI": {"distance": 66414.0, "latitude": 35.56, "longitude": -86.44, "useCount": 0, "id": "KSYI", "name": "KSYI", "quality": 99, "contribution": 0.0}, "K1M5": {"distance": 55835.0, "latitude": 36.6, "longitude": -86.48, "useCount": 0, "id": "K1M5", "name": "K1M5", "quality": 99, "contribution": 0.0}}}