{"queryCost": 1, "latitude": 36.1245002746582, "longitude": -86.6781997680664, "resolvedAddress": "36.1245002746582, -86.6781997680664", "address": "36.1245002746582, -86.6781997680664", "timezone": "America/Chicago", "tzoffset": -5.0, "days": [{"datetime": "2018-03-23", "datetimeEpoch": 1521781200, "tempmax": 15.0, "tempmin": 6.1, "temp": 10.2, "feelslikemax": 15.0, "feelslikemin": 5.9, "feelslike": 10.1, "dew": 1.0, "humidity": 53.72, "precip": 0.07, "precipprob": null, "precipcover": 4.17, "preciptype": null, "snow": 0.0, "snowdepth": 0.0, "windgust": null, "windspeed": 14.8, "winddir": 97.3, "pressure": 1024.6, "cloudcover": 95.7, "visibility": 16.0, "solarradiation": 220.7, "solarenergy": 9.5, "sunrise": "06:45:49", "sunriseEpoch": 1521805549, "sunset": "19:01:09", "sunsetEpoch": 1521849669, "moonphase": 0.19, "conditions": "Rain, Overcast", "icon": "rain", "stations": ["72327013897", "KBNA", "KMQY", "72327313827", "KSYI", "K1M5"], "source": "obs", "hours": null}], "stations": {"72327013897": {"distance": 1169.0, "latitude": 36.119, "longitude": -86.689, "useCount": 0, "id": "72327013897", "name": "NASHVILLE INTERNATIONAL AIRPORT, TN US", "quality": 100, "contribution": 0.0}, "KBNA": {"distance": 633.0, "latitude": 36.13, "longitude": -86.68, "useCount": 0, "id": "KBNA", "name": "KBNA", "quality": 100, "contribution": 0.0}, "KMQY": {"distance": 18383.0, "latitude": 36.02, "longitude": -86.52, "useCount": 0, "id": "KMQY", "name": "KMQY", "quality": 100, "contribution": 0.0}, "72327313827": {"distance": 19190.0, "latitude": 36.009, "longitude": -86.52, "useCount": 0, "id": "72327313827", "name": "SMYRNA AIRPORT, TN US", "quality": 100, "contribution": 0.0}, "KSYI": {"distance": 66414.0, "latitude": 35.56, "longitude": -86.44, "useCount": 0, "id": "KSYI", "name": "KSYI", "quality": 99, "contribution": 0.0}, "K1M5": {"distance": 55835.0, "latitude": 36.6, "longitude": -86.48, "useCount": 0, "id": "K1M5", "name": "K1M5", "quality": 99, "contribution": 0.0}}}