{"queryCost": 1, "latitude": 43.5644, "longitude": -116.223, "resolvedAddress": "43.5644, -116.223", "address": "43.5644, -116.223", "timezone": "America/Boise", "tzoffset": -6.0, "days": [{"datetime": "2018-07-29", "datetimeEpoch": 1532844000, "tempmax": 36.1, "tempmin": 17.8, "temp": 28.2, "feelslikemax": 33.5, "feelslikemin": 17.8, "feelslike": 26.9, "dew": 3.3, "humidity": 22.43, "precip": 0.0, "precipprob": null, "precipcover": 0.0, "preciptype": null, "snow": 0.0, "snowdepth": 0.0, "windgust": 33.5, "windspeed": 20.5, "winddir": 217.5, "pressure": 1014.1, "cloudcover": 0.0, "visibility": 16.0, "solarradiation": 521.4, "solarenergy": 30.0, "sunrise": "06:31:11", "sunriseEpoch": 1532867471, "sunset": "21:10:53", "sunsetEpoch": 1532920253, "moonphase": 0.52, "conditions": "Clear", "icon": "clear-day", "stations": ["KBOI", "KEUL", "99999904127", "KMAN", "72681394195", "72681024131"], "source": "obs", "hours": null}], "stations": {"KBOI": {"distance": 669.0, "latitude": 43.57, "longitude": -116.22, "useCount": 0, "id": "KBOI", "name": "KBOI", "quality": 100, "contribution": 0.0}, "KEUL": {"distance": 33614.0, "latitude": 43.63, "longitude": -116.63, "useCount": 0, "id": "KEUL", "name": "CALDWELL (AWOS), ID", "quality": 100, "contribution": 0.0}, "99999904127": {"distance": 58572.0, "latitude": 43.204, "longitude": -116.751, "useCount": 0, "id": "99999904127", "name": "MURPHY 10 W, ID US", "quality": 100, "contribution": 0.0}, "KMAN": {"distance": 24016.0, "latitude": 43.58, "longitude": -116.52, "useCount": 0, "id": "KMAN", "name": "KMAN", "quality": 99, "contribution": 0.0}, "72681394195": {"distance": 34394.0, "latitude": 43.65, "longitude": -116.633, "useCount": 0, "id": "72681394195", "name": "CALDWELL INDUSTRIAL AIRPORT, ID US", "quality": 100, "contribution": 0.0}, "72681024131": {"distance": 1472.0, "latitude": 43.567, "longitude": -116.241, "useCount": 0, "id": "72681024131", "name": "BOISE AIR TERMINAL, ID US", "quality": 100, "contribution": 0.0}}}