{"queryCost": 1, "latitude": 43.5644, "longitude": -116.223, "resolvedAddress": "43.5644, -116.223", "address": "43.5644, -116.223", "timezone": "America/Boise", "tzoffset": -7.0, "days": [{"datetime": "2020-01-05", "datetimeEpoch": 1578207600, "tempmax": 3.3, "tempmin": -1.1, "temp": 1.1, "feelslikemax": 1.3, "feelslikemin": -3.9, "feelslike": -1.7, "dew": -3.1, "humidity": 74.82, "precip": 1.12, "precipprob": null, "precipcover": 29.17, "preciptype": null, "snow": 0.0, "snowdepth": 0.0, "windgust": null, "windspeed": 18.3, "winddir": 131.3, "pressure": 1030.0, "cloudcover": 62.1, "visibility": 14.1, "solarradiation": 89.3, "solarenergy": 3.5, "sunrise": "08:18:12", "sunriseEpoch": 1578237492, "sunset": "17:22:25", "sunsetEpoch": 1578270145, "moonphase": 0.36, "conditions": "Rain, Partially cloudy", "icon": "rain", "stations": ["KBOI", "KEUL", "99999904127", "72681394195", "KMAN", "72681024131"], "source": "obs", "hours": null}], "stations": {"KBOI": {"distance": 669.0, "latitude": 43.57, "longitude": -116.22, "useCount": 0, "id": "KBOI", "name": "KBOI", "quality": 100, "contribution": 0.0}, "KEUL": {"distance": 33614.0, "latitude": 43.63, "longitude": -116.63, "useCount": 0, "id": "KEUL", "name": "CALDWELL (AWOS), ID", "quality": 100, "contribution": 0.0}, "99999904127": {"distance": 58572.0, "latitude": 43.204, "longitude": -116.751, "useCount": 0, "id": "99999904127", "name": "MURPHY 10 W, ID US", "quality": 100, "contribution": 0.0}, "72681394195": {"distance": 34394.0, "latitude": 43.65, "longitude": -116.633, "useCount": 0, "id": "72681394195", "name": "CALDWELL INDUSTRIAL AIRPORT, ID US", "quality": 100, "contribution": 0.0}, "KMAN": {"distance": 24016.0, "latitude": 43.58, "longitude": -116.52, "useCount": 0, "id": "KMAN", "name": "KMAN", "quality": 99, "contribution": 0.0}, "72681024131": {"distance": 1472.0, "latitude": 43.567, "longitude": -116.241, "useCount": 0, "id": "72681024131", "name": "BOISE AIR TERMINAL, ID US", "quality": 100, "contribution": 0.0}}}