{"queryCost": 1, "latitude": 43.5644, "longitude": -116.223, "resolvedAddress": "43.5644, -116.223", "address": "43.5644, -116.223", "timezone": "America/Boise", "tzoffset": -6.0, "days": [{"datetime": "2018-05-03", "datetimeEpoch": 1525327200, "tempmax": 23.4, "tempmin": 5.7, "temp": 15.0, "feelslikemax": 23.4, "feelslikemin": 4.7, "feelslike": 14.8, "dew": 1.4, "humidity": 43.36, "precip": 0.0, "precipprob": null, "precipcover": 0.0, "preciptype": null, "snow": 0.0, "snowdepth": 0.0, "windgust": 35.3, "windspeed": 20.5, "winddir": 291.9, "pressure": 1018.2, "cloudcover": 0.0, "visibility": 15.9, "solarradiation": 528.8, "solarenergy": 30.5, "sunrise": "06:34:32", "sunriseEpoch": 1525350872, "sunset": "20:49:42", "sunsetEpoch": 1525402182, "moonphase": 0.56, "conditions": "Clear", "icon": "clear-day", "stations": ["KBOI", "KEUL", "99999904127", "KMAN", "72681394195", "72681024131"], "source": "obs", "hours": null}], "stations": {"KBOI": {"distance": 669.0, "latitude": 43.57, "longitude": -116.22, "useCount": 0, "id": "KBOI", "name": "KBOI", "quality": 100, "contribution": 0.0}, "KEUL": {"distance": 33614.0, "latitude": 43.63, "longitude": -116.63, "useCount": 0, "id": "KEUL", "name": "CALDWELL (AWOS), ID", "quality": 100, "contribution": 0.0}, "99999904127": {"distance": 58572.0, "latitude": 43.204, "longitude": -116.751, "useCount": 0, "id": "99999904127", "name": "MURPHY 10 W, ID US", "quality": 100, "contribution": 0.0}, "KMAN": {"distance": 24016.0, "latitude": 43.58, "longitude": -116.52, "useCount": 0, "id": "KMAN", "name": "KMAN", "quality": 99, "contribution": 0.0}, "72681394195": {"distance": 34394.0, "latitude": 43.65, "longitude": -116.633, "useCount": 0, "id": "72681394195", "name": "CALDWELL INDUSTRIAL AIRPORT, ID US", "quality": 100, "contribution": 0.0}, "72681024131": {"distance": 1472.0, "latitude": 43.567, "longitude": -116.241, "useCount": 0, "id": "72681024131", "name": "BOISE AIR TERMINAL, ID US", "quality": 100, "contribution": 0.0}}}