{"queryCost": 1, "latitude": 42.36429977, "longitude": -71.00520325, "resolvedAddress": "42.36429977, -71.00520325", "address": "42.36429977, -71.00520325", "timezone": "America/New_York", "tzoffset": -5.0, "days": [{"datetime": "2020-01-03", "datetimeEpoch": 1578027600, "tempmax": 10.6, "tempmin": 6.7, "temp": 8.9, "feelslikemax": 10.6, "feelslikemin": 3.4, "feelslike": 7.4, "dew": 0.6, "humidity": 56.1, "precip": 0.0, "precipprob": null, "precipcover": 0.0, "preciptype": null, "snow": 0.0, "snowdepth": 0.0, "windgust": null, "windspeed": 24.1, "winddir": 239.0, "pressure": 1008.2, "cloudcover": 98.1, "visibility": 16.0, "solarradiation": 62.5, "solarenergy": 2.3, "sunrise": "07:13:28", "sunriseEpoch": 1578053608, "sunset": "16:23:28", "sunsetEpoch": 1578086608, "moonphase": 0.26, "conditions": "Overcast", "icon": "cloudy", "stations": ["KOWD", "72509854704", "KBOS", "72509014739", "KBVY", "72508854733"], "source": "obs", "hours": null}], "stations": {"KOWD": {"distance": 24600.0, "latitude": 42.18, "longitude": -71.17, "useCount": 0, "id": "KOWD", "name": "KOWD", "quality": 100, "contribution": 0.0}, "72509854704": {"distance": 23778.0, "latitude": 42.191, "longitude": -71.174, "useCount": 0, "id": "72509854704", "name": "NORWOOD MEMORIAL AIRPORT, MA US", "quality": 100, "contribution": 0.0}, "KBOS": {"distance": 2136.0, "latitude": 42.37, "longitude": -71.03, "useCount": 0, "id": "KBOS", "name": "KBOS", "quality": 100, "contribution": 0.0}, "72509014739": {"distance": 554.0, "latitude": 42.361, "longitude": -71.01, "useCount": 0, "id": "72509014739", "name": "BOSTON, MA US", "quality": 100, "contribution": 0.0}, "KBVY": {"distance": 25010.0, "latitude": 42.58, "longitude": -70.92, "useCount": 0, "id": "KBVY", "name": "KBVY", "quality": 100, "contribution": 0.0}, "72508854733": {"distance": 25516.0, "latitude": 42.584, "longitude": -70.917, "useCount": 0, "id": "72508854733", "name": "BEVERLY MUNICIPAL AIRPORT, MA US", "quality": 100, "contribution": 0.0}}}