{"queryCost": 1, "latitude": 42.36429977, "longitude": -71.00520325, "resolvedAddress": "42.36429977, -71.00520325", "address": "42.36429977, -71.00520325", "timezone": "America/New_York", "tzoffset": -5.0, "days": [{"datetime": "2019-02-13", "datetimeEpoch": 1550034000, "tempmax": 5.6, "tempmin": 1.1, "temp": 3.4, "feelslikemax": 0.9, "feelslikemin": -4.7, "feelslike": -1.1, "dew": -0.2, "humidity": 78.37, "precip": 9.95, "precipprob": null, "precipcover": 50.0, "preciptype": null, "snow": 0.0, "snowdepth": 0.0, "windgust": 51.2, "windspeed": 31.7, "winddir": 235.4, "pressure": 1001.9, "cloudcover": 92.3, "visibility": 11.1, "solarradiation": 31.2, "solarenergy": 2.5, "sunrise": "06:43:32", "sunriseEpoch": 1550058212, "sunset": "17:13:30", "sunsetEpoch": 1550096010, "moonphase": 0.28, "conditions": "Rain, Overcast", "icon": "rain", "stations": ["KOWD", "72509854704", "KBOS", "72509014739", "KBVY", "72508854733"], "source": "obs", "hours": null}], "stations": {"KOWD": {"distance": 24600.0, "latitude": 42.18, "longitude": -71.17, "useCount": 0, "id": "KOWD", "name": "KOWD", "quality": 100, "contribution": 0.0}, "72509854704": {"distance": 23778.0, "latitude": 42.191, "longitude": -71.174, "useCount": 0, "id": "72509854704", "name": "NORWOOD MEMORIAL AIRPORT, MA US", "quality": 100, "contribution": 0.0}, "KBOS": {"distance": 2136.0, "latitude": 42.37, "longitude": -71.03, "useCount": 0, "id": "KBOS", "name": "KBOS", "quality": 100, "contribution": 0.0}, "72509014739": {"distance": 554.0, "latitude": 42.361, "longitude": -71.01, "useCount": 0, "id": "72509014739", "name": "BOSTON, MA US", "quality": 100, "contribution": 0.0}, "KBVY": {"distance": 25010.0, "latitude": 42.58, "longitude": -70.92, "useCount": 0, "id": "KBVY", "name": "KBVY", "quality": 100, "contribution": 0.0}, "72508854733": {"distance": 25516.0, "latitude": 42.584, "longitude": -70.917, "useCount": 0, "id": "72508854733", "name": "BEVERLY MUNICIPAL AIRPORT, MA US", "quality": 100, "contribution": 0.0}}}