{"queryCost": 1, "latitude": 42.36429977, "longitude": -71.00520325, "resolvedAddress": "42.36429977, -71.00520325", "address": "42.36429977, -71.00520325", "timezone": "America/New_York", "tzoffset": -5.0, "days": [{"datetime": "2019-12-07", "datetimeEpoch": 1575694800, "tempmax": 1.7, "tempmin": -2.9, "temp": -0.5, "feelslikemax": -2.9, "feelslikemin": -8.3, "feelslike": -5.7, "dew": -9.3, "humidity": 52.05, "precip": 0.0, "precipprob": null, "precipcover": 0.0, "preciptype": null, "snow": 0.0, "snowdepth": 0.0, "windgust": 38.9, "windspeed": 25.9, "winddir": 307.9, "pressure": 1025.7, "cloudcover": 30.6, "visibility": 16.0, "solarradiation": 27.1, "solarenergy": 2.2, "sunrise": "06:59:27", "sunriseEpoch": 1575719967, "sunset": "16:11:16", "sunsetEpoch": 1575753076, "moonphase": 0.39, "conditions": "Partially cloudy", "icon": "partly-cloudy-day", "stations": ["KOWD", "72509854704", "KBOS", "72509014739", "KBVY", "72508854733"], "source": "obs", "hours": null}], "stations": {"KOWD": {"distance": 24600.0, "latitude": 42.18, "longitude": -71.17, "useCount": 0, "id": "KOWD", "name": "KOWD", "quality": 100, "contribution": 0.0}, "72509854704": {"distance": 23778.0, "latitude": 42.191, "longitude": -71.174, "useCount": 0, "id": "72509854704", "name": "NORWOOD MEMORIAL AIRPORT, MA US", "quality": 100, "contribution": 0.0}, "KBOS": {"distance": 2136.0, "latitude": 42.37, "longitude": -71.03, "useCount": 0, "id": "KBOS", "name": "KBOS", "quality": 100, "contribution": 0.0}, "72509014739": {"distance": 554.0, "latitude": 42.361, "longitude": -71.01, "useCount": 0, "id": "72509014739", "name": "BOSTON, MA US", "quality": 100, "contribution": 0.0}, "KBVY": {"distance": 25010.0, "latitude": 42.58, "longitude": -70.92, "useCount": 0, "id": "KBVY", "name": "KBVY", "quality": 100, "contribution": 0.0}, "72508854733": {"distance": 25516.0, "latitude": 42.584, "longitude": -70.917, "useCount": 0, "id": "72508854733", "name": "BEVERLY MUNICIPAL AIRPORT, MA US", "quality": 100, "contribution": 0.0}}}