{"queryCost": 1, "latitude": 42.36429977, "longitude": -71.00520325, "resolvedAddress": "42.36429977, -71.00520325", "address": "42.36429977, -71.00520325", "timezone": "America/New_York", "tzoffset": -5.0, "days": [{"datetime": "2020-01-06", "datetimeEpoch": 1578286800, "tempmax": 4.3, "tempmin": -2.2, "temp": 0.8, "feelslikemax": 0.7, "feelslikemin": -5.1, "feelslike": -2.1, "dew": -6.5, "humidity": 58.56, "precip": 0.0, "precipprob": null, "precipcover": 0.0, "preciptype": null, "snow": 0.0, "snowdepth": 0.0, "windgust": 47.9, "windspeed": 27.7, "winddir": 180.4, "pressure": 1013.2, "cloudcover": 54.6, "visibility": 15.7, "solarradiation": 84.9, "solarenergy": 4.3, "sunrise": "07:13:21", "sunriseEpoch": 1578312801, "sunset": "16:26:19", "sunsetEpoch": 1578345979, "moonphase": 0.4, "conditions": "Partially cloudy", "icon": "partly-cloudy-day", "stations": ["KOWD", "72509854704", "KBOS", "72509014739", "KBVY", "72508854733"], "source": "obs", "hours": null}], "stations": {"KOWD": {"distance": 24600.0, "latitude": 42.18, "longitude": -71.17, "useCount": 0, "id": "KOWD", "name": "KOWD", "quality": 100, "contribution": 0.0}, "72509854704": {"distance": 23778.0, "latitude": 42.191, "longitude": -71.174, "useCount": 0, "id": "72509854704", "name": "NORWOOD MEMORIAL AIRPORT, MA US", "quality": 100, "contribution": 0.0}, "KBOS": {"distance": 2136.0, "latitude": 42.37, "longitude": -71.03, "useCount": 0, "id": "KBOS", "name": "KBOS", "quality": 100, "contribution": 0.0}, "72509014739": {"distance": 554.0, "latitude": 42.361, "longitude": -71.01, "useCount": 0, "id": "72509014739", "name": "BOSTON, MA US", "quality": 100, "contribution": 0.0}, "KBVY": {"distance": 25010.0, "latitude": 42.58, "longitude": -70.92, "useCount": 0, "id": "KBVY", "name": "KBVY", "quality": 100, "contribution": 0.0}, "72508854733": {"distance": 25516.0, "latitude": 42.584, "longitude": -70.917, "useCount": 0, "id": "72508854733", "name": "BEVERLY MUNICIPAL AIRPORT, MA US", "quality": 100, "contribution": 0.0}}}