{"queryCost": 1, "latitude": 42.36429977, "longitude": -71.00520325, "resolvedAddress": "42.36429977, -71.00520325", "address": "42.36429977, -71.00520325", "timezone": "America/New_York", "tzoffset": -4.0, "days": [{"datetime": "2019-10-22", "datetimeEpoch": 1571716800, "tempmax": 15.7, "tempmin": 10.6, "temp": 13.0, "feelslikemax": 15.7, "feelslikemin": 10.6, "feelslike": 13.0, "dew": 9.8, "humidity": 80.99, "precip": 1.29, "precipprob": null, "precipcover": 20.83, "preciptype": null, "snow": 0.0, "snowdepth": 0.0, "windgust": null, "windspeed": 27.7, "winddir": 130.4, "pressure": 1019.0, "cloudcover": 77.1, "visibility": 13.2, "solarradiation": 55.2, "solarenergy": 4.6, "sunrise": "07:04:47", "sunriseEpoch": 1571742287, "sunset": "17:51:35", "sunsetEpoch": 1571781095, "moonphase": 0.81, "conditions": "Rain, Overcast", "icon": "rain", "stations": ["KOWD", "72509854704", "KBOS", "72509014739", "KBVY", "72508854733"], "source": "obs", "hours": null}], "stations": {"KOWD": {"distance": 24600.0, "latitude": 42.18, "longitude": -71.17, "useCount": 0, "id": "KOWD", "name": "KOWD", "quality": 100, "contribution": 0.0}, "72509854704": {"distance": 23778.0, "latitude": 42.191, "longitude": -71.174, "useCount": 0, "id": "72509854704", "name": "NORWOOD MEMORIAL AIRPORT, MA US", "quality": 100, "contribution": 0.0}, "KBOS": {"distance": 2136.0, "latitude": 42.37, "longitude": -71.03, "useCount": 0, "id": "KBOS", "name": "KBOS", "quality": 100, "contribution": 0.0}, "72509014739": {"distance": 554.0, "latitude": 42.361, "longitude": -71.01, "useCount": 0, "id": "72509014739", "name": "BOSTON, MA US", "quality": 100, "contribution": 0.0}, "KBVY": {"distance": 25010.0, "latitude": 42.58, "longitude": -70.92, "useCount": 0, "id": "KBVY", "name": "KBVY", "quality": 100, "contribution": 0.0}, "72508854733": {"distance": 25516.0, "latitude": 42.584, "longitude": -70.917, "useCount": 0, "id": "72508854733", "name": "BEVERLY MUNICIPAL AIRPORT, MA US", "quality": 100, "contribution": 0.0}}}