{"queryCost": 1, "latitude": 31.258800506591797, "longitude": -81.46649932861328, "resolvedAddress": "31.258800506591797, -81.46649932861328", "address": "31.258800506591797, -81.46649932861328", "timezone": "America/New_York", "tzoffset": -5.0, "days": [{"datetime": "2020-01-01", "datetimeEpoch": 1577854800, "tempmax": 15.7, "tempmin": 4.4, "temp": 9.1, "feelslikemax": 15.7, "feelslikemin": 2.5, "feelslike": 8.2, "dew": 1.8, "humidity": 63.29, "precip": 0.0, "precipprob": null, "precipcover": 0.0, "preciptype": null, "snow": 0.0, "snowdepth": 0.0, "windgust": null, "windspeed": 14.8, "winddir": 247.1, "pressure": 1018.2, "cloudcover": 16.7, "visibility": 16.0, "solarradiation": 166.1, "solarenergy": 7.2, "sunrise": "07:24:43", "sunriseEpoch": 1577881483, "sunset": "17:34:00", "sunsetEpoch": 1577918040, "moonphase": 0.17, "conditions": "Clear", "icon": "clear-day", "stations": ["72213653883", "KBQK", "99999963856", "72213713878", "KSSI"], "source": "obs", "hours": null}], "stations": {"72213653883": {"distance": 40.0, "latitude": 31.259, "longitude": -81.466, "useCount": 0, "id": "72213653883", "name": "BRUNSWICK GLYNCO JETPORT AIRPORT, GA US", "quality": 100, "contribution": 0.0}, "KBQK": {"distance": 1035.0, "latitude": 31.25, "longitude": -81.47, "useCount": 0, "id": "KBQK", "name": "KBQK", "quality": 100, "contribution": 0.0}, "99999963856": {"distance": 50209.0, "latitude": 30.808, "longitude": -81.46, "useCount": 0, "id": "99999963856", "name": "BRUNSWICK 23 S, GA US", "quality": 100, "contribution": 0.0}, "72213713878": {"distance": 13884.0, "latitude": 31.152, "longitude": -81.391, "useCount": 0, "id": "72213713878", "name": "BRUNSWICK MCKINNON AIRPORT, GA US", "quality": 100, "contribution": 0.0}, "KSSI": {"distance": 14647.0, "latitude": 31.15, "longitude": -81.38, "useCount": 0, "id": "KSSI", "name": "KSSI", "quality": 100, "contribution": 0.0}}}