{"queryCost": 1, "latitude": 25.90679931640625, "longitude": -97.4259033203125, "resolvedAddress": "25.90679931640625, -97.4259033203125", "address": "25.90679931640625, -97.4259033203125", "timezone": "America/Chicago", "tzoffset": -6.0, "days": [{"datetime": "2018-12-10", "datetimeEpoch": 1544421600, "tempmax": 17.8, "tempmin": 7.2, "temp": 11.5, "feelslikemax": 17.8, "feelslikemin": 5.1, "feelslike": 10.8, "dew": 7.0, "humidity": 76.58, "precip": 0.0, "precipprob": null, "precipcover": 0.0, "preciptype": null, "snow": 0.0, "snowdepth": 0.0, "windgust": 31.7, "windspeed": 18.4, "winddir": 223.8, "pressure": 1029.2, "cloudcover": 0.0, "visibility": 16.0, "solarradiation": 448.2, "solarenergy": 17.7, "sunrise": "07:05:56", "sunriseEpoch": 1544447156, "sunset": "17:39:11", "sunsetEpoch": 1544485151, "moonphase": 0.05, "conditions": "Clear", "icon": "clear-day", "stations": ["KHRL", "72250512904", "72250012919", "KBRO", "72215912980", "KPIL"], "source": "obs", "hours": null}], "stations": {"KHRL": {"distance": 42386.0, "latitude": 26.23, "longitude": -97.65, "useCount": 0, "id": "KHRL", "name": "KHRL", "quality": 100, "contribution": 0.0}, "72250512904": {"distance": 42431.0, "latitude": 26.228, "longitude": -97.654, "useCount": 0, "id": "72250512904", "name": "HARLINGEN RIO GRANDE VALLEY INTERNATIONAL AIRPORT, TX US", "quality": 99, "contribution": 0.0}, "72250012919": {"distance": 863.0, "latitude": 25.914, "longitude": -97.423, "useCount": 0, "id": "72250012919", "name": "BROWNSVILLE S PADRE ISLAND INTERNATIONAL AIRPORT, TX US", "quality": 100, "contribution": 0.0}, "KBRO": {"distance": 861.0, "latitude": 25.9, "longitude": -97.43, "useCount": 0, "id": "KBRO", "name": "KBRO", "quality": 100, "contribution": 0.0}, "72215912980": {"distance": 62477.0, "latitude": 26.178, "longitude": -97.973, "useCount": 0, "id": "72215912980", "name": "WESLACO MID VALLEY AIRPORT, TX US", "quality": 100, "contribution": 0.0}, "KPIL": {"distance": 30267.0, "latitude": 26.17, "longitude": -97.35, "useCount": 0, "id": "KPIL", "name": "KPIL", "quality": 91, "contribution": 0.0}}}