{"queryCost": 1, "latitude": 30.533199, "longitude": -91.149597, "resolvedAddress": "30.533199, -91.149597", "address": "30.533199, -91.149597", "timezone": "America/Chicago", "tzoffset": -6.0, "days": [{"datetime": "2019-12-27", "datetimeEpoch": 1577426400, "tempmax": 22.8, "tempmin": 17.8, "temp": 19.8, "feelslikemax": 22.8, "feelslikemin": 17.8, "feelslike": 19.8, "dew": 17.1, "humidity": 84.9, "precip": 1.1, "precipprob": null, "precipcover": 16.67, "preciptype": null, "snow": 0.0, "snowdepth": 0.0, "windgust": null, "windspeed": 18.4, "winddir": 78.9, "pressure": 1018.3, "cloudcover": 94.3, "visibility": 13.6, "solarradiation": 166.3, "solarenergy": 6.6, "sunrise": "07:00:13", "sunriseEpoch": 1577451613, "sunset": "17:11:07", "sunsetEpoch": 1577488267, "moonphase": 0.01, "conditions": "Rain, Overcast", "icon": "rain", "stations": ["72104600460", "72231203908", "KBTR", "KHZR", "72232013970", "KHDC"], "source": "obs", "hours": null}], "stations": {"72104600460": {"distance": 44872.0, "latitude": 30.173, "longitude": -90.941, "useCount": 0, "id": "72104600460", "name": "LOUISIANA REGIONAL AIRPORT, LA US", "quality": 100, "contribution": 0.0}, "72231203908": {"distance": 70214.0, "latitude": 30.521, "longitude": -90.417, "useCount": 0, "id": "72231203908", "name": "HAMMOND MUNICIPAL AIRPORT, LA US", "quality": 100, "contribution": 0.0}, "KBTR": {"distance": 358.0, "latitude": 30.53, "longitude": -91.15, "useCount": 0, "id": "KBTR", "name": "KBTR", "quality": 100, "contribution": 0.0}, "KHZR": {"distance": 37271.0, "latitude": 30.71, "longitude": -91.48, "useCount": 0, "id": "KHZR", "name": "KHZR", "quality": 92, "contribution": 0.0}, "72232013970": {"distance": 515.0, "latitude": 30.537, "longitude": -91.147, "useCount": 0, "id": "72232013970", "name": "BATON ROUGE METRO AIRPORT, LA US", "quality": 100, "contribution": 0.0}, "KHDC": {"distance": 69976.0, "latitude": 30.52, "longitude": -90.42, "useCount": 0, "id": "KHDC", "name": "KHDC", "quality": 100, "contribution": 0.0}}}