{"queryCost": 1, "latitude": 30.533199, "longitude": -91.149597, "resolvedAddress": "30.533199, -91.149597", "address": "30.533199, -91.149597", "timezone": "America/Chicago", "tzoffset": -6.0, "days": [{"datetime": "2020-01-05", "datetimeEpoch": 1578204000, "tempmax": 19.3, "tempmin": 2.2, "temp": 10.7, "feelslikemax": 19.3, "feelslikemin": 0.0, "feelslike": 10.5, "dew": 4.0, "humidity": 67.02, "precip": 0.0, "precipprob": null, "precipcover": 0.0, "preciptype": null, "snow": 0.0, "snowdepth": 0.0, "windgust": null, "windspeed": 18.4, "winddir": 120.4, "pressure": 1027.9, "cloudcover": 0.0, "visibility": 16.0, "solarradiation": 359.6, "solarenergy": 14.2, "sunrise": "07:02:31", "sunriseEpoch": 1578229351, "sunset": "17:17:24", "sunsetEpoch": 1578266244, "moonphase": 0.36, "conditions": "Clear", "icon": "clear-day", "stations": ["72104600460", "KBTR", "KHZR", "72232013970", "KHDC"], "source": "obs", "hours": null}], "stations": {"72232013970": {"distance": 515.0, "latitude": 30.537, "longitude": -91.147, "useCount": 0, "id": "72232013970", "name": "BATON ROUGE METRO AIRPORT, LA US", "quality": 100, "contribution": 0.0}, "72104600460": {"distance": 44872.0, "latitude": 30.173, "longitude": -90.941, "useCount": 0, "id": "72104600460", "name": "LOUISIANA REGIONAL AIRPORT, LA US", "quality": 100, "contribution": 0.0}, "KBTR": {"distance": 358.0, "latitude": 30.53, "longitude": -91.15, "useCount": 0, "id": "KBTR", "name": "KBTR", "quality": 100, "contribution": 0.0}, "KHZR": {"distance": 37271.0, "latitude": 30.71, "longitude": -91.48, "useCount": 0, "id": "KHZR", "name": "KHZR", "quality": 92, "contribution": 0.0}, "KHDC": {"distance": 69976.0, "latitude": 30.52, "longitude": -90.42, "useCount": 0, "id": "KHDC", "name": "KHDC", "quality": 100, "contribution": 0.0}}}