{"queryCost": 1, "latitude": 30.533199, "longitude": -91.149597, "resolvedAddress": "30.533199, -91.149597", "address": "30.533199, -91.149597", "timezone": "America/Chicago", "tzoffset": -6.0, "days": [{"datetime": "2020-01-03", "datetimeEpoch": 1578031200, "tempmax": 16.7, "tempmin": 13.9, "temp": 15.7, "feelslikemax": 16.7, "feelslikemin": 13.9, "feelslike": 15.7, "dew": 14.3, "humidity": 91.23, "precip": 21.47, "precipprob": null, "precipcover": 70.83, "preciptype": null, "snow": 0.0, "snowdepth": 0.0, "windgust": null, "windspeed": 14.8, "winddir": 137.5, "pressure": 1011.8, "cloudcover": 88.2, "visibility": 14.7, "solarradiation": 55.7, "solarenergy": 2.2, "sunrise": "07:02:11", "sunriseEpoch": 1578056531, "sunset": "17:15:53", "sunsetEpoch": 1578093353, "moonphase": 0.26, "conditions": "Rain, Overcast", "icon": "rain", "stations": ["72104600460", "KBTR", "KHZR", "72232013970", "KHDC"], "source": "obs", "hours": null}], "stations": {"72232013970": {"distance": 515.0, "latitude": 30.537, "longitude": -91.147, "useCount": 0, "id": "72232013970", "name": "BATON ROUGE METRO AIRPORT, LA US", "quality": 100, "contribution": 0.0}, "72104600460": {"distance": 44872.0, "latitude": 30.173, "longitude": -90.941, "useCount": 0, "id": "72104600460", "name": "LOUISIANA REGIONAL AIRPORT, LA US", "quality": 100, "contribution": 0.0}, "KBTR": {"distance": 358.0, "latitude": 30.53, "longitude": -91.15, "useCount": 0, "id": "KBTR", "name": "KBTR", "quality": 100, "contribution": 0.0}, "KHZR": {"distance": 37271.0, "latitude": 30.71, "longitude": -91.48, "useCount": 0, "id": "KHZR", "name": "KHZR", "quality": 92, "contribution": 0.0}, "KHDC": {"distance": 69976.0, "latitude": 30.52, "longitude": -90.42, "useCount": 0, "id": "KHDC", "name": "KHDC", "quality": 100, "contribution": 0.0}}}