{"queryCost": 1, "latitude": 30.533199, "longitude": -91.149597, "resolvedAddress": "30.533199, -91.149597", "address": "30.533199, -91.149597", "timezone": "America/Chicago", "tzoffset": -5.0, "days": [{"datetime": "2019-05-01", "datetimeEpoch": 1556686800, "tempmax": 32.2, "tempmin": 22.2, "temp": 26.4, "feelslikemax": 33.6, "feelslikemin": 22.2, "feelslike": 27.0, "dew": 20.5, "humidity": 72.61, "precip": 0.0, "precipprob": null, "precipcover": 0.0, "preciptype": null, "snow": 0.0, "snowdepth": 0.0, "windgust": 38.9, "windspeed": 29.5, "winddir": 138.5, "pressure": 1017.8, "cloudcover": 50.8, "visibility": 15.2, "solarradiation": null, "solarenergy": null, "sunrise": "06:21:06", "sunriseEpoch": 1556709666, "sunset": "19:42:45", "sunsetEpoch": 1556757765, "moonphase": 0.95, "conditions": "Partially cloudy", "icon": "partly-cloudy-day", "stations": ["72104600460", "72231203908", "KBTR", "KHZR", "72232013970", "KHDC"], "source": "obs", "hours": null}], "stations": {"72104600460": {"distance": 44872.0, "latitude": 30.173, "longitude": -90.941, "useCount": 0, "id": "72104600460", "name": "LOUISIANA REGIONAL AIRPORT, LA US", "quality": 100, "contribution": 0.0}, "72231203908": {"distance": 70214.0, "latitude": 30.521, "longitude": -90.417, "useCount": 0, "id": "72231203908", "name": "HAMMOND MUNICIPAL AIRPORT, LA US", "quality": 100, "contribution": 0.0}, "KBTR": {"distance": 358.0, "latitude": 30.53, "longitude": -91.15, "useCount": 0, "id": "KBTR", "name": "KBTR", "quality": 100, "contribution": 0.0}, "KHZR": {"distance": 37271.0, "latitude": 30.71, "longitude": -91.48, "useCount": 0, "id": "KHZR", "name": "KHZR", "quality": 92, "contribution": 0.0}, "72232013970": {"distance": 515.0, "latitude": 30.537, "longitude": -91.147, "useCount": 0, "id": "72232013970", "name": "BATON ROUGE METRO AIRPORT, LA US", "quality": 100, "contribution": 0.0}, "KHDC": {"distance": 69976.0, "latitude": 30.52, "longitude": -90.42, "useCount": 0, "id": "KHDC", "name": "KHDC", "quality": 100, "contribution": 0.0}}}