{"queryCost": 1, "latitude": 44.471900939899996, "longitude": -73.15329742429999, "resolvedAddress": "44.471900939899996, -73.15329742429999", "address": "44.471900939899996, -73.15329742429999", "timezone": "America/New_York", "tzoffset": -5.0, "days": [{"datetime": "2020-01-05", "datetimeEpoch": 1578200400, "tempmax": -1.2, "tempmin": -8.3, "temp": -3.5, "feelslikemax": -4.5, "feelslikemin": -12.4, "feelslike": -8.5, "dew": -7.2, "humidity": 75.61, "precip": 0.0, "precipprob": null, "precipcover": 4.17, "preciptype": null, "snow": 2.78, "snowdepth": 8.0, "windgust": 42.5, "windspeed": 24.1, "winddir": 254.6, "pressure": 1009.3, "cloudcover": 84.9, "visibility": 14.5, "solarradiation": 10.7, "solarenergy": 0.9, "sunrise": "07:29:01", "sunriseEpoch": 1578227341, "sunset": "16:26:57", "sunsetEpoch": 1578259617, "moonphase": 0.36, "conditions": "Overcast", "icon": "snow", "stations": ["72622564776", "KPBG", "KBTV", "KMVL", "72611454771", "72617014742"], "source": "obs", "hours": null}], "stations": {"72622564776": {"distance": 31796.0, "latitude": 44.65, "longitude": -73.467, "useCount": 0, "id": "72622564776", "name": "PLATTSBURGH INTERNATIONAL AIRPORT, NY US", "quality": 100, "contribution": 0.0}, "KPBG": {"distance": 32001.0, "latitude": 44.65, "longitude": -73.47, "useCount": 0, "id": "KPBG", "name": "KPBG", "quality": 99, "contribution": 0.0}, "KBTV": {"distance": 337.0, "latitude": 44.47, "longitude": -73.15, "useCount": 0, "id": "KBTV", "name": "KBTV", "quality": 100, "contribution": 0.0}, "KMVL": {"distance": 43618.0, "latitude": 44.53, "longitude": -72.61, "useCount": 0, "id": "KMVL", "name": "KMVL", "quality": 100, "contribution": 0.0}, "72611454771": {"distance": 43347.0, "latitude": 44.534, "longitude": -72.614, "useCount": 0, "id": "72611454771", "name": "MORRISVILLE STOWE STATE AIRPORT, VT US", "quality": 100, "contribution": 0.0}, "72617014742": {"distance": 483.0, "latitude": 44.468, "longitude": -73.15, "useCount": 0, "id": "72617014742", "name": "BURLINGTON INTERNATIONAL AIRPORT, VT US", "quality": 100, "contribution": 0.0}}}