{"queryCost": 1, "latitude": 44.471900939899996, "longitude": -73.15329742429999, "resolvedAddress": "44.471900939899996, -73.15329742429999", "address": "44.471900939899996, -73.15329742429999", "timezone": "America/New_York", "tzoffset": -5.0, "days": [{"datetime": "2020-01-04", "datetimeEpoch": 1578114000, "tempmax": 3.8, "tempmin": -1.2, "temp": 1.7, "feelslikemax": 3.8, "feelslikemin": -6.1, "feelslike": -1.2, "dew": -1.0, "humidity": 82.68, "precip": 6.02, "precipprob": null, "precipcover": 37.5, "preciptype": null, "snow": 5.0, "snowdepth": 5.0, "windgust": null, "windspeed": 20.5, "winddir": 287.9, "pressure": 1005.8, "cloudcover": 94.9, "visibility": 10.6, "solarradiation": 15.0, "solarenergy": 1.3, "sunrise": "07:29:06", "sunriseEpoch": 1578140946, "sunset": "16:25:57", "sunsetEpoch": 1578173157, "moonphase": 0.31, "conditions": "Snow, Overcast", "icon": "snow", "stations": ["72622564776", "KPBG", "KBTV", "KMVL", "72611454771", "72617014742"], "source": "obs", "hours": null}], "stations": {"72622564776": {"distance": 31796.0, "latitude": 44.65, "longitude": -73.467, "useCount": 0, "id": "72622564776", "name": "PLATTSBURGH INTERNATIONAL AIRPORT, NY US", "quality": 100, "contribution": 0.0}, "KPBG": {"distance": 32001.0, "latitude": 44.65, "longitude": -73.47, "useCount": 0, "id": "KPBG", "name": "KPBG", "quality": 99, "contribution": 0.0}, "KBTV": {"distance": 337.0, "latitude": 44.47, "longitude": -73.15, "useCount": 0, "id": "KBTV", "name": "KBTV", "quality": 100, "contribution": 0.0}, "KMVL": {"distance": 43618.0, "latitude": 44.53, "longitude": -72.61, "useCount": 0, "id": "KMVL", "name": "KMVL", "quality": 100, "contribution": 0.0}, "72611454771": {"distance": 43347.0, "latitude": 44.534, "longitude": -72.614, "useCount": 0, "id": "72611454771", "name": "MORRISVILLE STOWE STATE AIRPORT, VT US", "quality": 100, "contribution": 0.0}, "72617014742": {"distance": 483.0, "latitude": 44.468, "longitude": -73.15, "useCount": 0, "id": "72617014742", "name": "BURLINGTON INTERNATIONAL AIRPORT, VT US", "quality": 100, "contribution": 0.0}}}