{"queryCost": 1, "latitude": 42.94049835, "longitude": -78.73220062, "resolvedAddress": "42.94049835, -78.73220062", "address": "42.94049835, -78.73220062", "timezone": "America/New_York", "tzoffset": -5.0, "days": [{"datetime": "2019-03-09", "datetimeEpoch": 1552107600, "tempmax": 4.3, "tempmin": -11.2, "temp": -3.0, "feelslikemax": 0.0, "feelslikemin": -15.6, "feelslike": -7.4, "dew": -10.1, "humidity": 60.43, "precip": 0.0, "precipprob": null, "precipcover": 0.0, "preciptype": null, "snow": 0.0, "snowdepth": 11.01, "windgust": 42.3, "windspeed": 27.7, "winddir": 106.7, "pressure": 1022.9, "cloudcover": 46.1, "visibility": 15.6, "solarradiation": 419.1, "solarenergy": 18.1, "sunrise": "06:37:42", "sunriseEpoch": 1552131462, "sunset": "18:13:54", "sunsetEpoch": 1552173234, "moonphase": 0.04, "conditions": "Partially cloudy", "icon": "partly-cloudy-day", "stations": ["71752099999", "72528014733", "KGVQ", "KIAG", "72528704724", "KBUF"], "source": "obs", "hours": null}], "stations": {"71752099999": {"distance": 48815.0, "latitude": 42.97, "longitude": -79.33, "useCount": 0, "id": "71752099999", "name": "WELLAND PELHAM, CA", "quality": 98, "contribution": 0.0}, "72528014733": {"distance": 295.0, "latitude": 42.941, "longitude": -78.736, "useCount": 0, "id": "72528014733", "name": "BUFFALO NIAGARA INTERNATIONAL, NY US", "quality": 100, "contribution": 0.0}, "KGVQ": {"distance": 47649.0, "latitude": 43.03, "longitude": -78.16, "useCount": 0, "id": "KGVQ", "name": "BATAVIA, NY", "quality": 100, "contribution": 0.0}, "KIAG": {"distance": 25089.0, "latitude": 43.1, "longitude": -78.95, "useCount": 0, "id": "KIAG", "name": "KIAG", "quality": 100, "contribution": 0.0}, "72528704724": {"distance": 25094.0, "latitude": 43.108, "longitude": -78.938, "useCount": 0, "id": "72528704724", "name": "NIAGARA FALLS INTERNATIONAL AIRPORT, NY US", "quality": 99, "contribution": 0.0}, "KBUF": {"distance": 1182.0, "latitude": 42.93, "longitude": -78.73, "useCount": 0, "id": "KBUF", "name": "KBUF", "quality": 100, "contribution": 0.0}}}