{"queryCost": 1, "latitude": 34.20069885253906, "longitude": -118.35900115966797, "resolvedAddress": "34.20069885253906, -118.35900115966797", "address": "34.20069885253906, -118.35900115966797", "timezone": "America/Los_Angeles", "tzoffset": -8.0, "days": [{"datetime": "2019-03-04", "datetimeEpoch": 1551686400, "tempmax": 16.7, "tempmin": 10.7, "temp": 13.1, "feelslikemax": 16.7, "feelslikemin": 10.7, "feelslike": 13.1, "dew": 8.2, "humidity": 73.25, "precip": 0.0, "precipprob": null, "precipcover": 0.0, "preciptype": null, "snow": 0.0, "snowdepth": 0.0, "windgust": null, "windspeed": 20.5, "winddir": 126.3, "pressure": 1017.0, "cloudcover": 68.0, "visibility": 16.0, "solarradiation": 405.8, "solarenergy": 17.5, "sunrise": "06:18:34", "sunriseEpoch": 1551709114, "sunset": "17:52:12", "sunsetEpoch": 1551750732, "moonphase": 0.98, "conditions": "Partially cloudy", "icon": "partly-cloudy-day", "stations": ["KVNY", "KBUR", "KCQT", "72288623130", "72288023152", "72287493134"], "source": "obs", "hours": null}], "stations": {"KVNY": {"distance": 11344.0, "latitude": 34.22, "longitude": -118.48, "useCount": 0, "id": "KVNY", "name": "KVNY", "quality": 100, "contribution": 0.0}, "KBUR": {"distance": 832.0, "latitude": 34.2, "longitude": -118.35, "useCount": 0, "id": "KBUR", "name": "KBUR", "quality": 100, "contribution": 0.0}, "KCQT": {"distance": 21393.0, "latitude": 34.02, "longitude": -118.28, "useCount": 0, "id": "KCQT", "name": "KCQT", "quality": 100, "contribution": 0.0}, "72288623130": {"distance": 12010.0, "latitude": 34.21, "longitude": -118.489, "useCount": 0, "id": "72288623130", "name": "VAN NUYS AIRPORT, CA US", "quality": 100, "contribution": 0.0}, "72288023152": {"distance": 185.0, "latitude": 34.201, "longitude": -118.357, "useCount": 0, "id": "72288023152", "name": "BURBANK GLENDALE PASADENA AIRPORT, CA US", "quality": 100, "contribution": 0.0}, "72287493134": {"distance": 20687.0, "latitude": 34.024, "longitude": -118.291, "useCount": 0, "id": "72287493134", "name": "LOS ANGELES DOWNTOWN USC, CA US", "quality": 100, "contribution": 0.0}}}