{"queryCost": 1, "latitude": 34.20069885253906, "longitude": -118.35900115966797, "resolvedAddress": "34.20069885253906, -118.35900115966797", "address": "34.20069885253906, -118.35900115966797", "timezone": "America/Los_Angeles", "tzoffset": -8.0, "days": [{"datetime": "2018-01-26", "datetimeEpoch": 1516953600, "tempmax": 19.3, "tempmin": 6.2, "temp": 12.8, "feelslikemax": 19.3, "feelslikemin": 6.2, "feelslike": 12.8, "dew": -0.6, "humidity": 42.22, "precip": 0.0, "precipprob": null, "precipcover": 0.0, "preciptype": null, "snow": 0.0, "snowdepth": 0.0, "windgust": 47.9, "windspeed": 27.7, "winddir": 255.1, "pressure": 1020.8, "cloudcover": 0.0, "visibility": 16.0, "solarradiation": 318.4, "solarenergy": 13.8, "sunrise": "06:54:38", "sunriseEpoch": 1516978478, "sunset": "17:17:47", "sunsetEpoch": 1517015867, "moonphase": 0.34, "conditions": "Clear", "icon": "clear-day", "stations": ["KVNY", "KBUR", "72288623130", "72288023152", "72287493134"], "source": "obs", "hours": null}], "stations": {"72288623130": {"distance": 12010.0, "latitude": 34.21, "longitude": -118.489, "useCount": 0, "id": "72288623130", "name": "VAN NUYS AIRPORT, CA US", "quality": 100, "contribution": 0.0}, "72288023152": {"distance": 185.0, "latitude": 34.201, "longitude": -118.357, "useCount": 0, "id": "72288023152", "name": "BURBANK GLENDALE PASADENA AIRPORT, CA US", "quality": 100, "contribution": 0.0}, "KVNY": {"distance": 11344.0, "latitude": 34.22, "longitude": -118.48, "useCount": 0, "id": "KVNY", "name": "KVNY", "quality": 100, "contribution": 0.0}, "72287493134": {"distance": 20687.0, "latitude": 34.024, "longitude": -118.291, "useCount": 0, "id": "72287493134", "name": "LOS ANGELES DOWNTOWN USC, CA US", "quality": 100, "contribution": 0.0}, "KBUR": {"distance": 832.0, "latitude": 34.2, "longitude": -118.35, "useCount": 0, "id": "KBUR", "name": "KBUR", "quality": 100, "contribution": 0.0}}}