{"queryCost": 1, "latitude": 34.20069885253906, "longitude": -118.35900115966797, "resolvedAddress": "34.20069885253906, -118.35900115966797", "address": "34.20069885253906, -118.35900115966797", "timezone": "America/Los_Angeles", "tzoffset": -8.0, "days": [{"datetime": "2020-01-04", "datetimeEpoch": 1578124800, "tempmax": 20.7, "tempmin": 6.2, "temp": 12.8, "feelslikemax": 20.7, "feelslikemin": 6.2, "feelslike": 12.7, "dew": 3.5, "humidity": 56.06, "precip": 0.0, "precipprob": null, "precipcover": 0.0, "preciptype": null, "snow": 0.0, "snowdepth": 0.0, "windgust": null, "windspeed": 11.2, "winddir": 98.3, "pressure": 1025.2, "cloudcover": 0.0, "visibility": 16.0, "solarradiation": 186.8, "solarenergy": 8.1, "sunrise": "06:59:56", "sunriseEpoch": 1578149996, "sunset": "16:56:50", "sunsetEpoch": 1578185810, "moonphase": 0.31, "conditions": "Clear", "icon": "clear-day", "stations": ["KVNY", "KBUR", "KCQT", "72288623130", "72288023152", "72287493134"], "source": "obs", "hours": null}], "stations": {"KVNY": {"distance": 11344.0, "latitude": 34.22, "longitude": -118.48, "useCount": 0, "id": "KVNY", "name": "KVNY", "quality": 100, "contribution": 0.0}, "KBUR": {"distance": 832.0, "latitude": 34.2, "longitude": -118.35, "useCount": 0, "id": "KBUR", "name": "KBUR", "quality": 100, "contribution": 0.0}, "KCQT": {"distance": 21393.0, "latitude": 34.02, "longitude": -118.28, "useCount": 0, "id": "KCQT", "name": "KCQT", "quality": 100, "contribution": 0.0}, "72288623130": {"distance": 12010.0, "latitude": 34.21, "longitude": -118.489, "useCount": 0, "id": "72288623130", "name": "VAN NUYS AIRPORT, CA US", "quality": 100, "contribution": 0.0}, "72288023152": {"distance": 185.0, "latitude": 34.201, "longitude": -118.357, "useCount": 0, "id": "72288023152", "name": "BURBANK GLENDALE PASADENA AIRPORT, CA US", "quality": 100, "contribution": 0.0}, "72287493134": {"distance": 20687.0, "latitude": 34.024, "longitude": -118.291, "useCount": 0, "id": "72287493134", "name": "LOS ANGELES DOWNTOWN USC, CA US", "quality": 100, "contribution": 0.0}}}