{"queryCost": 1, "latitude": 34.20069885253906, "longitude": -118.35900115966797, "resolvedAddress": "34.20069885253906, -118.35900115966797", "address": "34.20069885253906, -118.35900115966797", "timezone": "America/Los_Angeles", "tzoffset": -7.0, "days": [{"datetime": "2018-09-11", "datetimeEpoch": 1536649200, "tempmax": 27.2, "tempmin": 18.4, "temp": 21.7, "feelslikemax": 27.5, "feelslikemin": 18.4, "feelslike": 21.8, "dew": 16.6, "humidity": 75.11, "precip": 0.0, "precipprob": null, "precipcover": 0.0, "preciptype": null, "snow": 0.0, "snowdepth": 0.0, "windgust": 31.7, "windspeed": 20.5, "winddir": 153.0, "pressure": 1009.4, "cloudcover": 41.7, "visibility": 13.2, "solarradiation": 416.1, "solarenergy": 21.0, "sunrise": "06:33:50", "sunriseEpoch": 1536672830, "sunset": "19:05:35", "sunsetEpoch": 1536717935, "moonphase": 0.02, "conditions": "Partially cloudy", "icon": "partly-cloudy-day", "stations": ["KVNY", "KBUR", "72288623130", "72288023152", "72287493134"], "source": "obs", "hours": null}], "stations": {"72288623130": {"distance": 12010.0, "latitude": 34.21, "longitude": -118.489, "useCount": 0, "id": "72288623130", "name": "VAN NUYS AIRPORT, CA US", "quality": 100, "contribution": 0.0}, "72288023152": {"distance": 185.0, "latitude": 34.201, "longitude": -118.357, "useCount": 0, "id": "72288023152", "name": "BURBANK GLENDALE PASADENA AIRPORT, CA US", "quality": 100, "contribution": 0.0}, "KVNY": {"distance": 11344.0, "latitude": 34.22, "longitude": -118.48, "useCount": 0, "id": "KVNY", "name": "KVNY", "quality": 100, "contribution": 0.0}, "72287493134": {"distance": 20687.0, "latitude": 34.024, "longitude": -118.291, "useCount": 0, "id": "72287493134", "name": "LOS ANGELES DOWNTOWN USC, CA US", "quality": 100, "contribution": 0.0}, "KBUR": {"distance": 832.0, "latitude": 34.2, "longitude": -118.35, "useCount": 0, "id": "KBUR", "name": "KBUR", "quality": 100, "contribution": 0.0}}}