{"queryCost": 1, "latitude": 39.1754, "longitude": -76.668297, "resolvedAddress": "39.1754, -76.668297", "address": "39.1754, -76.668297", "timezone": "America/New_York", "tzoffset": -4.0, "days": [{"datetime": "2018-07-21", "datetimeEpoch": 1532145600, "tempmax": 23.4, "tempmin": 19.4, "temp": 21.0, "feelslikemax": 23.4, "feelslikemin": 19.4, "feelslike": 21.0, "dew": 19.1, "humidity": 89.5, "precip": 111.55, "precipprob": null, "precipcover": 62.5, "preciptype": null, "snow": 0.0, "snowdepth": 0.0, "windgust": 59.3, "windspeed": 40.7, "winddir": 83.3, "pressure": 1012.4, "cloudcover": 96.0, "visibility": 9.0, "solarradiation": 56.7, "solarenergy": 2.9, "sunrise": "05:57:34", "sunriseEpoch": 1532167054, "sunset": "20:28:11", "sunsetEpoch": 1532219291, "moonphase": 0.34, "conditions": "Rain, Overcast", "icon": "rain", "stations": ["99999913752", "72215899999", "72406093721", "KBWI", "72033493764", "KNAK"], "source": "obs", "hours": null}], "stations": {"99999913752": {"distance": 25686.0, "latitude": 38.991, "longitude": -76.489, "useCount": 0, "id": "99999913752", "name": "ANNAPOLIS UNITED STATES NAVAL ACADEMY ASOS, MD US", "quality": 100, "contribution": 0.0}, "72215899999": {"distance": 26281.0, "latitude": 38.99, "longitude": -76.48, "useCount": 0, "id": "72215899999", "name": "ANNAPOLIS UNITED STATES NAVAL ACADEMY, MD US", "quality": 99, "contribution": 0.0}, "72406093721": {"distance": 1375.0, "latitude": 39.173, "longitude": -76.684, "useCount": 0, "id": "72406093721", "name": "BALTIMORE WASHINGTON INTERNATIONAL AIRPORT, MD US", "quality": 100, "contribution": 0.0}, "KBWI": {"distance": 533.0, "latitude": 39.18, "longitude": -76.67, "useCount": 0, "id": "KBWI", "name": "KBWI", "quality": 100, "contribution": 0.0}, "72033493764": {"distance": 43024.0, "latitude": 39.167, "longitude": -77.167, "useCount": 0, "id": "72033493764", "name": "GAITHERSBURG MONTGOMERY CO AIR PARK, MD US", "quality": 100, "contribution": 0.0}, "KNAK": {"distance": 28065.0, "latitude": 38.97, "longitude": -76.48, "useCount": 0, "id": "KNAK", "name": "KNAK", "quality": 100, "contribution": 0.0}}}