{"queryCost": 1, "latitude": 39.1754, "longitude": -76.668297, "resolvedAddress": "39.1754, -76.668297", "address": "39.1754, -76.668297", "timezone": "America/New_York", "tzoffset": -5.0, "days": [{"datetime": "2020-01-03", "datetimeEpoch": 1578027600, "tempmax": 11.7, "tempmin": 8.3, "temp": 10.3, "feelslikemax": 11.7, "feelslikemin": 6.8, "feelslike": 9.8, "dew": 7.1, "humidity": 82.07, "precip": 5.13, "precipprob": null, "precipcover": 45.83, "preciptype": null, "snow": 0.0, "snowdepth": 0.0, "windgust": null, "windspeed": 14.8, "winddir": 195.8, "pressure": 1009.8, "cloudcover": 74.2, "visibility": 13.0, "solarradiation": 76.0, "solarenergy": 2.7, "sunrise": "07:26:23", "sunriseEpoch": 1578054383, "sunset": "16:55:51", "sunsetEpoch": 1578088551, "moonphase": 0.26, "conditions": "Rain, Partially cloudy", "icon": "rain", "stations": ["99999913752", "72215899999", "72406093721", "KBWI", "72033493764", "KNAK"], "source": "obs", "hours": null}], "stations": {"99999913752": {"distance": 25686.0, "latitude": 38.991, "longitude": -76.489, "useCount": 0, "id": "99999913752", "name": "ANNAPOLIS UNITED STATES NAVAL ACADEMY ASOS, MD US", "quality": 100, "contribution": 0.0}, "72215899999": {"distance": 26281.0, "latitude": 38.99, "longitude": -76.48, "useCount": 0, "id": "72215899999", "name": "ANNAPOLIS UNITED STATES NAVAL ACADEMY, MD US", "quality": 99, "contribution": 0.0}, "72406093721": {"distance": 1375.0, "latitude": 39.173, "longitude": -76.684, "useCount": 0, "id": "72406093721", "name": "BALTIMORE WASHINGTON INTERNATIONAL AIRPORT, MD US", "quality": 100, "contribution": 0.0}, "KBWI": {"distance": 533.0, "latitude": 39.18, "longitude": -76.67, "useCount": 0, "id": "KBWI", "name": "KBWI", "quality": 100, "contribution": 0.0}, "72033493764": {"distance": 43024.0, "latitude": 39.167, "longitude": -77.167, "useCount": 0, "id": "72033493764", "name": "GAITHERSBURG MONTGOMERY CO AIR PARK, MD US", "quality": 100, "contribution": 0.0}, "KNAK": {"distance": 28065.0, "latitude": 38.97, "longitude": -76.48, "useCount": 0, "id": "KNAK", "name": "KNAK", "quality": 100, "contribution": 0.0}}}