{"queryCost": 1, "latitude": 39.1754, "longitude": -76.668297, "resolvedAddress": "39.1754, -76.668297", "address": "39.1754, -76.668297", "timezone": "America/New_York", "tzoffset": -4.0, "days": [{"datetime": "2019-04-25", "datetimeEpoch": 1556164800, "tempmax": 22.2, "tempmin": 13.9, "temp": 18.1, "feelslikemax": 22.2, "feelslikemin": 13.9, "feelslike": 18.1, "dew": 8.1, "humidity": 52.79, "precip": 0.0, "precipprob": null, "precipcover": 4.17, "preciptype": null, "snow": 0.0, "snowdepth": 0.0, "windgust": null, "windspeed": 16.6, "winddir": 80.0, "pressure": 1012.2, "cloudcover": 51.4, "visibility": 16.0, "solarradiation": 300.7, "solarenergy": 15.2, "sunrise": "06:16:12", "sunriseEpoch": 1556187372, "sunset": "19:53:45", "sunsetEpoch": 1556236425, "moonphase": 0.69, "conditions": "Partially cloudy", "icon": "partly-cloudy-day", "stations": ["99999913752", "72215899999", "72406093721", "KBWI", "72033493764", "KNAK"], "source": "obs", "hours": null}], "stations": {"99999913752": {"distance": 25686.0, "latitude": 38.991, "longitude": -76.489, "useCount": 0, "id": "99999913752", "name": "ANNAPOLIS UNITED STATES NAVAL ACADEMY ASOS, MD US", "quality": 100, "contribution": 0.0}, "72215899999": {"distance": 26281.0, "latitude": 38.99, "longitude": -76.48, "useCount": 0, "id": "72215899999", "name": "ANNAPOLIS UNITED STATES NAVAL ACADEMY, MD US", "quality": 99, "contribution": 0.0}, "72406093721": {"distance": 1375.0, "latitude": 39.173, "longitude": -76.684, "useCount": 0, "id": "72406093721", "name": "BALTIMORE WASHINGTON INTERNATIONAL AIRPORT, MD US", "quality": 100, "contribution": 0.0}, "KBWI": {"distance": 533.0, "latitude": 39.18, "longitude": -76.67, "useCount": 0, "id": "KBWI", "name": "KBWI", "quality": 100, "contribution": 0.0}, "72033493764": {"distance": 43024.0, "latitude": 39.167, "longitude": -77.167, "useCount": 0, "id": "72033493764", "name": "GAITHERSBURG MONTGOMERY CO AIR PARK, MD US", "quality": 100, "contribution": 0.0}, "KNAK": {"distance": 28065.0, "latitude": 38.97, "longitude": -76.48, "useCount": 0, "id": "KNAK", "name": "KNAK", "quality": 100, "contribution": 0.0}}}