{"queryCost": 1, "latitude": 39.1754, "longitude": -76.668297, "resolvedAddress": "39.1754, -76.668297", "address": "39.1754, -76.668297", "timezone": "America/New_York", "tzoffset": -4.0, "days": [{"datetime": "2019-07-06", "datetimeEpoch": 1562385600, "tempmax": 34.3, "tempmin": 23.9, "temp": 28.4, "feelslikemax": 40.3, "feelslikemin": 23.9, "feelslike": 31.3, "dew": 23.5, "humidity": 76.41, "precip": 3.63, "precipprob": null, "precipcover": 29.17, "preciptype": null, "snow": 0.0, "snowdepth": 0.0, "windgust": 82.5, "windspeed": 20.5, "winddir": 177.8, "pressure": 1013.7, "cloudcover": 43.3, "visibility": 14.1, "solarradiation": 374.5, "solarenergy": 20.2, "sunrise": "05:46:47", "sunriseEpoch": 1562406407, "sunset": "20:35:51", "sunsetEpoch": 1562459751, "moonphase": 0.09, "conditions": "Rain, Partially cloudy", "icon": "rain", "stations": ["99999913752", "72215899999", "72406093721", "KBWI", "72033493764", "KNAK"], "source": "obs", "hours": null}], "stations": {"99999913752": {"distance": 25686.0, "latitude": 38.991, "longitude": -76.489, "useCount": 0, "id": "99999913752", "name": "ANNAPOLIS UNITED STATES NAVAL ACADEMY ASOS, MD US", "quality": 100, "contribution": 0.0}, "72215899999": {"distance": 26281.0, "latitude": 38.99, "longitude": -76.48, "useCount": 0, "id": "72215899999", "name": "ANNAPOLIS UNITED STATES NAVAL ACADEMY, MD US", "quality": 99, "contribution": 0.0}, "72406093721": {"distance": 1375.0, "latitude": 39.173, "longitude": -76.684, "useCount": 0, "id": "72406093721", "name": "BALTIMORE WASHINGTON INTERNATIONAL AIRPORT, MD US", "quality": 100, "contribution": 0.0}, "KBWI": {"distance": 533.0, "latitude": 39.18, "longitude": -76.67, "useCount": 0, "id": "KBWI", "name": "KBWI", "quality": 100, "contribution": 0.0}, "72033493764": {"distance": 43024.0, "latitude": 39.167, "longitude": -77.167, "useCount": 0, "id": "72033493764", "name": "GAITHERSBURG MONTGOMERY CO AIR PARK, MD US", "quality": 100, "contribution": 0.0}, "KNAK": {"distance": 28065.0, "latitude": 38.97, "longitude": -76.48, "useCount": 0, "id": "KNAK", "name": "KNAK", "quality": 100, "contribution": 0.0}}}