{"queryCost": 1, "latitude": 39.1754, "longitude": -76.668297, "resolvedAddress": "39.1754, -76.668297", "address": "39.1754, -76.668297", "timezone": "America/New_York", "tzoffset": -4.0, "days": [{"datetime": "2018-03-22", "datetimeEpoch": 1521691200, "tempmax": 7.9, "tempmin": 0.0, "temp": 3.5, "feelslikemax": 3.8, "feelslikemin": -4.7, "feelslike": -0.8, "dew": -4.4, "humidity": 58.38, "precip": 0.0, "precipprob": null, "precipcover": 0.0, "preciptype": null, "snow": 3.45, "snowdepth": 10.07, "windgust": 47.9, "windspeed": 29.5, "winddir": 303.8, "pressure": 1013.8, "cloudcover": 87.9, "visibility": 15.0, "solarradiation": 417.6, "solarenergy": 19.5, "sunrise": "07:06:51", "sunriseEpoch": 1521716811, "sunset": "19:20:43", "sunsetEpoch": 1521760843, "moonphase": 0.13, "conditions": "Overcast", "icon": "snow", "stations": ["99999913752", "72215899999", "72406093721", "KBWI", "72033493764", "KNAK"], "source": "obs", "hours": null}], "stations": {"99999913752": {"distance": 25686.0, "latitude": 38.991, "longitude": -76.489, "useCount": 0, "id": "99999913752", "name": "ANNAPOLIS UNITED STATES NAVAL ACADEMY ASOS, MD US", "quality": 100, "contribution": 0.0}, "72215899999": {"distance": 26281.0, "latitude": 38.99, "longitude": -76.48, "useCount": 0, "id": "72215899999", "name": "ANNAPOLIS UNITED STATES NAVAL ACADEMY, MD US", "quality": 99, "contribution": 0.0}, "72406093721": {"distance": 1375.0, "latitude": 39.173, "longitude": -76.684, "useCount": 0, "id": "72406093721", "name": "BALTIMORE WASHINGTON INTERNATIONAL AIRPORT, MD US", "quality": 100, "contribution": 0.0}, "KBWI": {"distance": 533.0, "latitude": 39.18, "longitude": -76.67, "useCount": 0, "id": "KBWI", "name": "KBWI", "quality": 100, "contribution": 0.0}, "72033493764": {"distance": 43024.0, "latitude": 39.167, "longitude": -77.167, "useCount": 0, "id": "72033493764", "name": "GAITHERSBURG MONTGOMERY CO AIR PARK, MD US", "quality": 100, "contribution": 0.0}, "KNAK": {"distance": 28065.0, "latitude": 38.97, "longitude": -76.48, "useCount": 0, "id": "KNAK", "name": "KNAK", "quality": 100, "contribution": 0.0}}}