{"queryCost": 1, "latitude": 39.1754, "longitude": -76.668297, "resolvedAddress": "39.1754, -76.668297", "address": "39.1754, -76.668297", "timezone": "America/New_York", "tzoffset": -4.0, "days": [{"datetime": "2018-04-06", "datetimeEpoch": 1522987200, "tempmax": 21.7, "tempmin": 6.2, "temp": 12.5, "feelslikemax": 21.7, "feelslikemin": 3.0, "feelslike": 11.8, "dew": -0.2, "humidity": 47.92, "precip": 0.0, "precipprob": null, "precipcover": 0.0, "preciptype": null, "snow": 0.0, "snowdepth": 0.0, "windgust": 46.4, "windspeed": 27.7, "winddir": 160.4, "pressure": 1012.4, "cloudcover": 95.0, "visibility": 16.0, "solarradiation": 255.2, "solarenergy": 11.9, "sunrise": "06:43:17", "sunriseEpoch": 1523011397, "sunset": "19:35:24", "sunsetEpoch": 1523057724, "moonphase": 0.67, "conditions": "Overcast", "icon": "cloudy", "stations": ["99999913752", "72215899999", "72406093721", "KBWI", "72033493764", "KNAK"], "source": "obs", "hours": null}], "stations": {"99999913752": {"distance": 25686.0, "latitude": 38.991, "longitude": -76.489, "useCount": 0, "id": "99999913752", "name": "ANNAPOLIS UNITED STATES NAVAL ACADEMY ASOS, MD US", "quality": 100, "contribution": 0.0}, "72215899999": {"distance": 26281.0, "latitude": 38.99, "longitude": -76.48, "useCount": 0, "id": "72215899999", "name": "ANNAPOLIS UNITED STATES NAVAL ACADEMY, MD US", "quality": 99, "contribution": 0.0}, "72406093721": {"distance": 1375.0, "latitude": 39.173, "longitude": -76.684, "useCount": 0, "id": "72406093721", "name": "BALTIMORE WASHINGTON INTERNATIONAL AIRPORT, MD US", "quality": 100, "contribution": 0.0}, "KBWI": {"distance": 533.0, "latitude": 39.18, "longitude": -76.67, "useCount": 0, "id": "KBWI", "name": "KBWI", "quality": 100, "contribution": 0.0}, "72033493764": {"distance": 43024.0, "latitude": 39.167, "longitude": -77.167, "useCount": 0, "id": "72033493764", "name": "GAITHERSBURG MONTGOMERY CO AIR PARK, MD US", "quality": 100, "contribution": 0.0}, "KNAK": {"distance": 28065.0, "latitude": 38.97, "longitude": -76.48, "useCount": 0, "id": "KNAK", "name": "KNAK", "quality": 100, "contribution": 0.0}}}