{"queryCost": 1, "latitude": 45.77750015, "longitude": -111.1529999, "resolvedAddress": "45.77750015, -111.1529999", "address": "45.77750015, -111.1529999", "timezone": "America/Denver", "tzoffset": -6.0, "days": [{"datetime": "2019-05-30", "datetimeEpoch": 1559196000, "tempmax": 25.0, "tempmin": 1.7, "temp": 14.9, "feelslikemax": 25.0, "feelslikemin": -1.5, "feelslike": 14.5, "dew": 2.4, "humidity": 48.51, "precip": 0.0, "precipprob": null, "precipcover": 0.0, "preciptype": null, "snow": 0.0, "snowdepth": 0.0, "windgust": 40.7, "windspeed": 16.6, "winddir": 285.3, "pressure": 1013.6, "cloudcover": 0.0, "visibility": 16.0, "solarradiation": 435.2, "solarenergy": 25.1, "sunrise": "05:39:37", "sunriseEpoch": 1559216377, "sunset": "21:05:14", "sunsetEpoch": 1559271914, "moonphase": 0.92, "conditions": "Clear", "icon": "clear-day", "stations": ["KEKS", "72679724132", "KBZN", "72679824150", "KLVM"], "source": "obs", "hours": null}], "stations": {"KBZN": {"distance": 363.0, "latitude": 45.78, "longitude": -111.15, "useCount": 0, "id": "KBZN", "name": "KBZN", "quality": 100, "contribution": 0.0}, "KEKS": {"distance": 69436.0, "latitude": 45.26, "longitude": -111.65, "useCount": 0, "id": "KEKS", "name": "KEKS", "quality": 97, "contribution": 0.0}, "72679824150": {"distance": 56016.0, "latitude": 45.698, "longitude": -110.441, "useCount": 0, "id": "72679824150", "name": "LIVINGSTON AIRPORT, MT US", "quality": 100, "contribution": 0.0}, "KLVM": {"distance": 55295.0, "latitude": 45.7, "longitude": -110.45, "useCount": 0, "id": "KLVM", "name": "KLVM", "quality": 100, "contribution": 0.0}, "72679724132": {"distance": 1324.0, "latitude": 45.788, "longitude": -111.161, "useCount": 0, "id": "72679724132", "name": "BOZEMAN GALLATIN FIELD AIRPORT, MT US", "quality": 100, "contribution": 0.0}}}