{"queryCost": 1, "latitude": 45.77750015, "longitude": -111.1529999, "resolvedAddress": "45.77750015, -111.1529999", "address": "45.77750015, -111.1529999", "timezone": "America/Denver", "tzoffset": -7.0, "days": [{"datetime": "2020-01-05", "datetimeEpoch": 1578207600, "tempmax": 0.7, "tempmin": -7.8, "temp": -3.8, "feelslikemax": 0.7, "feelslikemin": -12.7, "feelslike": -6.8, "dew": -10.0, "humidity": 63.09, "precip": 0.0, "precipprob": null, "precipcover": 0.0, "preciptype": null, "snow": 0.0, "snowdepth": 36.7, "windgust": 57.6, "windspeed": 16.6, "winddir": 215.4, "pressure": 1027.0, "cloudcover": 23.3, "visibility": 16.0, "solarradiation": 98.3, "solarenergy": 3.5, "sunrise": "08:05:38", "sunriseEpoch": 1578236738, "sunset": "16:54:26", "sunsetEpoch": 1578268466, "moonphase": 0.36, "conditions": "Clear", "icon": "clear-day", "stations": ["KEKS", "72679724132", "KBZN", "72679824150", "KLVM"], "source": "obs", "hours": null}], "stations": {"KBZN": {"distance": 363.0, "latitude": 45.78, "longitude": -111.15, "useCount": 0, "id": "KBZN", "name": "KBZN", "quality": 100, "contribution": 0.0}, "KEKS": {"distance": 69436.0, "latitude": 45.26, "longitude": -111.65, "useCount": 0, "id": "KEKS", "name": "KEKS", "quality": 97, "contribution": 0.0}, "72679824150": {"distance": 56016.0, "latitude": 45.698, "longitude": -110.441, "useCount": 0, "id": "72679824150", "name": "LIVINGSTON AIRPORT, MT US", "quality": 100, "contribution": 0.0}, "KLVM": {"distance": 55295.0, "latitude": 45.7, "longitude": -110.45, "useCount": 0, "id": "KLVM", "name": "KLVM", "quality": 100, "contribution": 0.0}, "72679724132": {"distance": 1324.0, "latitude": 45.788, "longitude": -111.161, "useCount": 0, "id": "72679724132", "name": "BOZEMAN GALLATIN FIELD AIRPORT, MT US", "quality": 100, "contribution": 0.0}}}