{"queryCost": 1, "latitude": 45.77750015, "longitude": -111.1529999, "resolvedAddress": "45.77750015, -111.1529999", "address": "45.77750015, -111.1529999", "timezone": "America/Denver", "tzoffset": -7.0, "days": [{"datetime": "2020-01-06", "datetimeEpoch": 1578294000, "tempmax": 3.8, "tempmin": -1.6, "temp": 1.5, "feelslikemax": 0.7, "feelslikemin": -7.6, "feelslike": -3.6, "dew": -9.2, "humidity": 45.14, "precip": 0.0, "precipprob": null, "precipcover": 0.0, "preciptype": null, "snow": 1.46, "snowdepth": 36.88, "windgust": 84.6, "windspeed": 29.5, "winddir": 237.5, "pressure": 1022.9, "cloudcover": 63.5, "visibility": 16.0, "solarradiation": 75.7, "solarenergy": 2.7, "sunrise": "08:05:29", "sunriseEpoch": 1578323129, "sunset": "16:55:29", "sunsetEpoch": 1578354929, "moonphase": 0.4, "conditions": "Partially cloudy", "icon": "snow", "stations": ["KEKS", "72679724132", "KBZN", "72679824150", "KLVM"], "source": "obs", "hours": null}], "stations": {"KBZN": {"distance": 363.0, "latitude": 45.78, "longitude": -111.15, "useCount": 0, "id": "KBZN", "name": "KBZN", "quality": 100, "contribution": 0.0}, "KEKS": {"distance": 69436.0, "latitude": 45.26, "longitude": -111.65, "useCount": 0, "id": "KEKS", "name": "KEKS", "quality": 97, "contribution": 0.0}, "72679824150": {"distance": 56016.0, "latitude": 45.698, "longitude": -110.441, "useCount": 0, "id": "72679824150", "name": "LIVINGSTON AIRPORT, MT US", "quality": 100, "contribution": 0.0}, "KLVM": {"distance": 55295.0, "latitude": 45.7, "longitude": -110.45, "useCount": 0, "id": "KLVM", "name": "KLVM", "quality": 100, "contribution": 0.0}, "72679724132": {"distance": 1324.0, "latitude": 45.788, "longitude": -111.161, "useCount": 0, "id": "72679724132", "name": "BOZEMAN GALLATIN FIELD AIRPORT, MT US", "quality": 100, "contribution": 0.0}}}