{"queryCost": 1, "latitude": 33.93880081176758, "longitude": -81.11949920654297, "resolvedAddress": "33.93880081176758, -81.11949920654297", "address": "33.93880081176758, -81.11949920654297", "timezone": "America/New_York", "tzoffset": -4.0, "days": [{"datetime": "2018-09-13", "datetimeEpoch": 1536811200, "tempmax": 32.8, "tempmin": 24.3, "temp": 28.5, "feelslikemax": 36.5, "feelslikemin": 24.3, "feelslike": 30.5, "dew": 22.8, "humidity": 73.19, "precip": 0.0, "precipprob": null, "precipcover": 0.0, "preciptype": null, "snow": 0.0, "snowdepth": 0.0, "windgust": 37.1, "windspeed": 25.9, "winddir": 167.9, "pressure": 1015.9, "cloudcover": 67.7, "visibility": 16.0, "solarradiation": 357.2, "solarenergy": 16.7, "sunrise": "07:06:18", "sunriseEpoch": 1536836778, "sunset": "19:33:52", "sunsetEpoch": 1536881632, "moonphase": 0.09, "conditions": "Partially cloudy", "icon": "partly-cloudy-day", "stations": ["72310503858", "KCUB", "KMMT", "72310013883", "72310453867", "KCAE"], "source": "obs", "hours": null}], "stations": {"72310503858": {"distance": 29665.0, "latitude": 33.967, "longitude": -80.8, "useCount": 0, "id": "72310503858", "name": "EASTOVER MCENTIRE ANG, SC US", "quality": 99, "contribution": 0.0}, "KCUB": {"distance": 13341.0, "latitude": 33.97, "longitude": -80.98, "useCount": 0, "id": "KCUB", "name": "KCUB", "quality": 100, "contribution": 0.0}, "KMMT": {"distance": 29585.0, "latitude": 33.92, "longitude": -80.8, "useCount": 0, "id": "KMMT", "name": "KMMT", "quality": 99, "contribution": 0.0}, "72310013883": {"distance": 413.0, "latitude": 33.942, "longitude": -81.118, "useCount": 0, "id": "72310013883", "name": "COLUMBIA METROPOLITAN AIRPORT, SC US", "quality": 100, "contribution": 0.0}, "72310453867": {"distance": 11958.0, "latitude": 33.971, "longitude": -80.996, "useCount": 0, "id": "72310453867", "name": "COLUMBIA OWENS DOWNTOWN AIRPORT, SC US", "quality": 100, "contribution": 0.0}, "KCAE": {"distance": 1248.0, "latitude": 33.95, "longitude": -81.12, "useCount": 0, "id": "KCAE", "name": "KCAE", "quality": 100, "contribution": 0.0}}}