{"queryCost": 1, "latitude": 40.916099548339844, "longitude": -81.44219970703125, "resolvedAddress": "40.916099548339844, -81.44219970703125", "address": "40.916099548339844, -81.44219970703125", "timezone": "America/New_York", "tzoffset": -5.0, "days": [{"datetime": "2020-01-04", "datetimeEpoch": 1578114000, "tempmax": 7.2, "tempmin": -0.6, "temp": 3.4, "feelslikemax": 5.0, "feelslikemin": -6.6, "feelslike": -0.2, "dew": 2.0, "humidity": 90.77, "precip": 6.28, "precipprob": null, "precipcover": 58.33, "preciptype": null, "snow": 0.0, "snowdepth": 0.0, "windgust": 40.7, "windspeed": 27.7, "winddir": 297.9, "pressure": 1009.2, "cloudcover": 99.5, "visibility": 6.6, "solarradiation": 35.6, "solarenergy": 1.3, "sunrise": "07:50:41", "sunriseEpoch": 1578142241, "sunset": "17:10:41", "sunsetEpoch": 1578175841, "moonphase": 0.31, "conditions": "Rain, Overcast", "icon": "rain", "stations": ["72430314813", "KCAK", "KBJJ", "KAKR", "72521014895", "KPOV"], "source": "obs", "hours": null}], "stations": {"72430314813": {"distance": 13640.0, "latitude": 41.038, "longitude": -81.464, "useCount": 0, "id": "72430314813", "name": "AKRON FULTON INTERNATIONAL AIRPORT, OH US", "quality": 100, "contribution": 0.0}, "KCAK": {"distance": 1114.0, "latitude": 40.92, "longitude": -81.43, "useCount": 0, "id": "KCAK", "name": "KCAK", "quality": 100, "contribution": 0.0}, "KBJJ": {"distance": 37369.0, "latitude": 40.86, "longitude": -81.88, "useCount": 0, "id": "KBJJ", "name": "KBJJ", "quality": 100, "contribution": 0.0}, "KAKR": {"distance": 13808.0, "latitude": 41.04, "longitude": -81.45, "useCount": 0, "id": "KAKR", "name": "KAKR", "quality": 100, "contribution": 0.0}, "72521014895": {"distance": 248.0, "latitude": 40.918, "longitude": -81.443, "useCount": 0, "id": "72521014895", "name": "AKRON CANTON AIRPORT, OH US", "quality": 100, "contribution": 0.0}, "KPOV": {"distance": 36478.0, "latitude": 41.21, "longitude": -81.25, "useCount": 0, "id": "KPOV", "name": "KPOV", "quality": 98, "contribution": 0.0}}}