{"queryCost": 1, "latitude": 40.916099548339844, "longitude": -81.44219970703125, "resolvedAddress": "40.916099548339844, -81.44219970703125", "address": "40.916099548339844, -81.44219970703125", "timezone": "America/New_York", "tzoffset": -5.0, "days": [{"datetime": "2020-01-06", "datetimeEpoch": 1578286800, "tempmax": 5.7, "tempmin": 0.0, "temp": 2.9, "feelslikemax": 1.5, "feelslikemin": -3.9, "feelslike": -1.5, "dew": -3.4, "humidity": 63.37, "precip": 0.0, "precipprob": null, "precipcover": 4.17, "preciptype": null, "snow": 0.0, "snowdepth": 0.0, "windgust": 44.6, "windspeed": 29.5, "winddir": 260.0, "pressure": 1017.7, "cloudcover": 67.5, "visibility": 16.0, "solarradiation": 182.4, "solarenergy": 6.6, "sunrise": "07:50:38", "sunriseEpoch": 1578315038, "sunset": "17:12:33", "sunsetEpoch": 1578348753, "moonphase": 0.4, "conditions": "Partially cloudy", "icon": "partly-cloudy-day", "stations": ["72430314813", "KCAK", "KBJJ", "KAKR", "72521014895", "KPOV"], "source": "obs", "hours": null}], "stations": {"72430314813": {"distance": 13640.0, "latitude": 41.038, "longitude": -81.464, "useCount": 0, "id": "72430314813", "name": "AKRON FULTON INTERNATIONAL AIRPORT, OH US", "quality": 100, "contribution": 0.0}, "KCAK": {"distance": 1114.0, "latitude": 40.92, "longitude": -81.43, "useCount": 0, "id": "KCAK", "name": "KCAK", "quality": 100, "contribution": 0.0}, "KBJJ": {"distance": 37369.0, "latitude": 40.86, "longitude": -81.88, "useCount": 0, "id": "KBJJ", "name": "KBJJ", "quality": 100, "contribution": 0.0}, "KAKR": {"distance": 13808.0, "latitude": 41.04, "longitude": -81.45, "useCount": 0, "id": "KAKR", "name": "KAKR", "quality": 100, "contribution": 0.0}, "72521014895": {"distance": 248.0, "latitude": 40.918, "longitude": -81.443, "useCount": 0, "id": "72521014895", "name": "AKRON CANTON AIRPORT, OH US", "quality": 100, "contribution": 0.0}, "KPOV": {"distance": 36478.0, "latitude": 41.21, "longitude": -81.25, "useCount": 0, "id": "KPOV", "name": "KPOV", "quality": 98, "contribution": 0.0}}}