{"queryCost": 1, "latitude": 35.035301208496094, "longitude": -85.20379638671875, "resolvedAddress": "35.035301208496094, -85.20379638671875", "address": "35.035301208496094, -85.20379638671875", "timezone": "America/New_York", "tzoffset": -5.0, "days": [{"datetime": "2019-12-12", "datetimeEpoch": 1576126800, "tempmax": 12.8, "tempmin": -2.2, "temp": 4.5, "feelslikemax": 12.8, "feelslikemin": -4.2, "feelslike": 3.9, "dew": -1.7, "humidity": 69.8, "precip": 0.3, "precipprob": null, "precipcover": 12.5, "preciptype": null, "snow": 0.0, "snowdepth": 0.0, "windgust": 40.7, "windspeed": 18.4, "winddir": 130.0, "pressure": 1031.3, "cloudcover": 53.4, "visibility": 15.7, "solarradiation": 215.0, "solarenergy": 7.7, "sunrise": "07:39:24", "sunriseEpoch": 1576154364, "sunset": "17:29:32", "sunsetEpoch": 1576189772, "moonphase": 0.5, "conditions": "Rain, Partially cloudy", "icon": "rain", "stations": ["A0001363847", "KCHA", "KRMG", "72320093801", "72324013882", "KMMI"], "source": "obs", "hours": null}], "stations": {"A0001363847": {"distance": 78401.0, "latitude": 34.474, "longitude": -85.721, "useCount": 0, "id": "A0001363847", "name": "FORT PAYNE ISBELL FIELD, AL US", "quality": 100, "contribution": 0.0}, "KCHA": {"distance": 684.0, "latitude": 35.03, "longitude": -85.2, "useCount": 0, "id": "KCHA", "name": "KCHA", "quality": 100, "contribution": 0.0}, "KRMG": {"distance": 76350.0, "latitude": 34.35, "longitude": -85.17, "useCount": 0, "id": "KRMG", "name": "KRMG", "quality": 100, "contribution": 0.0}, "72320093801": {"distance": 76632.0, "latitude": 34.348, "longitude": -85.161, "useCount": 0, "id": "72320093801", "name": "ROME R B RUSSELL AIRPORT, GA US", "quality": 100, "contribution": 0.0}, "72324013882": {"distance": 363.0, "latitude": 35.034, "longitude": -85.2, "useCount": 0, "id": "72324013882", "name": "CHATTANOOGA AIRPORT, TN US", "quality": 100, "contribution": 0.0}, "KMMI": {"distance": 70502.0, "latitude": 35.4, "longitude": -84.57, "useCount": 0, "id": "KMMI", "name": "KMMI", "quality": 100, "contribution": 0.0}}}