{"queryCost": 1, "latitude": 35.035301208496094, "longitude": -85.20379638671875, "resolvedAddress": "35.035301208496094, -85.20379638671875", "address": "35.035301208496094, -85.20379638671875", "timezone": "America/New_York", "tzoffset": -5.0, "days": [{"datetime": "2020-01-02", "datetimeEpoch": 1577941200, "tempmax": 10.6, "tempmin": 6.7, "temp": 8.5, "feelslikemax": 10.6, "feelslikemin": 5.8, "feelslike": 8.2, "dew": 4.5, "humidity": 78.09, "precip": 38.32, "precipprob": null, "precipcover": 70.83, "preciptype": null, "snow": 0.0, "snowdepth": 0.0, "windgust": null, "windspeed": 11.2, "winddir": 111.8, "pressure": 1013.9, "cloudcover": 95.4, "visibility": 9.6, "solarradiation": 31.2, "solarenergy": 1.1, "sunrise": "07:49:08", "sunriseEpoch": 1577969348, "sunset": "17:40:27", "sunsetEpoch": 1578004827, "moonphase": 0.22, "conditions": "Rain, Overcast", "icon": "rain", "stations": ["A0001363847", "KCHA", "KRMG", "72320093801", "72324013882", "KMMI"], "source": "obs", "hours": null}], "stations": {"A0001363847": {"distance": 78401.0, "latitude": 34.474, "longitude": -85.721, "useCount": 0, "id": "A0001363847", "name": "FORT PAYNE ISBELL FIELD, AL US", "quality": 100, "contribution": 0.0}, "KCHA": {"distance": 684.0, "latitude": 35.03, "longitude": -85.2, "useCount": 0, "id": "KCHA", "name": "KCHA", "quality": 100, "contribution": 0.0}, "KRMG": {"distance": 76350.0, "latitude": 34.35, "longitude": -85.17, "useCount": 0, "id": "KRMG", "name": "KRMG", "quality": 100, "contribution": 0.0}, "72320093801": {"distance": 76632.0, "latitude": 34.348, "longitude": -85.161, "useCount": 0, "id": "72320093801", "name": "ROME R B RUSSELL AIRPORT, GA US", "quality": 100, "contribution": 0.0}, "72324013882": {"distance": 363.0, "latitude": 35.034, "longitude": -85.2, "useCount": 0, "id": "72324013882", "name": "CHATTANOOGA AIRPORT, TN US", "quality": 100, "contribution": 0.0}, "KMMI": {"distance": 70502.0, "latitude": 35.4, "longitude": -84.57, "useCount": 0, "id": "KMMI", "name": "KMMI", "quality": 100, "contribution": 0.0}}}