{"queryCost": 1, "latitude": 38.13859939575195, "longitude": -78.4529037475586, "resolvedAddress": "38.13859939575195, -78.4529037475586", "address": "38.13859939575195, -78.4529037475586", "timezone": "America/New_York", "tzoffset": -4.0, "days": [{"datetime": "2018-08-05", "datetimeEpoch": 1533441600, "tempmax": 33.3, "tempmin": 22.2, "temp": 27.3, "feelslikemax": 37.1, "feelslikemin": 22.2, "feelslike": 28.8, "dew": 21.5, "humidity": 72.75, "precip": 0.0, "precipprob": null, "precipcover": 0.0, "preciptype": null, "snow": 0.0, "snowdepth": 0.0, "windgust": null, "windspeed": 9.4, "winddir": 69.3, "pressure": 1021.2, "cloudcover": 25.3, "visibility": 13.9, "solarradiation": 407.1, "solarenergy": 22.0, "sunrise": "06:19:57", "sunriseEpoch": 1533464397, "sunset": "20:19:05", "sunsetEpoch": 1533514745, "moonphase": 0.79, "conditions": "Partially cloudy", "icon": "partly-cloudy-day", "stations": ["99999903759", "KGVE", "72216703718", "KCHO", "KOMH", "72401693736"], "source": "obs", "hours": null}], "stations": {"99999903759": {"distance": 15746.0, "latitude": 37.998, "longitude": -78.466, "useCount": 0, "id": "99999903759", "name": "CHARLOTTESVILLE 2 SSE, VA US", "quality": 100, "contribution": 0.0}, "KGVE": {"distance": 25675.0, "latitude": 38.15, "longitude": -78.16, "useCount": 0, "id": "KGVE", "name": "KGVE", "quality": 99, "contribution": 0.0}, "72216703718": {"distance": 37619.0, "latitude": 38.247, "longitude": -78.046, "useCount": 0, "id": "72216703718", "name": "ORANGE CO AIRPORT, VA US", "quality": 100, "contribution": 0.0}, "KCHO": {"distance": 990.0, "latitude": 38.13, "longitude": -78.45, "useCount": 0, "id": "KCHO", "name": "KCHO", "quality": 100, "contribution": 0.0}, "KOMH": {"distance": 37367.0, "latitude": 38.25, "longitude": -78.05, "useCount": 0, "id": "KOMH", "name": "KOMH", "quality": 99, "contribution": 0.0}, "72401693736": {"distance": 241.0, "latitude": 38.137, "longitude": -78.455, "useCount": 0, "id": "72401693736", "name": "CHARLOTTESVILLE ALBEMARLE AIRPORT, VA US", "quality": 100, "contribution": 0.0}}}