{"queryCost": 1, "latitude": 41.884700775146484, "longitude": -91.71080017089844, "resolvedAddress": "41.884700775146484, -91.71080017089844", "address": "41.884700775146484, -91.71080017089844", "timezone": "America/Chicago", "tzoffset": -5.0, "days": [{"datetime": "2018-09-23", "datetimeEpoch": 1537678800, "tempmax": 22.9, "tempmin": 7.9, "temp": 14.9, "feelslikemax": 22.9, "feelslikemin": 6.2, "feelslike": 14.6, "dew": 9.8, "humidity": 74.6, "precip": 0.0, "precipprob": null, "precipcover": 0.0, "preciptype": null, "snow": 0.0, "snowdepth": 0.0, "windgust": 25.9, "windspeed": 18.4, "winddir": 126.3, "pressure": 1019.0, "cloudcover": 0.0, "visibility": 16.0, "solarradiation": null, "solarenergy": null, "sunrise": "06:55:16", "sunriseEpoch": 1537703716, "sunset": "19:02:20", "sunsetEpoch": 1537747340, "moonphase": 0.49, "conditions": "Clear", "icon": "clear-day", "stations": ["KCID", "72546214937", "KIOW", "72545014990", "KMXO", "72547504953"], "source": "obs", "hours": null}], "stations": {"KCID": {"distance": 1037.0, "latitude": 41.88, "longitude": -91.7, "useCount": 0, "id": "KCID", "name": "KCID", "quality": 100, "contribution": 0.0}, "72546214937": {"distance": 31309.0, "latitude": 41.633, "longitude": -91.543, "useCount": 0, "id": "72546214937", "name": "IOWA CITY MUNICIPAL AIRPORT, IA US", "quality": 100, "contribution": 0.0}, "KIOW": {"distance": 30336.0, "latitude": 41.64, "longitude": -91.55, "useCount": 0, "id": "KIOW", "name": "KIOW", "quality": 100, "contribution": 0.0}, "72545014990": {"distance": 505.0, "latitude": 41.883, "longitude": -91.717, "useCount": 0, "id": "72545014990", "name": "CEDAR RAPIDS MUNICIPAL AIRPORT, IA US", "quality": 100, "contribution": 0.0}, "KMXO": {"distance": 58953.0, "latitude": 42.23, "longitude": -91.17, "useCount": 0, "id": "KMXO", "name": "KMXO", "quality": 99, "contribution": 0.0}, "72547504953": {"distance": 58792.0, "latitude": 42.224, "longitude": -91.166, "useCount": 0, "id": "72547504953", "name": "MONTICELLO MUNICIPAL AIRPORT, IA US", "quality": 100, "contribution": 0.0}}}