{"queryCost": 1, "latitude": 41.884700775146484, "longitude": -91.71080017089844, "resolvedAddress": "41.884700775146484, -91.71080017089844", "address": "41.884700775146484, -91.71080017089844", "timezone": "America/Chicago", "tzoffset": -6.0, "days": [{"datetime": "2020-01-02", "datetimeEpoch": 1577944800, "tempmax": 7.9, "tempmin": 0.0, "temp": 3.4, "feelslikemax": 5.9, "feelslikemin": -4.5, "feelslike": -0.4, "dew": 0.7, "humidity": 82.64, "precip": 0.0, "precipprob": null, "precipcover": 0.0, "preciptype": null, "snow": 0.0, "snowdepth": 0.0, "windgust": 29.5, "windspeed": 24.1, "winddir": 250.8, "pressure": 1001.0, "cloudcover": 35.3, "visibility": 15.3, "solarradiation": 276.0, "solarenergy": 10.9, "sunrise": "07:34:42", "sunriseEpoch": 1577972082, "sunset": "16:46:58", "sunsetEpoch": 1578005218, "moonphase": 0.22, "conditions": "Partially cloudy", "icon": "partly-cloudy-day", "stations": ["KCID", "72546214937", "KIOW", "72545014990", "KMXO", "72547504953"], "source": "obs", "hours": null}], "stations": {"KCID": {"distance": 1037.0, "latitude": 41.88, "longitude": -91.7, "useCount": 0, "id": "KCID", "name": "KCID", "quality": 100, "contribution": 0.0}, "72546214937": {"distance": 31309.0, "latitude": 41.633, "longitude": -91.543, "useCount": 0, "id": "72546214937", "name": "IOWA CITY MUNICIPAL AIRPORT, IA US", "quality": 100, "contribution": 0.0}, "KIOW": {"distance": 30336.0, "latitude": 41.64, "longitude": -91.55, "useCount": 0, "id": "KIOW", "name": "KIOW", "quality": 100, "contribution": 0.0}, "72545014990": {"distance": 505.0, "latitude": 41.883, "longitude": -91.717, "useCount": 0, "id": "72545014990", "name": "CEDAR RAPIDS MUNICIPAL AIRPORT, IA US", "quality": 100, "contribution": 0.0}, "KMXO": {"distance": 58953.0, "latitude": 42.23, "longitude": -91.17, "useCount": 0, "id": "KMXO", "name": "KMXO", "quality": 99, "contribution": 0.0}, "72547504953": {"distance": 58792.0, "latitude": 42.224, "longitude": -91.166, "useCount": 0, "id": "72547504953", "name": "MONTICELLO MUNICIPAL AIRPORT, IA US", "quality": 100, "contribution": 0.0}}}