{"queryCost": 1, "latitude": 46.25080108642578, "longitude": -84.47239685058594, "resolvedAddress": "46.25080108642578, -84.47239685058594", "address": "46.25080108642578, -84.47239685058594", "timezone": "America/Detroit", "tzoffset": -5.0, "days": [{"datetime": "2020-01-03", "datetimeEpoch": 1578027600, "tempmax": 1.2, "tempmin": -2.8, "temp": -1.3, "feelslikemax": -2.2, "feelslikemin": -7.7, "feelslike": -5.4, "dew": -2.6, "humidity": 91.02, "precip": 0.3, "precipprob": null, "precipcover": 8.33, "preciptype": null, "snow": 0.0, "snowdepth": 17.92, "windgust": 40.7, "windspeed": 22.3, "winddir": 283.3, "pressure": 1007.6, "cloudcover": 89.7, "visibility": 13.1, "solarradiation": 49.1, "solarenergy": 1.6, "sunrise": "08:20:53", "sunriseEpoch": 1578057653, "sunset": "17:03:51", "sunsetEpoch": 1578089031, "moonphase": 0.26, "conditions": "Snow, Overcast", "icon": "snow", "stations": ["KMCD", "72743554820", "KANJ", "72734014847", "KCIU", "72734404869"], "source": "obs", "hours": null}], "stations": {"KMCD": {"distance": 45390.0, "latitude": 45.86, "longitude": -84.64, "useCount": 0, "id": "KMCD", "name": "KMCD", "quality": 100, "contribution": 0.0}, "72743554820": {"distance": 44794.0, "latitude": 45.865, "longitude": -84.637, "useCount": 0, "id": "72743554820", "name": "MACKINAC ISLAND AIRPORT, MI US", "quality": 100, "contribution": 0.0}, "KANJ": {"distance": 26936.0, "latitude": 46.48, "longitude": -84.36, "useCount": 0, "id": "KANJ", "name": "KANJ", "quality": 100, "contribution": 0.0}, "72734014847": {"distance": 26942.0, "latitude": 46.479, "longitude": -84.357, "useCount": 0, "id": "72734014847", "name": "SAULT STE MARIE SANDERSON FIELD, MI US", "quality": 100, "contribution": 0.0}, "KCIU": {"distance": 205.0, "latitude": 46.25, "longitude": -84.47, "useCount": 0, "id": "KCIU", "name": "CHIPPEWA,MI", "quality": 100, "contribution": 0.0}, "72734404869": {"distance": 448.0, "latitude": 46.25, "longitude": -84.467, "useCount": 0, "id": "72734404869", "name": "CHIPPEWA INTERNATIONAL AIRPORT, MI US", "quality": 99, "contribution": 0.0}}}