{"queryCost": 1, "latitude": 39.2966003418, "longitude": -80.2281036377, "resolvedAddress": "39.2966003418, -80.2281036377", "address": "39.2966003418, -80.2281036377", "timezone": "America/New_York", "tzoffset": -5.0, "days": [{"datetime": "2018-12-03", "datetimeEpoch": 1543813200, "tempmax": 15.6, "tempmin": 3.8, "temp": 7.5, "feelslikemax": 15.6, "feelslikemin": 0.7, "feelslike": 5.0, "dew": 1.0, "humidity": 64.72, "precip": 0.5, "precipprob": null, "precipcover": 25.0, "preciptype": null, "snow": 0.0, "snowdepth": 0.0, "windgust": 44.6, "windspeed": 25.9, "winddir": 262.1, "pressure": 1009.6, "cloudcover": 83.3, "visibility": 16.0, "solarradiation": null, "solarenergy": null, "sunrise": "07:23:38", "sunriseEpoch": 1543839818, "sunset": "16:57:44", "sunsetEpoch": 1543874264, "moonphase": 0.93, "conditions": "Rain, Overcast", "icon": "rain", "stations": ["72417613736", "KMGW", "KCKB", "KEKN", "72417503802", "72417013729"], "source": "obs", "hours": null}], "stations": {"72417613736": {"distance": 46933.0, "latitude": 39.643, "longitude": -79.916, "useCount": 0, "id": "72417613736", "name": "MORGANTOWN HART FIELD, WV US", "quality": 100, "contribution": 0.0}, "KMGW": {"distance": 47419.0, "latitude": 39.65, "longitude": -79.92, "useCount": 0, "id": "KMGW", "name": "KMGW", "quality": 100, "contribution": 0.0}, "KCKB": {"distance": 1014.0, "latitude": 39.29, "longitude": -80.22, "useCount": 0, "id": "KCKB", "name": "KCKB", "quality": 100, "contribution": 0.0}, "KEKN": {"distance": 57229.0, "latitude": 38.88, "longitude": -79.84, "useCount": 0, "id": "KEKN", "name": "KEKN", "quality": 100, "contribution": 0.0}, "72417503802": {"distance": 131.0, "latitude": 39.296, "longitude": -80.229, "useCount": 0, "id": "72417503802", "name": "CLARKSBURG BENEDUM AIRPORT, WV US", "quality": 99, "contribution": 0.0}, "72417013729": {"distance": 55557.0, "latitude": 38.89, "longitude": -79.855, "useCount": 0, "id": "72417013729", "name": "ELKINS RANDOLPH CO AIRPORT, WV US", "quality": 100, "contribution": 0.0}}}