{"queryCost": 1, "latitude": 41.4117012024, "longitude": -81.8498001099, "resolvedAddress": "41.4117012024, -81.8498001099", "address": "41.4117012024, -81.8498001099", "timezone": "America/New_York", "tzoffset": -4.0, "days": [{"datetime": "2019-09-02", "datetimeEpoch": 1567396800, "tempmax": 26.1, "tempmin": 18.9, "temp": 21.5, "feelslikemax": 26.1, "feelslikemin": 18.9, "feelslike": 21.5, "dew": 17.1, "humidity": 77.77, "precip": 0.8, "precipprob": null, "precipcover": 12.5, "preciptype": null, "snow": 0.0, "snowdepth": 0.0, "windgust": null, "windspeed": 16.6, "winddir": 269.0, "pressure": 1018.2, "cloudcover": 80.7, "visibility": 14.7, "solarradiation": 317.7, "solarenergy": 16.0, "sunrise": "06:54:21", "sunriseEpoch": 1567421661, "sunset": "19:59:09", "sunsetEpoch": 1567468749, "moonphase": 0.07, "conditions": "Rain, Overcast", "icon": "rain", "stations": ["KLPR", "KCLE", "72521404849", "72524014820", "72524504853", "KBKL"], "source": "obs", "hours": null}], "stations": {"KLPR": {"distance": 28714.0, "latitude": 41.34, "longitude": -82.18, "useCount": 0, "id": "KLPR", "name": "KLPR", "quality": 100, "contribution": 0.0}, "KCLE": {"distance": 1923.0, "latitude": 41.42, "longitude": -81.87, "useCount": 0, "id": "KCLE", "name": "KCLE", "quality": 100, "contribution": 0.0}, "72521404849": {"distance": 28483.0, "latitude": 41.346, "longitude": -82.179, "useCount": 0, "id": "72521404849", "name": "ELYRIA LORAIN CO AIRPORT, OH US", "quality": 100, "contribution": 0.0}, "72524014820": {"distance": 693.0, "latitude": 41.406, "longitude": -81.852, "useCount": 0, "id": "72524014820", "name": "CLEVELAND HOPKINS INTERNATIONAL AIRPORT, OH US", "quality": 100, "contribution": 0.0}, "72524504853": {"distance": 18191.0, "latitude": 41.518, "longitude": -81.684, "useCount": 0, "id": "72524504853", "name": "CLEVELAND BURKE LAKEFRONT AIRPORT, OH US", "quality": 100, "contribution": 0.0}, "KBKL": {"distance": 18600.0, "latitude": 41.52, "longitude": -81.68, "useCount": 0, "id": "KBKL", "name": "KBKL", "quality": 100, "contribution": 0.0}}}