{"queryCost": 1, "latitude": 41.4117012024, "longitude": -81.8498001099, "resolvedAddress": "41.4117012024, -81.8498001099", "address": "41.4117012024, -81.8498001099", "timezone": "America/New_York", "tzoffset": -4.0, "days": [{"datetime": "2018-10-03", "datetimeEpoch": 1538539200, "tempmax": 28.3, "tempmin": 14.4, "temp": 21.4, "feelslikemax": 30.4, "feelslikemin": 14.4, "feelslike": 21.7, "dew": 16.9, "humidity": 76.5, "precip": 0.0, "precipprob": null, "precipcover": 0.0, "preciptype": null, "snow": 0.0, "snowdepth": 0.0, "windgust": 44.6, "windspeed": 29.5, "winddir": 131.5, "pressure": 1017.5, "cloudcover": 76.9, "visibility": 16.0, "solarradiation": 263.4, "solarenergy": 12.3, "sunrise": "07:26:12", "sunriseEpoch": 1538565972, "sunset": "19:05:53", "sunsetEpoch": 1538607953, "moonphase": 0.82, "conditions": "Overcast", "icon": "cloudy", "stations": ["KLPR", "KCLE", "72521404849", "72524014820", "72524504853", "KBKL"], "source": "obs", "hours": null}], "stations": {"KLPR": {"distance": 28714.0, "latitude": 41.34, "longitude": -82.18, "useCount": 0, "id": "KLPR", "name": "KLPR", "quality": 100, "contribution": 0.0}, "KCLE": {"distance": 1923.0, "latitude": 41.42, "longitude": -81.87, "useCount": 0, "id": "KCLE", "name": "KCLE", "quality": 100, "contribution": 0.0}, "72521404849": {"distance": 28483.0, "latitude": 41.346, "longitude": -82.179, "useCount": 0, "id": "72521404849", "name": "ELYRIA LORAIN CO AIRPORT, OH US", "quality": 100, "contribution": 0.0}, "72524014820": {"distance": 693.0, "latitude": 41.406, "longitude": -81.852, "useCount": 0, "id": "72524014820", "name": "CLEVELAND HOPKINS INTERNATIONAL AIRPORT, OH US", "quality": 100, "contribution": 0.0}, "72524504853": {"distance": 18191.0, "latitude": 41.518, "longitude": -81.684, "useCount": 0, "id": "72524504853", "name": "CLEVELAND BURKE LAKEFRONT AIRPORT, OH US", "quality": 100, "contribution": 0.0}, "KBKL": {"distance": 18600.0, "latitude": 41.52, "longitude": -81.68, "useCount": 0, "id": "KBKL", "name": "KBKL", "quality": 100, "contribution": 0.0}}}