{"queryCost": 1, "latitude": 30.58860016, "longitude": -96.36380005, "resolvedAddress": "30.58860016, -96.36380005", "address": "30.58860016, -96.36380005", "timezone": "America/Chicago", "tzoffset": -6.0, "days": [{"datetime": "2020-01-05", "datetimeEpoch": 1578204000, "tempmax": 23.8, "tempmin": 6.7, "temp": 14.7, "feelslikemax": 23.8, "feelslikemin": 4.8, "feelslike": 14.3, "dew": 3.6, "humidity": 50.75, "precip": 0.0, "precipprob": null, "precipcover": 0.0, "preciptype": null, "snow": 0.0, "snowdepth": 0.0, "windgust": 35.3, "windspeed": 29.5, "winddir": 198.7, "pressure": 1025.2, "cloudcover": 0.0, "visibility": 16.0, "solarradiation": 432.9, "solarenergy": 17.1, "sunrise": "07:23:30", "sunriseEpoch": 1578230610, "sunset": "17:38:08", "sunsetEpoch": 1578267488, "moonphase": 0.36, "conditions": "Clear", "icon": "clear-day", "stations": ["99999900438", "74746003904", "KCFD", "KRWV", "KCLL", "72376123901"], "source": "obs", "hours": null}], "stations": {"99999900438": {"distance": 14526.0, "latitude": 30.716, "longitude": -96.331, "useCount": 0, "id": "99999900438", "name": null, "quality": 98, "contribution": 0.0}, "74746003904": {"distance": 109.0, "latitude": 30.589, "longitude": -96.365, "useCount": 0, "id": "74746003904", "name": "COLLEGE STATION EASTERWOOD FIELD, TX US", "quality": 100, "contribution": 0.0}, "KCFD": {"distance": 14981.0, "latitude": 30.72, "longitude": -96.33, "useCount": 0, "id": "KCFD", "name": "KCFD", "quality": 100, "contribution": 0.0}, "KRWV": {"distance": 33121.0, "latitude": 30.52, "longitude": -96.7, "useCount": 0, "id": "KRWV", "name": "KRWV", "quality": 100, "contribution": 0.0}, "KCLL": {"distance": 1127.0, "latitude": 30.58, "longitude": -96.37, "useCount": 0, "id": "KCLL", "name": "KCLL", "quality": 100, "contribution": 0.0}, "72376123901": {"distance": 33629.0, "latitude": 30.516, "longitude": -96.704, "useCount": 0, "id": "72376123901", "name": "CALDWELL MUNICIPAL AIRPORT, TX US", "quality": 100, "contribution": 0.0}}}