{"queryCost": 1, "latitude": 35.2140007019043, "longitude": -80.94309997558594, "resolvedAddress": "35.2140007019043, -80.94309997558594", "address": "35.2140007019043, -80.94309997558594", "timezone": "America/New_York", "tzoffset": -5.0, "days": [{"datetime": "2019-02-10", "datetimeEpoch": 1549774800, "tempmax": 6.1, "tempmin": 1.2, "temp": 3.6, "feelslikemax": 4.7, "feelslikemin": -2.6, "feelslike": 1.0, "dew": -7.2, "humidity": 46.8, "precip": 0.3, "precipprob": null, "precipcover": 8.33, "preciptype": null, "snow": 0.0, "snowdepth": 0.0, "windgust": null, "windspeed": 18.3, "winddir": 144.3, "pressure": 1035.0, "cloudcover": 81.6, "visibility": 15.5, "solarradiation": 89.0, "solarenergy": 3.8, "sunrise": "07:15:20", "sunriseEpoch": 1549800920, "sunset": "18:01:07", "sunsetEpoch": 1549839667, "moonphase": 0.13, "conditions": "Rain, Overcast", "icon": "rain", "stations": ["KAKH", "72314753870", "72311753871", "KUZA", "KCLT", "72314013881"], "source": "obs", "hours": null}], "stations": {"KAKH": {"distance": 18883.0, "latitude": 35.2, "longitude": -81.15, "useCount": 0, "id": "KAKH", "name": "KAKH", "quality": 100, "contribution": 0.0}, "72314753870": {"distance": 19442.0, "latitude": 35.197, "longitude": -81.156, "useCount": 0, "id": "72314753870", "name": "GASTONIA MUNICIPAL AIRPORT, NC US", "quality": 100, "contribution": 0.0}, "72311753871": {"distance": 27344.0, "latitude": 34.987, "longitude": -81.057, "useCount": 0, "id": "72311753871", "name": "ROCK HILL YORK CO AIRPORT, SC US", "quality": 100, "contribution": 0.0}, "KUZA": {"distance": 27113.0, "latitude": 34.99, "longitude": -81.06, "useCount": 0, "id": "KUZA", "name": "KUZA", "quality": 100, "contribution": 0.0}, "KCLT": {"distance": 916.0, "latitude": 35.22, "longitude": -80.95, "useCount": 0, "id": "KCLT", "name": "KCLT", "quality": 100, "contribution": 0.0}, "72314013881": {"distance": 1534.0, "latitude": 35.224, "longitude": -80.955, "useCount": 0, "id": "72314013881", "name": "CHARLOTTE DOUGLAS AIRPORT, NC US", "quality": 100, "contribution": 0.0}}}