{"queryCost": 1, "latitude": 35.2140007019043, "longitude": -80.94309997558594, "resolvedAddress": "35.2140007019043, -80.94309997558594", "address": "35.2140007019043, -80.94309997558594", "timezone": "America/New_York", "tzoffset": -4.0, "days": [{"datetime": "2019-08-16", "datetimeEpoch": 1565928000, "tempmax": 34.4, "tempmin": 21.7, "temp": 28.1, "feelslikemax": 37.9, "feelslikemin": 21.7, "feelslike": 30.0, "dew": 20.8, "humidity": 66.33, "precip": 0.0, "precipprob": null, "precipcover": 4.17, "preciptype": null, "snow": 0.0, "snowdepth": 0.0, "windgust": null, "windspeed": 18.3, "winddir": 175.5, "pressure": 1013.8, "cloudcover": 29.2, "visibility": 15.8, "solarradiation": 365.9, "solarenergy": 18.4, "sunrise": "06:44:01", "sunriseEpoch": 1565952241, "sunset": "20:11:35", "sunsetEpoch": 1566000695, "moonphase": 0.51, "conditions": "Partially cloudy", "icon": "partly-cloudy-day", "stations": ["KAKH", "72314753870", "72311753871", "KUZA", "KCLT", "72314013881"], "source": "obs", "hours": null}], "stations": {"KAKH": {"distance": 18883.0, "latitude": 35.2, "longitude": -81.15, "useCount": 0, "id": "KAKH", "name": "KAKH", "quality": 100, "contribution": 0.0}, "72314753870": {"distance": 19442.0, "latitude": 35.197, "longitude": -81.156, "useCount": 0, "id": "72314753870", "name": "GASTONIA MUNICIPAL AIRPORT, NC US", "quality": 100, "contribution": 0.0}, "72311753871": {"distance": 27344.0, "latitude": 34.987, "longitude": -81.057, "useCount": 0, "id": "72311753871", "name": "ROCK HILL YORK CO AIRPORT, SC US", "quality": 100, "contribution": 0.0}, "KUZA": {"distance": 27113.0, "latitude": 34.99, "longitude": -81.06, "useCount": 0, "id": "KUZA", "name": "KUZA", "quality": 100, "contribution": 0.0}, "KCLT": {"distance": 916.0, "latitude": 35.22, "longitude": -80.95, "useCount": 0, "id": "KCLT", "name": "KCLT", "quality": 100, "contribution": 0.0}, "72314013881": {"distance": 1534.0, "latitude": 35.224, "longitude": -80.955, "useCount": 0, "id": "72314013881", "name": "CHARLOTTE DOUGLAS AIRPORT, NC US", "quality": 100, "contribution": 0.0}}}