{"queryCost": 1, "latitude": 35.2140007019043, "longitude": -80.94309997558594, "resolvedAddress": "35.2140007019043, -80.94309997558594", "address": "35.2140007019043, -80.94309997558594", "timezone": "America/New_York", "tzoffset": -4.0, "days": [{"datetime": "2019-09-02", "datetimeEpoch": 1567396800, "tempmax": 32.2, "tempmin": 20.0, "temp": 26.2, "feelslikemax": 33.3, "feelslikemin": 20.0, "feelslike": 26.7, "dew": 18.8, "humidity": 66.34, "precip": 0.0, "precipprob": null, "precipcover": 0.0, "preciptype": null, "snow": 0.0, "snowdepth": 0.0, "windgust": null, "windspeed": 16.5, "winddir": 125.7, "pressure": 1017.5, "cloudcover": 28.7, "visibility": 15.9, "solarradiation": 350.9, "solarenergy": 17.7, "sunrise": "06:56:47", "sunriseEpoch": 1567421807, "sunset": "19:49:38", "sunsetEpoch": 1567468178, "moonphase": 0.07, "conditions": "Partially cloudy", "icon": "partly-cloudy-day", "stations": ["KAKH", "72314753870", "72311753871", "KUZA", "KCLT", "72314013881"], "source": "obs", "hours": null}], "stations": {"KAKH": {"distance": 18883.0, "latitude": 35.2, "longitude": -81.15, "useCount": 0, "id": "KAKH", "name": "KAKH", "quality": 100, "contribution": 0.0}, "72314753870": {"distance": 19442.0, "latitude": 35.197, "longitude": -81.156, "useCount": 0, "id": "72314753870", "name": "GASTONIA MUNICIPAL AIRPORT, NC US", "quality": 100, "contribution": 0.0}, "72311753871": {"distance": 27344.0, "latitude": 34.987, "longitude": -81.057, "useCount": 0, "id": "72311753871", "name": "ROCK HILL YORK CO AIRPORT, SC US", "quality": 100, "contribution": 0.0}, "KUZA": {"distance": 27113.0, "latitude": 34.99, "longitude": -81.06, "useCount": 0, "id": "KUZA", "name": "KUZA", "quality": 100, "contribution": 0.0}, "KCLT": {"distance": 916.0, "latitude": 35.22, "longitude": -80.95, "useCount": 0, "id": "KCLT", "name": "KCLT", "quality": 100, "contribution": 0.0}, "72314013881": {"distance": 1534.0, "latitude": 35.224, "longitude": -80.955, "useCount": 0, "id": "72314013881", "name": "CHARLOTTE DOUGLAS AIRPORT, NC US", "quality": 100, "contribution": 0.0}}}