{"queryCost": 1, "latitude": 35.2140007019043, "longitude": -80.94309997558594, "resolvedAddress": "35.2140007019043, -80.94309997558594", "address": "35.2140007019043, -80.94309997558594", "timezone": "America/New_York", "tzoffset": -5.0, "days": [{"datetime": "2018-11-06", "datetimeEpoch": 1541480400, "tempmax": 21.7, "tempmin": 13.4, "temp": 18.3, "feelslikemax": 21.7, "feelslikemin": 13.4, "feelslike": 18.3, "dew": 17.0, "humidity": 93.17, "precip": 12.04, "precipprob": null, "precipcover": 45.83, "preciptype": null, "snow": 0.0, "snowdepth": 0.0, "windgust": 46.4, "windspeed": 33.4, "winddir": 177.5, "pressure": 1014.4, "cloudcover": 82.4, "visibility": 10.5, "solarradiation": null, "solarenergy": null, "sunrise": "06:49:52", "sunriseEpoch": 1541504992, "sunset": "17:24:27", "sunsetEpoch": 1541543067, "moonphase": 1.0, "conditions": "Rain, Overcast", "icon": "rain", "stations": ["KAKH", "72314753870", "72311753871", "KUZA", "KCLT", "72314013881"], "source": "obs", "hours": null}], "stations": {"KAKH": {"distance": 18883.0, "latitude": 35.2, "longitude": -81.15, "useCount": 0, "id": "KAKH", "name": "KAKH", "quality": 100, "contribution": 0.0}, "72314753870": {"distance": 19442.0, "latitude": 35.197, "longitude": -81.156, "useCount": 0, "id": "72314753870", "name": "GASTONIA MUNICIPAL AIRPORT, NC US", "quality": 100, "contribution": 0.0}, "72311753871": {"distance": 27344.0, "latitude": 34.987, "longitude": -81.057, "useCount": 0, "id": "72311753871", "name": "ROCK HILL YORK CO AIRPORT, SC US", "quality": 100, "contribution": 0.0}, "KUZA": {"distance": 27113.0, "latitude": 34.99, "longitude": -81.06, "useCount": 0, "id": "KUZA", "name": "KUZA", "quality": 100, "contribution": 0.0}, "KCLT": {"distance": 916.0, "latitude": 35.22, "longitude": -80.95, "useCount": 0, "id": "KCLT", "name": "KCLT", "quality": 100, "contribution": 0.0}, "72314013881": {"distance": 1534.0, "latitude": 35.224, "longitude": -80.955, "useCount": 0, "id": "72314013881", "name": "CHARLOTTE DOUGLAS AIRPORT, NC US", "quality": 100, "contribution": 0.0}}}