{"queryCost": 1, "latitude": 35.2140007019043, "longitude": -80.94309997558594, "resolvedAddress": "35.2140007019043, -80.94309997558594", "address": "35.2140007019043, -80.94309997558594", "timezone": "America/New_York", "tzoffset": -5.0, "days": [{"datetime": "2019-12-15", "datetimeEpoch": 1576386000, "tempmax": 15.6, "tempmin": 0.7, "temp": 8.1, "feelslikemax": 15.6, "feelslikemin": -1.8, "feelslike": 7.3, "dew": 1.8, "humidity": 66.97, "precip": 0.0, "precipprob": null, "precipcover": 0.0, "preciptype": null, "snow": 0.0, "snowdepth": 0.0, "windgust": 25.9, "windspeed": 20.5, "winddir": 230.8, "pressure": 1017.7, "cloudcover": 4.4, "visibility": 16.0, "solarradiation": 191.4, "solarenergy": 8.3, "sunrise": "07:24:54", "sunriseEpoch": 1576412694, "sunset": "17:12:49", "sunsetEpoch": 1576447969, "moonphase": 0.56, "conditions": "Clear", "icon": "clear-day", "stations": ["KAKH", "72314753870", "72311753871", "KUZA", "KCLT", "72314013881"], "source": "obs", "hours": null}], "stations": {"KAKH": {"distance": 18883.0, "latitude": 35.2, "longitude": -81.15, "useCount": 0, "id": "KAKH", "name": "KAKH", "quality": 100, "contribution": 0.0}, "72314753870": {"distance": 19442.0, "latitude": 35.197, "longitude": -81.156, "useCount": 0, "id": "72314753870", "name": "GASTONIA MUNICIPAL AIRPORT, NC US", "quality": 100, "contribution": 0.0}, "72311753871": {"distance": 27344.0, "latitude": 34.987, "longitude": -81.057, "useCount": 0, "id": "72311753871", "name": "ROCK HILL YORK CO AIRPORT, SC US", "quality": 100, "contribution": 0.0}, "KUZA": {"distance": 27113.0, "latitude": 34.99, "longitude": -81.06, "useCount": 0, "id": "KUZA", "name": "KUZA", "quality": 100, "contribution": 0.0}, "KCLT": {"distance": 916.0, "latitude": 35.22, "longitude": -80.95, "useCount": 0, "id": "KCLT", "name": "KCLT", "quality": 100, "contribution": 0.0}, "72314013881": {"distance": 1534.0, "latitude": 35.224, "longitude": -80.955, "useCount": 0, "id": "72314013881", "name": "CHARLOTTE DOUGLAS AIRPORT, NC US", "quality": 100, "contribution": 0.0}}}