{"queryCost": 1, "latitude": 39.998001, "longitude": -82.891899, "resolvedAddress": "39.998001, -82.891899", "address": "39.998001, -82.891899", "timezone": "America/New_York", "tzoffset": -5.0, "days": [{"datetime": "2019-11-19", "datetimeEpoch": 1574139600, "tempmax": 7.9, "tempmin": 3.3, "temp": 5.0, "feelslikemax": 7.2, "feelslikemin": 1.5, "feelslike": 3.3, "dew": 0.5, "humidity": 73.38, "precip": 0.0, "precipprob": null, "precipcover": 0.0, "preciptype": null, "snow": 0.0, "snowdepth": 0.0, "windgust": null, "windspeed": 16.5, "winddir": 202.1, "pressure": 1010.4, "cloudcover": 79.2, "visibility": 13.6, "solarradiation": 171.7, "solarenergy": 6.2, "sunrise": "07:21:04", "sunriseEpoch": 1574166064, "sunset": "17:12:24", "sunsetEpoch": 1574201544, "moonphase": 0.73, "conditions": "Overcast", "icon": "cloudy", "stations": ["KCMH", "KOSU", "KLHQ", "72428804804", "72429453844", "72428014821"], "source": "obs", "hours": null}], "stations": {"KCMH": {"distance": 1039.0, "latitude": 40.0, "longitude": -82.88, "useCount": 0, "id": "KCMH", "name": "KCMH", "quality": 100, "contribution": 0.0}, "KOSU": {"distance": 17712.0, "latitude": 40.08, "longitude": -83.07, "useCount": 0, "id": "KOSU", "name": "KOSU", "quality": 100, "contribution": 0.0}, "KLHQ": {"distance": 33082.0, "latitude": 39.76, "longitude": -82.66, "useCount": 0, "id": "KLHQ", "name": "KLHQ", "quality": 100, "contribution": 0.0}, "72428804804": {"distance": 18203.0, "latitude": 40.078, "longitude": -83.078, "useCount": 0, "id": "72428804804", "name": "COLUMBUS OHIO STATE UNIVERSITY AIRPORT, OH US", "quality": 100, "contribution": 0.0}, "72429453844": {"distance": 33618.0, "latitude": 39.756, "longitude": -82.657, "useCount": 0, "id": "72429453844", "name": "LANCASTER FAIRFIELD CO AIRPORT, OH US", "quality": 100, "contribution": 0.0}, "72428014821": {"distance": 1508.0, "latitude": 39.991, "longitude": -82.877, "useCount": 0, "id": "72428014821", "name": "PORT COLUMBUS INTERNATIONAL AIRPORT, OH US", "quality": 100, "contribution": 0.0}}}