{"queryCost": 1, "latitude": 39.998001, "longitude": -82.891899, "resolvedAddress": "39.998001, -82.891899", "address": "39.998001, -82.891899", "timezone": "America/New_York", "tzoffset": -5.0, "days": [{"datetime": "2019-02-03", "datetimeEpoch": 1549170000, "tempmax": 13.8, "tempmin": -4.3, "temp": 3.6, "feelslikemax": 13.8, "feelslikemin": -4.3, "feelslike": 3.3, "dew": -0.2, "humidity": 78.57, "precip": 0.0, "precipprob": null, "precipcover": 0.0, "preciptype": null, "snow": 0.0, "snowdepth": 8.68, "windgust": null, "windspeed": 14.7, "winddir": 109.5, "pressure": 1017.6, "cloudcover": 53.1, "visibility": 12.2, "solarradiation": 232.7, "solarenergy": 9.2, "sunrise": "07:38:20", "sunriseEpoch": 1549197500, "sunset": "17:52:55", "sunsetEpoch": 1549234375, "moonphase": 1.0, "conditions": "Partially cloudy", "icon": "partly-cloudy-day", "stations": ["KCMH", "KOSU", "KLHQ", "72428804804", "72429453844", "72428014821"], "source": "obs", "hours": null}], "stations": {"KCMH": {"distance": 1039.0, "latitude": 40.0, "longitude": -82.88, "useCount": 0, "id": "KCMH", "name": "KCMH", "quality": 100, "contribution": 0.0}, "KOSU": {"distance": 17712.0, "latitude": 40.08, "longitude": -83.07, "useCount": 0, "id": "KOSU", "name": "KOSU", "quality": 100, "contribution": 0.0}, "KLHQ": {"distance": 33082.0, "latitude": 39.76, "longitude": -82.66, "useCount": 0, "id": "KLHQ", "name": "KLHQ", "quality": 100, "contribution": 0.0}, "72428804804": {"distance": 18203.0, "latitude": 40.078, "longitude": -83.078, "useCount": 0, "id": "72428804804", "name": "COLUMBUS OHIO STATE UNIVERSITY AIRPORT, OH US", "quality": 100, "contribution": 0.0}, "72429453844": {"distance": 33618.0, "latitude": 39.756, "longitude": -82.657, "useCount": 0, "id": "72429453844", "name": "LANCASTER FAIRFIELD CO AIRPORT, OH US", "quality": 100, "contribution": 0.0}, "72428014821": {"distance": 1508.0, "latitude": 39.991, "longitude": -82.877, "useCount": 0, "id": "72428014821", "name": "PORT COLUMBUS INTERNATIONAL AIRPORT, OH US", "quality": 100, "contribution": 0.0}}}