{"queryCost": 1, "latitude": 39.998001, "longitude": -82.891899, "resolvedAddress": "39.998001, -82.891899", "address": "39.998001, -82.891899", "timezone": "America/New_York", "tzoffset": -5.0, "days": [{"datetime": "2019-11-23", "datetimeEpoch": 1574485200, "tempmax": 6.1, "tempmin": -3.3, "temp": 1.4, "feelslikemax": 3.5, "feelslikemin": -4.2, "feelslike": -0.9, "dew": -1.4, "humidity": 82.34, "precip": 3.38, "precipprob": null, "precipcover": 25.0, "preciptype": null, "snow": 0.0, "snowdepth": 0.0, "windgust": 33.5, "windspeed": 24.1, "winddir": 100.4, "pressure": 1010.1, "cloudcover": 79.0, "visibility": 13.8, "solarradiation": 97.1, "solarenergy": 3.8, "sunrise": "07:25:33", "sunriseEpoch": 1574511933, "sunset": "17:10:00", "sunsetEpoch": 1574547000, "moonphase": 0.94, "conditions": "Rain, Overcast", "icon": "rain", "stations": ["KCMH", "KOSU", "KLHQ", "72428804804", "72429453844", "72428014821"], "source": "obs", "hours": null}], "stations": {"KCMH": {"distance": 1039.0, "latitude": 40.0, "longitude": -82.88, "useCount": 0, "id": "KCMH", "name": "KCMH", "quality": 100, "contribution": 0.0}, "KOSU": {"distance": 17712.0, "latitude": 40.08, "longitude": -83.07, "useCount": 0, "id": "KOSU", "name": "KOSU", "quality": 100, "contribution": 0.0}, "KLHQ": {"distance": 33082.0, "latitude": 39.76, "longitude": -82.66, "useCount": 0, "id": "KLHQ", "name": "KLHQ", "quality": 100, "contribution": 0.0}, "72428804804": {"distance": 18203.0, "latitude": 40.078, "longitude": -83.078, "useCount": 0, "id": "72428804804", "name": "COLUMBUS OHIO STATE UNIVERSITY AIRPORT, OH US", "quality": 100, "contribution": 0.0}, "72429453844": {"distance": 33618.0, "latitude": 39.756, "longitude": -82.657, "useCount": 0, "id": "72429453844", "name": "LANCASTER FAIRFIELD CO AIRPORT, OH US", "quality": 100, "contribution": 0.0}, "72428014821": {"distance": 1508.0, "latitude": 39.991, "longitude": -82.877, "useCount": 0, "id": "72428014821", "name": "PORT COLUMBUS INTERNATIONAL AIRPORT, OH US", "quality": 100, "contribution": 0.0}}}