{"queryCost": 1, "latitude": 39.998001, "longitude": -82.891899, "resolvedAddress": "39.998001, -82.891899", "address": "39.998001, -82.891899", "timezone": "America/New_York", "tzoffset": -5.0, "days": [{"datetime": "2019-02-18", "datetimeEpoch": 1550466000, "tempmax": -0.6, "tempmin": -5.0, "temp": -1.9, "feelslikemax": -5.5, "feelslikemin": -9.4, "feelslike": -6.9, "dew": -4.5, "humidity": 82.82, "precip": 0.3, "precipprob": null, "precipcover": 4.17, "preciptype": null, "snow": 0.0, "snowdepth": 0.0, "windgust": 33.5, "windspeed": 22.3, "winddir": 297.8, "pressure": 1022.4, "cloudcover": 84.6, "visibility": 12.4, "solarradiation": 82.5, "solarenergy": 3.3, "sunrise": "07:20:46", "sunriseEpoch": 1550492446, "sunset": "18:10:47", "sunsetEpoch": 1550531447, "moonphase": 0.49, "conditions": "Snow, Overcast", "icon": "snow", "stations": ["KCMH", "KOSU", "KLHQ", "72428804804", "72429453844", "72428014821"], "source": "obs", "hours": null}], "stations": {"KCMH": {"distance": 1039.0, "latitude": 40.0, "longitude": -82.88, "useCount": 0, "id": "KCMH", "name": "KCMH", "quality": 100, "contribution": 0.0}, "KOSU": {"distance": 17712.0, "latitude": 40.08, "longitude": -83.07, "useCount": 0, "id": "KOSU", "name": "KOSU", "quality": 100, "contribution": 0.0}, "KLHQ": {"distance": 33082.0, "latitude": 39.76, "longitude": -82.66, "useCount": 0, "id": "KLHQ", "name": "KLHQ", "quality": 100, "contribution": 0.0}, "72428804804": {"distance": 18203.0, "latitude": 40.078, "longitude": -83.078, "useCount": 0, "id": "72428804804", "name": "COLUMBUS OHIO STATE UNIVERSITY AIRPORT, OH US", "quality": 100, "contribution": 0.0}, "72429453844": {"distance": 33618.0, "latitude": 39.756, "longitude": -82.657, "useCount": 0, "id": "72429453844", "name": "LANCASTER FAIRFIELD CO AIRPORT, OH US", "quality": 100, "contribution": 0.0}, "72428014821": {"distance": 1508.0, "latitude": 39.991, "longitude": -82.877, "useCount": 0, "id": "72428014821", "name": "PORT COLUMBUS INTERNATIONAL AIRPORT, OH US", "quality": 100, "contribution": 0.0}}}