{"queryCost": 1, "latitude": 47.168399810791016, "longitude": -88.48909759521484, "resolvedAddress": "47.168399810791016, -88.48909759521484", "address": "47.168399810791016, -88.48909759521484", "timezone": "America/Detroit", "tzoffset": -5.0, "days": [{"datetime": "2020-01-04", "datetimeEpoch": 1578114000, "tempmax": -1.1, "tempmin": -3.8, "temp": -2.6, "feelslikemax": -2.1, "feelslikemin": -9.1, "feelslike": -7.0, "dew": -6.1, "humidity": 77.24, "precip": 0.0, "precipprob": null, "precipcover": 0.0, "preciptype": null, "snow": 0.0, "snowdepth": 50.17, "windgust": 42.4, "windspeed": 31.7, "winddir": 299.2, "pressure": 1013.9, "cloudcover": 99.6, "visibility": 15.5, "solarradiation": null, "solarenergy": null, "sunrise": "08:40:22", "sunriseEpoch": 1578145222, "sunset": "17:17:25", "sunsetEpoch": 1578176245, "moonphase": 0.31, "conditions": "Overcast", "icon": "wind", "stations": ["KCMX", "99798899999", "72538794899", "99817699999", "72744014858", "KP59"], "source": "obs", "hours": null}], "stations": {"KCMX": {"distance": 844.0, "latitude": 47.17, "longitude": -88.5, "useCount": 0, "id": "KCMX", "name": "KCMX", "quality": 100, "contribution": 0.0}, "99798899999": {"distance": 70515.0, "latitude": 46.817, "longitude": -87.717, "useCount": 0, "id": "99798899999", "name": "BIG BAY, MI US", "quality": 49, "contribution": 0.0}, "72538794899": {"distance": 56505.0, "latitude": 47.467, "longitude": -87.883, "useCount": 0, "id": "72538794899", "name": "COPPER HARBOR, MI US", "quality": 100, "contribution": 0.0}, "99817699999": {"distance": 19427.0, "latitude": 47.183, "longitude": -88.233, "useCount": 0, "id": "99817699999", "name": "SUPERIOR GRAND TRAVERSE BAY, MI US", "quality": 39, "contribution": 0.0}, "72744014858": {"distance": 27.0, "latitude": 47.169, "longitude": -88.489, "useCount": 0, "id": "72744014858", "name": "HANCOCK HOUGHTON CO AIRPORT, MI US", "quality": 100, "contribution": 0.0}, "KP59": {"distance": 56921.0, "latitude": 47.47, "longitude": -87.88, "useCount": 0, "id": "KP59", "name": "KP59", "quality": 99, "contribution": 0.0}}}