{"queryCost": 1, "latitude": 47.168399810791016, "longitude": -88.48909759521484, "resolvedAddress": "47.168399810791016, -88.48909759521484", "address": "47.168399810791016, -88.48909759521484", "timezone": "America/Detroit", "tzoffset": -4.0, "days": [{"datetime": "2018-06-18", "datetimeEpoch": 1529294400, "tempmax": 23.8, "tempmin": 13.9, "temp": 19.1, "feelslikemax": 23.8, "feelslikemin": 13.9, "feelslike": 19.1, "dew": 13.8, "humidity": 75.21, "precip": 0.3, "precipprob": null, "precipcover": 16.67, "preciptype": null, "snow": 0.0, "snowdepth": 0.0, "windgust": 27.1, "windspeed": 22.3, "winddir": 237.5, "pressure": 1014.2, "cloudcover": 32.5, "visibility": 12.8, "solarradiation": null, "solarenergy": null, "sunrise": "05:57:44", "sunriseEpoch": 1529315864, "sunset": "21:52:38", "sunsetEpoch": 1529373158, "moonphase": 0.14, "conditions": "Rain, Partially cloudy", "icon": "rain", "stations": ["KCMX", "99798899999", "72538794899", "99817699999", "72744014858", "KP59"], "source": "obs", "hours": null}], "stations": {"KCMX": {"distance": 844.0, "latitude": 47.17, "longitude": -88.5, "useCount": 0, "id": "KCMX", "name": "KCMX", "quality": 100, "contribution": 0.0}, "99798899999": {"distance": 70515.0, "latitude": 46.817, "longitude": -87.717, "useCount": 0, "id": "99798899999", "name": "BIG BAY, MI US", "quality": 49, "contribution": 0.0}, "72538794899": {"distance": 56505.0, "latitude": 47.467, "longitude": -87.883, "useCount": 0, "id": "72538794899", "name": "COPPER HARBOR, MI US", "quality": 100, "contribution": 0.0}, "99817699999": {"distance": 19427.0, "latitude": 47.183, "longitude": -88.233, "useCount": 0, "id": "99817699999", "name": "SUPERIOR GRAND TRAVERSE BAY, MI US", "quality": 39, "contribution": 0.0}, "72744014858": {"distance": 27.0, "latitude": 47.169, "longitude": -88.489, "useCount": 0, "id": "72744014858", "name": "HANCOCK HOUGHTON CO AIRPORT, MI US", "quality": 100, "contribution": 0.0}, "KP59": {"distance": 56921.0, "latitude": 47.47, "longitude": -87.88, "useCount": 0, "id": "KP59", "name": "KP59", "quality": 99, "contribution": 0.0}}}