{"queryCost": 1, "latitude": 27.77039909362793, "longitude": -97.5011978149414, "resolvedAddress": "27.77039909362793, -97.5011978149414", "address": "27.77039909362793, -97.5011978149414", "timezone": "America/Chicago", "tzoffset": -6.0, "days": [{"datetime": "2020-01-02", "datetimeEpoch": 1577944800, "tempmax": 17.2, "tempmin": 13.9, "temp": 15.6, "feelslikemax": 17.2, "feelslikemin": 13.9, "feelslike": 15.6, "dew": 14.6, "humidity": 93.98, "precip": 1.6, "precipprob": null, "precipcover": 16.67, "preciptype": null, "snow": 0.0, "snowdepth": 0.0, "windgust": 37.1, "windspeed": 27.7, "winddir": 211.7, "pressure": 1005.1, "cloudcover": 44.4, "visibility": 15.4, "solarradiation": 38.5, "solarenergy": 1.5, "sunrise": "07:21:14", "sunriseEpoch": 1577971274, "sunset": "17:46:44", "sunsetEpoch": 1578008804, "moonphase": 0.22, "conditions": "Rain, Partially cloudy", "icon": "rain", "stations": ["KCRP", "72200812995", "72251012924", "72251512926", "KRAS", "KNGP"], "source": "obs", "hours": null}], "stations": {"KCRP": {"distance": 126.0, "latitude": 27.77, "longitude": -97.5, "useCount": 0, "id": "KCRP", "name": "KCRP", "quality": 100, "contribution": 0.0}, "72200812995": {"distance": 40894.0, "latitude": 27.812, "longitude": -97.089, "useCount": 0, "id": "72200812995", "name": "PORT ARANSAS MUSTANG BEACH AIRPORT, TX US", "quality": 100, "contribution": 0.0}, "72251012924": {"distance": 1163.0, "latitude": 27.774, "longitude": -97.512, "useCount": 0, "id": "72251012924", "name": "CORPUS CHRISTI INTERNATIONAL AIRPORT, TX US", "quality": 100, "contribution": 0.0}, "72251512926": {"distance": 23559.0, "latitude": 27.683, "longitude": -97.283, "useCount": 0, "id": "72251512926", "name": "CORPUS CHRISTI NAS, TX US", "quality": 100, "contribution": 0.0}, "KRAS": {"distance": 40734.0, "latitude": 27.81, "longitude": -97.09, "useCount": 0, "id": "KRAS", "name": "KRAS", "quality": 100, "contribution": 0.0}, "KNGP": {"distance": 23161.0, "latitude": 27.7, "longitude": -97.28, "useCount": 0, "id": "KNGP", "name": "KNGP", "quality": 99, "contribution": 0.0}}}