{"queryCost": 1, "latitude": 39.048801, "longitude": -84.667801, "resolvedAddress": "39.048801, -84.667801", "address": "39.048801, -84.667801", "timezone": "America/New_York", "tzoffset": -4.0, "days": [{"datetime": "2019-08-30", "datetimeEpoch": 1567137600, "tempmax": 30.6, "tempmin": 18.9, "temp": 23.9, "feelslikemax": 32.6, "feelslikemin": 18.9, "feelslike": 24.2, "dew": 17.4, "humidity": 68.06, "precip": 0.02, "precipprob": null, "precipcover": 16.67, "preciptype": null, "snow": 0.0, "snowdepth": 0.0, "windgust": 73.8, "windspeed": 24.1, "winddir": 187.0, "pressure": 1017.6, "cloudcover": 70.5, "visibility": 16.0, "solarradiation": 320.9, "solarenergy": 16.2, "sunrise": "07:05:22", "sunriseEpoch": 1567163122, "sunset": "20:12:38", "sunsetEpoch": 1567210358, "moonphase": 0.0, "conditions": "Rain, Partially cloudy", "icon": "rain", "stations": ["KLUK", "72421093814", "KHAO", "KCVG", "72429793812", "KI67"], "source": "obs", "hours": null}], "stations": {"KLUK": {"distance": 22161.0, "latitude": 39.1, "longitude": -84.42, "useCount": 0, "id": "KLUK", "name": "KLUK", "quality": 100, "contribution": 0.0}, "72421093814": {"distance": 631.0, "latitude": 39.044, "longitude": -84.672, "useCount": 0, "id": "72421093814", "name": "CINCINNATI NORTHERN KENTUCKY INTERNATIONAL AIRPORT, KY US", "quality": 100, "contribution": 0.0}, "KHAO": {"distance": 36914.0, "latitude": 39.36, "longitude": -84.52, "useCount": 0, "id": "KHAO", "name": "KHAO", "quality": 100, "contribution": 0.0}, "KCVG": {"distance": 998.0, "latitude": 39.04, "longitude": -84.67, "useCount": 0, "id": "KCVG", "name": "KCVG", "quality": 100, "contribution": 0.0}, "72429793812": {"distance": 22349.0, "latitude": 39.103, "longitude": -84.419, "useCount": 0, "id": "72429793812", "name": "CINCINNATI MUNICIPAL AIRPORT LUNKEN FIELD, OH US", "quality": 100, "contribution": 0.0}, "KI67": {"distance": 24402.0, "latitude": 39.25, "longitude": -84.78, "useCount": 0, "id": "KI67", "name": "KI67", "quality": 99, "contribution": 0.0}}}