{"queryCost": 1, "latitude": 39.048801, "longitude": -84.667801, "resolvedAddress": "39.048801, -84.667801", "address": "39.048801, -84.667801", "timezone": "America/New_York", "tzoffset": -5.0, "days": [{"datetime": "2020-01-04", "datetimeEpoch": 1578114000, "tempmax": 8.4, "tempmin": 0.7, "temp": 4.0, "feelslikemax": 6.8, "feelslikemin": -4.9, "feelslike": -0.4, "dew": 1.7, "humidity": 85.05, "precip": 1.8, "precipprob": null, "precipcover": 54.17, "preciptype": null, "snow": 0.0, "snowdepth": 0.0, "windgust": 47.9, "windspeed": 33.5, "winddir": 292.5, "pressure": 1012.9, "cloudcover": 94.4, "visibility": 10.7, "solarradiation": 30.3, "solarenergy": 1.1, "sunrise": "07:58:05", "sunriseEpoch": 1578142685, "sunset": "17:29:06", "sunsetEpoch": 1578176946, "moonphase": 0.31, "conditions": "Rain, Overcast", "icon": "rain", "stations": ["KLUK", "72421093814", "KHAO", "KCVG", "72429793812", "KI67"], "source": "obs", "hours": null}], "stations": {"KLUK": {"distance": 22161.0, "latitude": 39.1, "longitude": -84.42, "useCount": 0, "id": "KLUK", "name": "KLUK", "quality": 100, "contribution": 0.0}, "72421093814": {"distance": 631.0, "latitude": 39.044, "longitude": -84.672, "useCount": 0, "id": "72421093814", "name": "CINCINNATI NORTHERN KENTUCKY INTERNATIONAL AIRPORT, KY US", "quality": 100, "contribution": 0.0}, "KHAO": {"distance": 36914.0, "latitude": 39.36, "longitude": -84.52, "useCount": 0, "id": "KHAO", "name": "KHAO", "quality": 100, "contribution": 0.0}, "KCVG": {"distance": 998.0, "latitude": 39.04, "longitude": -84.67, "useCount": 0, "id": "KCVG", "name": "KCVG", "quality": 100, "contribution": 0.0}, "72429793812": {"distance": 22349.0, "latitude": 39.103, "longitude": -84.419, "useCount": 0, "id": "72429793812", "name": "CINCINNATI MUNICIPAL AIRPORT LUNKEN FIELD, OH US", "quality": 100, "contribution": 0.0}, "KI67": {"distance": 24402.0, "latitude": 39.25, "longitude": -84.78, "useCount": 0, "id": "KI67", "name": "KI67", "quality": 99, "contribution": 0.0}}}