{"queryCost": 1, "latitude": 39.048801, "longitude": -84.667801, "resolvedAddress": "39.048801, -84.667801", "address": "39.048801, -84.667801", "timezone": "America/New_York", "tzoffset": -5.0, "days": [{"datetime": "2020-01-03", "datetimeEpoch": 1578027600, "tempmax": 11.5, "tempmin": 8.4, "temp": 10.4, "feelslikemax": 11.5, "feelslikemin": 6.3, "feelslike": 10.0, "dew": 9.2, "humidity": 92.54, "precip": 17.21, "precipprob": null, "precipcover": 100.0, "preciptype": null, "snow": 0.0, "snowdepth": 0.0, "windgust": null, "windspeed": 20.5, "winddir": 223.0, "pressure": 1007.2, "cloudcover": 90.4, "visibility": 6.0, "solarradiation": 28.4, "solarenergy": 1.0, "sunrise": "07:58:01", "sunriseEpoch": 1578056281, "sunset": "17:28:14", "sunsetEpoch": 1578090494, "moonphase": 0.26, "conditions": "Rain, Overcast", "icon": "rain", "stations": ["KLUK", "72421093814", "KHAO", "KCVG", "72429793812", "KI67"], "source": "obs", "hours": null}], "stations": {"KLUK": {"distance": 22161.0, "latitude": 39.1, "longitude": -84.42, "useCount": 0, "id": "KLUK", "name": "KLUK", "quality": 100, "contribution": 0.0}, "72421093814": {"distance": 631.0, "latitude": 39.044, "longitude": -84.672, "useCount": 0, "id": "72421093814", "name": "CINCINNATI NORTHERN KENTUCKY INTERNATIONAL AIRPORT, KY US", "quality": 100, "contribution": 0.0}, "KHAO": {"distance": 36914.0, "latitude": 39.36, "longitude": -84.52, "useCount": 0, "id": "KHAO", "name": "KHAO", "quality": 100, "contribution": 0.0}, "KCVG": {"distance": 998.0, "latitude": 39.04, "longitude": -84.67, "useCount": 0, "id": "KCVG", "name": "KCVG", "quality": 100, "contribution": 0.0}, "72429793812": {"distance": 22349.0, "latitude": 39.103, "longitude": -84.419, "useCount": 0, "id": "72429793812", "name": "CINCINNATI MUNICIPAL AIRPORT LUNKEN FIELD, OH US", "quality": 100, "contribution": 0.0}, "KI67": {"distance": 24402.0, "latitude": 39.25, "longitude": -84.78, "useCount": 0, "id": "KI67", "name": "KI67", "quality": 99, "contribution": 0.0}}}