{"queryCost": 1, "latitude": 39.048801, "longitude": -84.667801, "resolvedAddress": "39.048801, -84.667801", "address": "39.048801, -84.667801", "timezone": "America/New_York", "tzoffset": -4.0, "days": [{"datetime": "2018-10-06", "datetimeEpoch": 1538798400, "tempmax": 30.0, "tempmin": 20.6, "temp": 24.6, "feelslikemax": 31.9, "feelslikemin": 20.6, "feelslike": 25.3, "dew": 20.9, "humidity": 81.22, "precip": 0.0, "precipprob": null, "precipcover": 0.0, "preciptype": null, "snow": 0.0, "snowdepth": 0.0, "windgust": 33.5, "windspeed": 24.1, "winddir": 203.3, "pressure": 1017.1, "cloudcover": 47.9, "visibility": 15.7, "solarradiation": 189.6, "solarenergy": 8.2, "sunrise": "07:39:21", "sunriseEpoch": 1538825961, "sunset": "19:13:31", "sunsetEpoch": 1538867611, "moonphase": 0.96, "conditions": "Partially cloudy", "icon": "partly-cloudy-day", "stations": ["KLUK", "72421093814", "KHAO", "KCVG", "72429793812", "KI67"], "source": "obs", "hours": null}], "stations": {"KLUK": {"distance": 22161.0, "latitude": 39.1, "longitude": -84.42, "useCount": 0, "id": "KLUK", "name": "KLUK", "quality": 100, "contribution": 0.0}, "72421093814": {"distance": 631.0, "latitude": 39.044, "longitude": -84.672, "useCount": 0, "id": "72421093814", "name": "CINCINNATI NORTHERN KENTUCKY INTERNATIONAL AIRPORT, KY US", "quality": 100, "contribution": 0.0}, "KHAO": {"distance": 36914.0, "latitude": 39.36, "longitude": -84.52, "useCount": 0, "id": "KHAO", "name": "KHAO", "quality": 100, "contribution": 0.0}, "KCVG": {"distance": 998.0, "latitude": 39.04, "longitude": -84.67, "useCount": 0, "id": "KCVG", "name": "KCVG", "quality": 100, "contribution": 0.0}, "72429793812": {"distance": 22349.0, "latitude": 39.103, "longitude": -84.419, "useCount": 0, "id": "72429793812", "name": "CINCINNATI MUNICIPAL AIRPORT LUNKEN FIELD, OH US", "quality": 100, "contribution": 0.0}, "KI67": {"distance": 24402.0, "latitude": 39.25, "longitude": -84.78, "useCount": 0, "id": "KI67", "name": "KI67", "quality": 99, "contribution": 0.0}}}