{"queryCost": 1, "latitude": 29.179899, "longitude": -81.058098, "resolvedAddress": "29.179899, -81.058098", "address": "29.179899, -81.058098", "timezone": "America/New_York", "tzoffset": -5.0, "days": [{"datetime": "2020-01-07", "datetimeEpoch": 1578373200, "tempmax": 21.1, "tempmin": 6.1, "temp": 13.1, "feelslikemax": 21.1, "feelslikemin": 5.3, "feelslike": 12.9, "dew": 9.0, "humidity": 79.26, "precip": 0.0, "precipprob": null, "precipcover": 0.0, "preciptype": null, "snow": 0.0, "snowdepth": 0.0, "windgust": 33.5, "windspeed": 25.9, "winddir": 206.7, "pressure": 1022.0, "cloudcover": 23.2, "visibility": 16.0, "solarradiation": 393.8, "solarenergy": 17.0, "uvindex": 9.0, "sunrise": "07:19:23", "sunriseEpoch": 1578399563, "sunset": "17:41:33", "sunsetEpoch": 1578436893, "moonphase": 0.44, "conditions": "Clear", "description": "Partly cloudly.", "icon": "clear-day", "stations": ["KFIN", "KDAB", "KDED", "74787012834", "72090400299"], "source": "obs", "hours": null}], "stations": {"KDAB": {"distance": 787.0, "latitude": 29.18, "longitude": -81.05, "useCount": 0, "id": "KDAB", "name": "KDAB", "quality": 100, "contribution": 0.0}, "KFIN": {"distance": 34087.0, "latitude": 29.46, "longitude": -81.2, "useCount": 0, "id": "KFIN", "name": "KFIN", "quality": 98, "contribution": 0.0}, "KDED": {"distance": 25374.0, "latitude": 29.06, "longitude": -81.28, "useCount": 0, "id": "KDED", "name": "KDED", "quality": 96, "contribution": 0.0}, "74787012834": {"distance": 1006.0, "latitude": 29.183, "longitude": -81.048, "useCount": 0, "id": "74787012834", "name": "DAYTONA BEACH INTERNATIONAL AIRPORT, FL US", "quality": 100, "contribution": 0.0}, "72090400299": {"distance": 25225.0, "latitude": 29.067, "longitude": -81.283, "useCount": 0, "id": "72090400299", "name": "DELAND MUNICIPAL AIRPORT SYDNEY H TAYLOR FIELD, FL US", "quality": 100, "contribution": 0.0}}}