{"queryCost": 1, "latitude": 29.179899, "longitude": -81.058098, "resolvedAddress": "29.179899, -81.058098", "address": "29.179899, -81.058098", "timezone": "America/New_York", "tzoffset": -5.0, "days": [{"datetime": "2020-01-01", "datetimeEpoch": 1577854800, "tempmax": 18.3, "tempmin": 9.3, "temp": 12.7, "feelslikemax": 18.3, "feelslikemin": 8.0, "feelslike": 12.4, "dew": 6.4, "humidity": 68.55, "precip": 0.0, "precipprob": null, "precipcover": 0.0, "preciptype": null, "snow": 0.0, "snowdepth": 0.0, "windgust": null, "windspeed": 16.6, "winddir": 212.1, "pressure": 1018.6, "cloudcover": 24.2, "visibility": 16.0, "solarradiation": 444.5, "solarenergy": 17.6, "sunrise": "07:18:18", "sunriseEpoch": 1577881098, "sunset": "17:37:08", "sunsetEpoch": 1577918228, "moonphase": 0.17, "conditions": "Clear", "icon": "clear-day", "stations": ["KFIN", "KDAB", "KDED", "74787012834", "72090400299"], "source": "obs", "hours": null}], "stations": {"KDAB": {"distance": 787.0, "latitude": 29.18, "longitude": -81.05, "useCount": 0, "id": "KDAB", "name": "KDAB", "quality": 100, "contribution": 0.0}, "KFIN": {"distance": 34087.0, "latitude": 29.46, "longitude": -81.2, "useCount": 0, "id": "KFIN", "name": "KFIN", "quality": 98, "contribution": 0.0}, "KDED": {"distance": 25374.0, "latitude": 29.06, "longitude": -81.28, "useCount": 0, "id": "KDED", "name": "KDED", "quality": 96, "contribution": 0.0}, "74787012834": {"distance": 1006.0, "latitude": 29.183, "longitude": -81.048, "useCount": 0, "id": "74787012834", "name": "DAYTONA BEACH INTERNATIONAL AIRPORT, FL US", "quality": 100, "contribution": 0.0}, "72090400299": {"distance": 25225.0, "latitude": 29.067, "longitude": -81.283, "useCount": 0, "id": "72090400299", "name": "DELAND MUNICIPAL AIRPORT SYDNEY H TAYLOR FIELD, FL US", "quality": 100, "contribution": 0.0}}}