{"queryCost": 1, "latitude": 29.179899, "longitude": -81.058098, "resolvedAddress": "29.179899, -81.058098", "address": "29.179899, -81.058098", "timezone": "America/New_York", "tzoffset": -5.0, "days": [{"datetime": "2020-01-03", "datetimeEpoch": 1578027600, "tempmax": 27.2, "tempmin": 19.3, "temp": 22.7, "feelslikemax": 29.4, "feelslikemin": 19.3, "feelslike": 23.1, "dew": 20.5, "humidity": 87.65, "precip": 0.0, "precipprob": null, "precipcover": 0.0, "preciptype": null, "snow": 0.0, "snowdepth": 0.0, "windgust": 31.7, "windspeed": 22.3, "winddir": 186.3, "pressure": 1016.8, "cloudcover": 38.3, "visibility": 15.8, "solarradiation": 327.3, "solarenergy": 13.0, "sunrise": "07:18:46", "sunriseEpoch": 1578053926, "sunset": "17:38:33", "sunsetEpoch": 1578091113, "moonphase": 0.26, "conditions": "Partially cloudy", "icon": "partly-cloudy-day", "stations": ["KFIN", "KDAB", "KDED", "74787012834", "72090400299"], "source": "obs", "hours": null}], "stations": {"KDAB": {"distance": 787.0, "latitude": 29.18, "longitude": -81.05, "useCount": 0, "id": "KDAB", "name": "KDAB", "quality": 100, "contribution": 0.0}, "KFIN": {"distance": 34087.0, "latitude": 29.46, "longitude": -81.2, "useCount": 0, "id": "KFIN", "name": "KFIN", "quality": 98, "contribution": 0.0}, "KDED": {"distance": 25374.0, "latitude": 29.06, "longitude": -81.28, "useCount": 0, "id": "KDED", "name": "KDED", "quality": 96, "contribution": 0.0}, "74787012834": {"distance": 1006.0, "latitude": 29.183, "longitude": -81.048, "useCount": 0, "id": "74787012834", "name": "DAYTONA BEACH INTERNATIONAL AIRPORT, FL US", "quality": 100, "contribution": 0.0}, "72090400299": {"distance": 25225.0, "latitude": 29.067, "longitude": -81.283, "useCount": 0, "id": "72090400299", "name": "DELAND MUNICIPAL AIRPORT SYDNEY H TAYLOR FIELD, FL US", "quality": 100, "contribution": 0.0}}}