{"queryCost": 1, "latitude": 32.847099, "longitude": -96.851799, "resolvedAddress": "32.847099, -96.851799", "address": "32.847099, -96.851799", "timezone": "America/Chicago", "tzoffset": -5.0, "days": [{"datetime": "2018-06-13", "datetimeEpoch": 1528866000, "tempmax": 36.7, "tempmin": 26.7, "temp": 31.6, "feelslikemax": 38.9, "feelslikemin": 28.5, "feelslike": 33.8, "dew": 20.1, "humidity": 52.28, "precip": 0.0, "precipprob": null, "precipcover": 0.0, "preciptype": null, "snow": 0.0, "snowdepth": 0.0, "windgust": 42.5, "windspeed": 25.9, "winddir": 190.7, "pressure": 1014.1, "cloudcover": 62.0, "visibility": 16.0, "solarradiation": 431.2, "solarenergy": 18.6, "sunrise": "06:18:42", "sunriseEpoch": 1528888722, "sunset": "20:36:27", "sunsetEpoch": 1528940187, "moonphase": 1.0, "conditions": "Partially cloudy", "icon": "partly-cloudy-day", "stations": ["KDAL", "72259003927", "72259903971", "KDFW", "KRBD", "72258013960"], "source": "obs", "hours": null}], "stations": {"KDAL": {"distance": 364.0, "latitude": 32.85, "longitude": -96.85, "useCount": 0, "id": "KDAL", "name": "KDAL", "quality": 100, "contribution": 0.0}, "72259003927": {"distance": 16611.0, "latitude": 32.898, "longitude": -97.019, "useCount": 0, "id": "72259003927", "name": "DAL FTW WSCMO AIRPORT, TX US", "quality": 100, "contribution": 0.0}, "72259903971": {"distance": 18575.0, "latitude": 32.681, "longitude": -96.868, "useCount": 0, "id": "72259903971", "name": "DALLAS REDBIRD AIRPORT, TX US", "quality": 99, "contribution": 0.0}, "KDFW": {"distance": 17671.0, "latitude": 32.9, "longitude": -97.03, "useCount": 0, "id": "KDFW", "name": "KDFW", "quality": 100, "contribution": 0.0}, "KRBD": {"distance": 18679.0, "latitude": 32.68, "longitude": -96.87, "useCount": 0, "id": "KRBD", "name": "KRBD", "quality": 99, "contribution": 0.0}, "72258013960": {"distance": 637.0, "latitude": 32.852, "longitude": -96.855, "useCount": 0, "id": "72258013960", "name": "DALLAS FAA AIRPORT, TX US", "quality": 100, "contribution": 0.0}}}