{"queryCost": 1, "latitude": 32.847099, "longitude": -96.851799, "resolvedAddress": "32.847099, -96.851799", "address": "32.847099, -96.851799", "timezone": "America/Chicago", "tzoffset": -5.0, "days": [{"datetime": "2018-05-27", "datetimeEpoch": 1527397200, "tempmax": 35.7, "tempmin": 25.6, "temp": 30.9, "feelslikemax": 39.2, "feelslikemin": 25.6, "feelslike": 33.4, "dew": 21.2, "humidity": 58.15, "precip": 0.0, "precipprob": null, "precipcover": 0.0, "preciptype": null, "snow": 0.0, "snowdepth": 0.0, "windgust": 35.3, "windspeed": 24.1, "winddir": 127.5, "pressure": 1008.5, "cloudcover": 43.0, "visibility": 16.0, "solarradiation": 535.2, "solarenergy": 28.9, "sunrise": "06:21:47", "sunriseEpoch": 1527420107, "sunset": "20:27:43", "sunsetEpoch": 1527470863, "moonphase": 0.48, "conditions": "Partially cloudy", "icon": "partly-cloudy-day", "stations": ["KDAL", "72259003927", "72259903971", "KDFW", "KRBD", "72258013960"], "source": "obs", "hours": null}], "stations": {"KDAL": {"distance": 364.0, "latitude": 32.85, "longitude": -96.85, "useCount": 0, "id": "KDAL", "name": "KDAL", "quality": 100, "contribution": 0.0}, "72259003927": {"distance": 16611.0, "latitude": 32.898, "longitude": -97.019, "useCount": 0, "id": "72259003927", "name": "DAL FTW WSCMO AIRPORT, TX US", "quality": 100, "contribution": 0.0}, "72259903971": {"distance": 18575.0, "latitude": 32.681, "longitude": -96.868, "useCount": 0, "id": "72259903971", "name": "DALLAS REDBIRD AIRPORT, TX US", "quality": 99, "contribution": 0.0}, "KDFW": {"distance": 17671.0, "latitude": 32.9, "longitude": -97.03, "useCount": 0, "id": "KDFW", "name": "KDFW", "quality": 100, "contribution": 0.0}, "KRBD": {"distance": 18679.0, "latitude": 32.68, "longitude": -96.87, "useCount": 0, "id": "KRBD", "name": "KRBD", "quality": 99, "contribution": 0.0}, "72258013960": {"distance": 637.0, "latitude": 32.852, "longitude": -96.855, "useCount": 0, "id": "72258013960", "name": "DALLAS FAA AIRPORT, TX US", "quality": 100, "contribution": 0.0}}}