{"queryCost": 1, "latitude": 32.847099, "longitude": -96.851799, "resolvedAddress": "32.847099, -96.851799", "address": "32.847099, -96.851799", "timezone": "America/Chicago", "tzoffset": -6.0, "days": [{"datetime": "2018-12-02", "datetimeEpoch": 1543730400, "tempmax": 16.1, "tempmin": 8.8, "temp": 12.6, "feelslikemax": 16.1, "feelslikemin": 6.8, "feelslike": 12.3, "dew": 1.7, "humidity": 48.02, "precip": 0.0, "precipprob": null, "precipcover": 0.0, "preciptype": null, "snow": 0.0, "snowdepth": 0.0, "windgust": 35.3, "windspeed": 22.3, "winddir": 273.0, "pressure": 1010.3, "cloudcover": 56.6, "visibility": 15.9, "solarradiation": 271.5, "solarenergy": 12.7, "sunrise": "07:12:56", "sunriseEpoch": 1543756376, "sunset": "17:20:41", "sunsetEpoch": 1543792841, "moonphase": 0.89, "conditions": "Partially cloudy", "icon": "partly-cloudy-day", "stations": ["KDAL", "72259003927", "72259903971", "KDFW", "KRBD", "72258013960"], "source": "obs", "hours": null}], "stations": {"KDAL": {"distance": 364.0, "latitude": 32.85, "longitude": -96.85, "useCount": 0, "id": "KDAL", "name": "KDAL", "quality": 100, "contribution": 0.0}, "72259003927": {"distance": 16611.0, "latitude": 32.898, "longitude": -97.019, "useCount": 0, "id": "72259003927", "name": "DAL FTW WSCMO AIRPORT, TX US", "quality": 100, "contribution": 0.0}, "72259903971": {"distance": 18575.0, "latitude": 32.681, "longitude": -96.868, "useCount": 0, "id": "72259903971", "name": "DALLAS REDBIRD AIRPORT, TX US", "quality": 99, "contribution": 0.0}, "KDFW": {"distance": 17671.0, "latitude": 32.9, "longitude": -97.03, "useCount": 0, "id": "KDFW", "name": "KDFW", "quality": 100, "contribution": 0.0}, "KRBD": {"distance": 18679.0, "latitude": 32.68, "longitude": -96.87, "useCount": 0, "id": "KRBD", "name": "KRBD", "quality": 99, "contribution": 0.0}, "72258013960": {"distance": 637.0, "latitude": 32.852, "longitude": -96.855, "useCount": 0, "id": "72258013960", "name": "DALLAS FAA AIRPORT, TX US", "quality": 100, "contribution": 0.0}}}