{"queryCost": 1, "latitude": 32.847099, "longitude": -96.851799, "resolvedAddress": "32.847099, -96.851799", "address": "32.847099, -96.851799", "timezone": "America/Chicago", "tzoffset": -6.0, "days": [{"datetime": "2018-11-11", "datetimeEpoch": 1541916000, "tempmax": 11.7, "tempmin": 8.3, "temp": 9.6, "feelslikemax": 11.7, "feelslikemin": 4.9, "feelslike": 7.9, "dew": 3.8, "humidity": 67.91, "precip": 1.87, "precipprob": null, "precipcover": 12.5, "preciptype": null, "snow": 0.0, "snowdepth": 0.0, "windgust": 27.7, "windspeed": 25.9, "winddir": 129.2, "pressure": 1020.7, "cloudcover": 99.5, "visibility": 14.8, "solarradiation": 71.5, "solarenergy": 3.1, "sunrise": "06:54:07", "sunriseEpoch": 1541940847, "sunset": "17:28:22", "sunsetEpoch": 1541978902, "moonphase": 0.07, "conditions": "Rain, Overcast", "icon": "rain", "stations": ["KDAL", "72259003927", "72259903971", "KDFW", "KRBD", "72258013960"], "source": "obs", "hours": null}], "stations": {"KDAL": {"distance": 364.0, "latitude": 32.85, "longitude": -96.85, "useCount": 0, "id": "KDAL", "name": "KDAL", "quality": 100, "contribution": 0.0}, "72259003927": {"distance": 16611.0, "latitude": 32.898, "longitude": -97.019, "useCount": 0, "id": "72259003927", "name": "DAL FTW WSCMO AIRPORT, TX US", "quality": 100, "contribution": 0.0}, "72259903971": {"distance": 18575.0, "latitude": 32.681, "longitude": -96.868, "useCount": 0, "id": "72259903971", "name": "DALLAS REDBIRD AIRPORT, TX US", "quality": 99, "contribution": 0.0}, "KDFW": {"distance": 17671.0, "latitude": 32.9, "longitude": -97.03, "useCount": 0, "id": "KDFW", "name": "KDFW", "quality": 100, "contribution": 0.0}, "KRBD": {"distance": 18679.0, "latitude": 32.68, "longitude": -96.87, "useCount": 0, "id": "KRBD", "name": "KRBD", "quality": 99, "contribution": 0.0}, "72258013960": {"distance": 637.0, "latitude": 32.852, "longitude": -96.855, "useCount": 0, "id": "72258013960", "name": "DALLAS FAA AIRPORT, TX US", "quality": 100, "contribution": 0.0}}}