{"queryCost": 1, "latitude": 32.847099, "longitude": -96.851799, "resolvedAddress": "32.847099, -96.851799", "address": "32.847099, -96.851799", "timezone": "America/Chicago", "tzoffset": -6.0, "days": [{"datetime": "2018-03-11", "datetimeEpoch": 1520748000, "tempmax": 21.7, "tempmin": 11.1, "temp": 17.3, "feelslikemax": 21.7, "feelslikemin": 12.2, "feelslike": 17.5, "dew": 4.7, "humidity": 45.75, "precip": 0.0, "precipprob": null, "precipcover": 0.0, "preciptype": null, "snow": 0.0, "snowdepth": 0.0, "windgust": 64.8, "windspeed": 40.7, "winddir": 177.1, "pressure": 1016.1, "cloudcover": 90.0, "visibility": 16.0, "solarradiation": 302.3, "solarenergy": 15.2, "sunrise": "07:42:41", "sunriseEpoch": 1520772161, "sunset": "19:32:28", "sunsetEpoch": 1520814748, "moonphase": 0.85, "conditions": "Overcast", "icon": "wind", "stations": ["KDAL", "72259003927", "72259903971", "KDFW", "KRBD", "72258013960"], "source": "obs", "hours": null}], "stations": {"KDAL": {"distance": 364.0, "latitude": 32.85, "longitude": -96.85, "useCount": 0, "id": "KDAL", "name": "KDAL", "quality": 100, "contribution": 0.0}, "72259003927": {"distance": 16611.0, "latitude": 32.898, "longitude": -97.019, "useCount": 0, "id": "72259003927", "name": "DAL FTW WSCMO AIRPORT, TX US", "quality": 100, "contribution": 0.0}, "72259903971": {"distance": 18575.0, "latitude": 32.681, "longitude": -96.868, "useCount": 0, "id": "72259903971", "name": "DALLAS REDBIRD AIRPORT, TX US", "quality": 99, "contribution": 0.0}, "KDFW": {"distance": 17671.0, "latitude": 32.9, "longitude": -97.03, "useCount": 0, "id": "KDFW", "name": "KDFW", "quality": 100, "contribution": 0.0}, "KRBD": {"distance": 18679.0, "latitude": 32.68, "longitude": -96.87, "useCount": 0, "id": "KRBD", "name": "KRBD", "quality": 99, "contribution": 0.0}, "72258013960": {"distance": 637.0, "latitude": 32.852, "longitude": -96.855, "useCount": 0, "id": "72258013960", "name": "DALLAS FAA AIRPORT, TX US", "quality": 100, "contribution": 0.0}}}