{"queryCost": 1, "latitude": 39.902400970458984, "longitude": -84.21939849853516, "resolvedAddress": "39.902400970458984, -84.21939849853516", "address": "39.902400970458984, -84.21939849853516", "timezone": "America/New_York", "tzoffset": -4.0, "days": [{"datetime": "2018-04-07", "datetimeEpoch": 1523073600, "tempmax": 3.8, "tempmin": -3.8, "temp": -0.4, "feelslikemax": 1.9, "feelslikemin": -10.1, "feelslike": -4.9, "dew": -6.4, "humidity": 65.36, "precip": 0.6, "precipprob": null, "precipcover": 12.5, "preciptype": null, "snow": 0.0, "snowdepth": 0.0, "windgust": 47.9, "windspeed": 25.9, "winddir": 236.5, "pressure": 1018.4, "cloudcover": 91.5, "visibility": 15.0, "solarradiation": null, "solarenergy": null, "sunrise": "07:11:17", "sunriseEpoch": 1523099477, "sunset": "20:07:16", "sunsetEpoch": 1523146036, "moonphase": 0.72, "conditions": "Snow, Overcast", "icon": "snow", "stations": ["72429093815", "KDAY", "74570013840", "72429563888", "KFFO", "KMGY"], "source": "obs", "hours": null}], "stations": {"72429093815": {"distance": 452.0, "latitude": 39.906, "longitude": -84.218, "useCount": 0, "id": "72429093815", "name": "DAYTON INTERNATIONAL AIRPORT, OH US", "quality": 100, "contribution": 0.0}, "KDAY": {"distance": 1678.0, "latitude": 39.9, "longitude": -84.2, "useCount": 0, "id": "KDAY", "name": "KDAY", "quality": 100, "contribution": 0.0}, "74570013840": {"distance": 16391.0, "latitude": 39.833, "longitude": -84.05, "useCount": 0, "id": "74570013840", "name": "DAYTON WRIGHT PATTERSON AFB, OH US", "quality": 100, "contribution": 0.0}, "72429563888": {"distance": 33143.0, "latitude": 39.84, "longitude": -83.84, "useCount": 0, "id": "72429563888", "name": "SPRINGFIELD BECKLEY MUNICIPAL AIRPORT, OH US", "quality": 100, "contribution": 0.0}, "KFFO": {"distance": 16567.0, "latitude": 39.83, "longitude": -84.05, "useCount": 0, "id": "KFFO", "name": "KFFO", "quality": 100, "contribution": 0.0}, "KMGY": {"distance": 33675.0, "latitude": 39.6, "longitude": -84.23, "useCount": 0, "id": "KMGY", "name": "KMGY", "quality": 100, "contribution": 0.0}}}