{"queryCost": 1, "latitude": 39.902400970458984, "longitude": -84.21939849853516, "resolvedAddress": "39.902400970458984, -84.21939849853516", "address": "39.902400970458984, -84.21939849853516", "timezone": "America/New_York", "tzoffset": -4.0, "days": [{"datetime": "2019-09-14", "datetimeEpoch": 1568433600, "tempmax": 27.8, "tempmin": 15.7, "temp": 21.7, "feelslikemax": 27.3, "feelslikemin": 15.7, "feelslike": 21.7, "dew": 13.5, "humidity": 62.2, "precip": 0.0, "precipprob": null, "precipcover": 0.0, "preciptype": null, "snow": 0.0, "snowdepth": 0.0, "windgust": 37.1, "windspeed": 18.3, "winddir": 276.6, "pressure": 1023.2, "cloudcover": 57.3, "visibility": 16.0, "solarradiation": 198.4, "solarenergy": 8.6, "sunrise": "07:16:39", "sunriseEpoch": 1568459799, "sunset": "19:47:39", "sunsetEpoch": 1568504859, "moonphase": 0.5, "conditions": "Partially cloudy", "icon": "partly-cloudy-day", "stations": ["72429093815", "KDAY", "74570013840", "72429563888", "KFFO", "KMGY"], "source": "obs", "hours": null}], "stations": {"72429093815": {"distance": 452.0, "latitude": 39.906, "longitude": -84.218, "useCount": 0, "id": "72429093815", "name": "DAYTON INTERNATIONAL AIRPORT, OH US", "quality": 100, "contribution": 0.0}, "KDAY": {"distance": 1678.0, "latitude": 39.9, "longitude": -84.2, "useCount": 0, "id": "KDAY", "name": "KDAY", "quality": 100, "contribution": 0.0}, "74570013840": {"distance": 16391.0, "latitude": 39.833, "longitude": -84.05, "useCount": 0, "id": "74570013840", "name": "DAYTON WRIGHT PATTERSON AFB, OH US", "quality": 100, "contribution": 0.0}, "72429563888": {"distance": 33143.0, "latitude": 39.84, "longitude": -83.84, "useCount": 0, "id": "72429563888", "name": "SPRINGFIELD BECKLEY MUNICIPAL AIRPORT, OH US", "quality": 100, "contribution": 0.0}, "KFFO": {"distance": 16567.0, "latitude": 39.83, "longitude": -84.05, "useCount": 0, "id": "KFFO", "name": "KFFO", "quality": 100, "contribution": 0.0}, "KMGY": {"distance": 33675.0, "latitude": 39.6, "longitude": -84.23, "useCount": 0, "id": "KMGY", "name": "KMGY", "quality": 100, "contribution": 0.0}}}