{"queryCost": 1, "latitude": 39.902400970458984, "longitude": -84.21939849853516, "resolvedAddress": "39.902400970458984, -84.21939849853516", "address": "39.902400970458984, -84.21939849853516", "timezone": "America/New_York", "tzoffset": -5.0, "days": [{"datetime": "2020-01-07", "datetimeEpoch": 1578373200, "tempmax": 7.9, "tempmin": -1.7, "temp": 2.5, "feelslikemax": 4.9, "feelslikemin": -5.1, "feelslike": 0.0, "dew": -4.9, "humidity": 60.07, "precip": 0.02, "precipprob": null, "precipcover": 16.67, "preciptype": null, "snow": 0.0, "snowdepth": 0.0, "windgust": 35.3, "windspeed": 27.7, "winddir": 216.7, "pressure": 1017.2, "cloudcover": 72.4, "visibility": 16.0, "solarradiation": 91.7, "solarenergy": 3.3, "uvindex": 3.0, "sunrise": "07:58:41", "sunriseEpoch": 1578401921, "sunset": "17:27:36", "sunsetEpoch": 1578436056, "moonphase": 0.44, "conditions": "Rain, Partially cloudy", "description": "Partly cloudly with late afternoon rain.", "icon": "rain", "stations": ["72429093815", "KDAY", "74570013840", "72429563888", "KFFO", "KMGY"], "source": "obs", "hours": null}], "stations": {"72429093815": {"distance": 452.0, "latitude": 39.906, "longitude": -84.218, "useCount": 0, "id": "72429093815", "name": "DAYTON INTERNATIONAL AIRPORT, OH US", "quality": 100, "contribution": 0.0}, "KDAY": {"distance": 1678.0, "latitude": 39.9, "longitude": -84.2, "useCount": 0, "id": "KDAY", "name": "KDAY", "quality": 100, "contribution": 0.0}, "74570013840": {"distance": 16391.0, "latitude": 39.833, "longitude": -84.05, "useCount": 0, "id": "74570013840", "name": "DAYTON WRIGHT PATTERSON AFB, OH US", "quality": 100, "contribution": 0.0}, "72429563888": {"distance": 33143.0, "latitude": 39.84, "longitude": -83.84, "useCount": 0, "id": "72429563888", "name": "SPRINGFIELD BECKLEY MUNICIPAL AIRPORT, OH US", "quality": 100, "contribution": 0.0}, "KFFO": {"distance": 16567.0, "latitude": 39.83, "longitude": -84.05, "useCount": 0, "id": "KFFO", "name": "KFFO", "quality": 100, "contribution": 0.0}, "KMGY": {"distance": 33675.0, "latitude": 39.6, "longitude": -84.23, "useCount": 0, "id": "KMGY", "name": "KMGY", "quality": 100, "contribution": 0.0}}}