{"queryCost": 1, "latitude": 42.40200043, "longitude": -90.70950317, "resolvedAddress": "42.40200043, -90.70950317", "address": "42.40200043, -90.70950317", "timezone": "America/Chicago", "tzoffset": -6.0, "days": [{"datetime": "2020-01-06", "datetimeEpoch": 1578290400, "tempmax": 2.9, "tempmin": -6.1, "temp": -1.6, "feelslikemax": -1.1, "feelslikemin": -11.0, "feelslike": -6.0, "dew": -5.9, "humidity": 73.12, "precip": 0.0, "precipprob": null, "precipcover": 0.0, "preciptype": null, "snow": 0.0, "snowdepth": 0.0, "windgust": 35.3, "windspeed": 20.5, "winddir": 234.6, "pressure": 1020.7, "cloudcover": 22.5, "visibility": 15.4, "solarradiation": null, "solarenergy": null, "sunrise": "07:32:17", "sunriseEpoch": 1578317537, "sunset": "16:45:04", "sunsetEpoch": 1578350704, "moonphase": 0.4, "conditions": "Clear", "icon": "clear-day", "stations": ["KPVB", "72058600183", "KMXO", "KDBQ", "72547504953", "72547094908"], "source": "obs", "hours": null}], "stations": {"KPVB": {"distance": 38941.0, "latitude": 42.69, "longitude": -90.44, "useCount": 0, "id": "KPVB", "name": "KPVB", "quality": 99, "contribution": 0.0}, "72058600183": {"distance": 37835.0, "latitude": 42.683, "longitude": -90.45, "useCount": 0, "id": "72058600183", "name": "PLATTEVILLE MUNICIPAL AIRPORT, WI US", "quality": 100, "contribution": 0.0}, "KMXO": {"distance": 42467.0, "latitude": 42.23, "longitude": -91.17, "useCount": 0, "id": "KMXO", "name": "KMXO", "quality": 99, "contribution": 0.0}, "KDBQ": {"distance": 812.0, "latitude": 42.4, "longitude": -90.7, "useCount": 0, "id": "KDBQ", "name": "KDBQ", "quality": 100, "contribution": 0.0}, "72547504953": {"distance": 42458.0, "latitude": 42.224, "longitude": -91.166, "useCount": 0, "id": "72547504953", "name": "MONTICELLO MUNICIPAL AIRPORT, IA US", "quality": 100, "contribution": 0.0}, "72547094908": {"distance": 674.0, "latitude": 42.398, "longitude": -90.704, "useCount": 0, "id": "72547094908", "name": "DUBUQUE REGIONAL AIRPORT, IA US", "quality": 100, "contribution": 0.0}}}