{"queryCost": 1, "latitude": 38.8521, "longitude": -77.037697, "resolvedAddress": "38.8521, -77.037697", "address": "38.8521, -77.037697", "timezone": "America/New_York", "tzoffset": -4.0, "days": [{"datetime": "2018-07-07", "datetimeEpoch": 1530936000, "tempmax": 27.8, "tempmin": 20.6, "temp": 24.2, "feelslikemax": 27.8, "feelslikemin": 20.6, "feelslike": 24.2, "dew": 11.8, "humidity": 46.18, "precip": 0.0, "precipprob": null, "precipcover": 0.0, "preciptype": null, "snow": 0.0, "snowdepth": 0.0, "windgust": 50.0, "windspeed": 29.5, "winddir": 52.5, "pressure": 1025.2, "cloudcover": 61.7, "visibility": 16.0, "solarradiation": 497.7, "solarenergy": 26.9, "sunrise": "05:49:57", "sunriseEpoch": 1530956997, "sunset": "20:36:00", "sunsetEpoch": 1531010160, "moonphase": 0.82, "conditions": "Partially cloudy", "icon": "partly-cloudy-day", "stations": ["72405013743", "KDCA", "72403793728", "KADW", "KDAA", "74594013705"], "source": "obs", "hours": null}], "stations": {"72405013743": {"distance": 612.0, "latitude": 38.847, "longitude": -77.034, "useCount": 0, "id": "72405013743", "name": "WASHINGTON REAGAN NATIONAL AIRPORT, VA US", "quality": 100, "contribution": 0.0}, "KDCA": {"distance": 707.0, "latitude": 38.85, "longitude": -77.03, "useCount": 0, "id": "KDCA", "name": "KDCA", "quality": 100, "contribution": 0.0}, "72403793728": {"distance": 19668.0, "latitude": 38.717, "longitude": -77.183, "useCount": 0, "id": "72403793728", "name": "DAVISON ARMY AIR FIELD, VA US", "quality": 100, "contribution": 0.0}, "KADW": {"distance": 14974.0, "latitude": 38.82, "longitude": -76.87, "useCount": 0, "id": "KADW", "name": "KADW", "quality": 100, "contribution": 0.0}, "KDAA": {"distance": 19202.0, "latitude": 38.72, "longitude": -77.18, "useCount": 0, "id": "KDAA", "name": "KDAA", "quality": 100, "contribution": 0.0}, "74594013705": {"distance": 15342.0, "latitude": 38.817, "longitude": -76.867, "useCount": 0, "id": "74594013705", "name": "CAMP SPRINGS ANDREWS AFB, MD US", "quality": 100, "contribution": 0.0}}}