{"queryCost": 1, "latitude": 38.8521, "longitude": -77.037697, "resolvedAddress": "38.8521, -77.037697", "address": "38.8521, -77.037697", "timezone": "America/New_York", "tzoffset": -5.0, "days": [{"datetime": "2019-02-03", "datetimeEpoch": 1549170000, "tempmax": 13.3, "tempmin": -1.7, "temp": 4.6, "feelslikemax": 13.3, "feelslikemin": -3.6, "feelslike": 4.0, "dew": -1.3, "humidity": 67.66, "precip": 0.0, "precipprob": null, "precipcover": 0.0, "preciptype": null, "snow": 2.86, "snowdepth": 3.0, "windgust": null, "windspeed": 11.1, "winddir": 74.2, "pressure": 1020.8, "cloudcover": 67.3, "visibility": 15.0, "solarradiation": 201.8, "solarenergy": 9.4, "sunrise": "07:12:40", "sunriseEpoch": 1549195960, "sunset": "17:31:43", "sunsetEpoch": 1549233103, "moonphase": 1.0, "conditions": "Partially cloudy", "icon": "snow", "stations": ["72405013743", "KDCA", "72403793728", "KADW", "KDAA", "74594013705"], "source": "obs", "hours": null}], "stations": {"72405013743": {"distance": 612.0, "latitude": 38.847, "longitude": -77.034, "useCount": 0, "id": "72405013743", "name": "WASHINGTON REAGAN NATIONAL AIRPORT, VA US", "quality": 100, "contribution": 0.0}, "KDCA": {"distance": 707.0, "latitude": 38.85, "longitude": -77.03, "useCount": 0, "id": "KDCA", "name": "KDCA", "quality": 100, "contribution": 0.0}, "72403793728": {"distance": 19668.0, "latitude": 38.717, "longitude": -77.183, "useCount": 0, "id": "72403793728", "name": "DAVISON ARMY AIR FIELD, VA US", "quality": 100, "contribution": 0.0}, "KADW": {"distance": 14974.0, "latitude": 38.82, "longitude": -76.87, "useCount": 0, "id": "KADW", "name": "KADW", "quality": 100, "contribution": 0.0}, "KDAA": {"distance": 19202.0, "latitude": 38.72, "longitude": -77.18, "useCount": 0, "id": "KDAA", "name": "KDAA", "quality": 100, "contribution": 0.0}, "74594013705": {"distance": 15342.0, "latitude": 38.817, "longitude": -76.867, "useCount": 0, "id": "74594013705", "name": "CAMP SPRINGS ANDREWS AFB, MD US", "quality": 100, "contribution": 0.0}}}