{"queryCost": 1, "latitude": 39.861698150635, "longitude": -104.672996521, "resolvedAddress": "39.861698150635, -104.672996521", "address": "39.861698150635, -104.672996521", "timezone": "America/Denver", "tzoffset": -7.0, "days": [{"datetime": "2019-11-26", "datetimeEpoch": 1574751600, "tempmax": -3.8, "tempmin": -17.2, "temp": -6.4, "feelslikemax": -8.3, "feelslikemin": -25.6, "feelslike": -13.2, "dew": -7.4, "humidity": 92.41, "precip": 11.12, "precipprob": null, "precipcover": 58.33, "preciptype": null, "snow": 6.74, "snowdepth": 18.79, "windgust": 64.5, "windspeed": 44.6, "winddir": 178.3, "pressure": 1007.0, "cloudcover": 59.8, "visibility": 5.9, "solarradiation": 141.4, "solarenergy": 5.6, "sunrise": "06:55:40", "sunriseEpoch": 1574776540, "sunset": "16:36:01", "sunsetEpoch": 1574811361, "moonphase": 1.0, "conditions": "Snow, Partially cloudy", "icon": "snow", "stations": ["KDEN", "KBKF", "72469523036", "KAPA", "72565003017", "72466693067"], "source": "obs", "hours": null}], "stations": {"KDEN": {"distance": 318.0, "latitude": 39.86, "longitude": -104.67, "useCount": 0, "id": "KDEN", "name": "KDEN", "quality": 100, "contribution": 0.0}, "KBKF": {"distance": 17094.0, "latitude": 39.72, "longitude": -104.75, "useCount": 0, "id": "KBKF", "name": "KBKF", "quality": 100, "contribution": 0.0}, "72469523036": {"distance": 17433.0, "latitude": 39.717, "longitude": -104.75, "useCount": 0, "id": "72469523036", "name": "AURORA BUCKLEY FIELD ANGB, CO US", "quality": 100, "contribution": 0.0}, "KAPA": {"distance": 35835.0, "latitude": 39.57, "longitude": -104.85, "useCount": 0, "id": "KAPA", "name": "KAPA", "quality": 100, "contribution": 0.0}, "72565003017": {"distance": 3463.0, "latitude": 39.833, "longitude": -104.658, "useCount": 0, "id": "72565003017", "name": "DENVER INTERNATIONAL AIRPORT, CO US", "quality": 100, "contribution": 0.0}, "72466693067": {"distance": 35768.0, "latitude": 39.57, "longitude": -104.849, "useCount": 0, "id": "72466693067", "name": "DENVER CENTENNIAL AIRPORT, CO US", "quality": 100, "contribution": 0.0}}}