{"queryCost": 1, "latitude": 39.861698150635, "longitude": -104.672996521, "resolvedAddress": "39.861698150635, -104.672996521", "address": "39.861698150635, -104.672996521", "timezone": "America/Denver", "tzoffset": -7.0, "days": [{"datetime": "2018-02-15", "datetimeEpoch": 1518678000, "tempmax": 8.3, "tempmin": -6.6, "temp": 2.4, "feelslikemax": 8.3, "feelslikemin": -14.0, "feelslike": -1.9, "dew": -5.3, "humidity": 59.57, "precip": 0.5, "precipprob": null, "precipcover": 8.33, "preciptype": null, "snow": 0.0, "snowdepth": 0.0, "windgust": 51.8, "windspeed": 33.5, "winddir": 106.5, "pressure": 1012.2, "cloudcover": 78.9, "visibility": 13.7, "solarradiation": 237.3, "solarenergy": 10.3, "sunrise": "06:51:12", "sunriseEpoch": 1518702672, "sunset": "17:34:57", "sunsetEpoch": 1518741297, "moonphase": 1.0, "conditions": "Rain, Overcast", "icon": "rain", "stations": ["KDEN", "KBKF", "72469523036", "KAPA", "72565003017", "72466693067"], "source": "obs", "hours": null}], "stations": {"KDEN": {"distance": 318.0, "latitude": 39.86, "longitude": -104.67, "useCount": 0, "id": "KDEN", "name": "KDEN", "quality": 100, "contribution": 0.0}, "KBKF": {"distance": 17094.0, "latitude": 39.72, "longitude": -104.75, "useCount": 0, "id": "KBKF", "name": "KBKF", "quality": 100, "contribution": 0.0}, "72469523036": {"distance": 17433.0, "latitude": 39.717, "longitude": -104.75, "useCount": 0, "id": "72469523036", "name": "AURORA BUCKLEY FIELD ANGB, CO US", "quality": 100, "contribution": 0.0}, "KAPA": {"distance": 35835.0, "latitude": 39.57, "longitude": -104.85, "useCount": 0, "id": "KAPA", "name": "KAPA", "quality": 100, "contribution": 0.0}, "72565003017": {"distance": 3463.0, "latitude": 39.833, "longitude": -104.658, "useCount": 0, "id": "72565003017", "name": "DENVER INTERNATIONAL AIRPORT, CO US", "quality": 100, "contribution": 0.0}, "72466693067": {"distance": 35768.0, "latitude": 39.57, "longitude": -104.849, "useCount": 0, "id": "72466693067", "name": "DENVER CENTENNIAL AIRPORT, CO US", "quality": 100, "contribution": 0.0}}}