{"queryCost": 1, "latitude": 39.861698150635, "longitude": -104.672996521, "resolvedAddress": "39.861698150635, -104.672996521", "address": "39.861698150635, -104.672996521", "timezone": "America/Denver", "tzoffset": -6.0, "days": [{"datetime": "2018-10-09", "datetimeEpoch": 1539064800, "tempmax": 3.3, "tempmin": 1.1, "temp": 2.1, "feelslikemax": 2.2, "feelslikemin": -3.2, "feelslike": -1.4, "dew": 1.2, "humidity": 93.57, "precip": 0.8, "precipprob": null, "precipcover": 16.67, "preciptype": null, "snow": 0.0, "snowdepth": 0.0, "windgust": null, "windspeed": 18.4, "winddir": 50.8, "pressure": 1014.4, "cloudcover": 99.5, "visibility": 11.5, "solarradiation": 82.6, "solarenergy": 3.6, "sunrise": "07:02:53", "sunriseEpoch": 1539090173, "sunset": "18:28:17", "sunsetEpoch": 1539131297, "moonphase": 0.0, "conditions": "Rain, Overcast", "icon": "rain", "stations": ["KDEN", "KBKF", "72469523036", "KAPA", "72565003017", "72466693067"], "source": "obs", "hours": null}], "stations": {"KDEN": {"distance": 318.0, "latitude": 39.86, "longitude": -104.67, "useCount": 0, "id": "KDEN", "name": "KDEN", "quality": 100, "contribution": 0.0}, "KBKF": {"distance": 17094.0, "latitude": 39.72, "longitude": -104.75, "useCount": 0, "id": "KBKF", "name": "KBKF", "quality": 100, "contribution": 0.0}, "72469523036": {"distance": 17433.0, "latitude": 39.717, "longitude": -104.75, "useCount": 0, "id": "72469523036", "name": "AURORA BUCKLEY FIELD ANGB, CO US", "quality": 100, "contribution": 0.0}, "KAPA": {"distance": 35835.0, "latitude": 39.57, "longitude": -104.85, "useCount": 0, "id": "KAPA", "name": "KAPA", "quality": 100, "contribution": 0.0}, "72565003017": {"distance": 3463.0, "latitude": 39.833, "longitude": -104.658, "useCount": 0, "id": "72565003017", "name": "DENVER INTERNATIONAL AIRPORT, CO US", "quality": 100, "contribution": 0.0}, "72466693067": {"distance": 35768.0, "latitude": 39.57, "longitude": -104.849, "useCount": 0, "id": "72466693067", "name": "DENVER CENTENNIAL AIRPORT, CO US", "quality": 100, "contribution": 0.0}}}