{"queryCost": 1, "latitude": 39.861698150635, "longitude": -104.672996521, "resolvedAddress": "39.861698150635, -104.672996521", "address": "39.861698150635, -104.672996521", "timezone": "America/Denver", "tzoffset": -7.0, "days": [{"datetime": "2018-12-02", "datetimeEpoch": 1543734000, "tempmax": 1.7, "tempmin": -8.8, "temp": -2.9, "feelslikemax": -1.0, "feelslikemin": -14.2, "feelslike": -6.7, "dew": -8.6, "humidity": 65.89, "precip": 0.0, "precipprob": null, "precipcover": 0.0, "preciptype": null, "snow": 0.0, "snowdepth": 1.04, "windgust": null, "windspeed": 20.5, "winddir": 89.2, "pressure": 1012.5, "cloudcover": 61.6, "visibility": 16.0, "solarradiation": 232.2, "solarenergy": 9.2, "sunrise": "07:02:05", "sunriseEpoch": 1543759325, "sunset": "16:34:05", "sunsetEpoch": 1543793645, "moonphase": 0.89, "conditions": "Partially cloudy", "icon": "partly-cloudy-day", "stations": ["KDEN", "KBKF", "72469523036", "KAPA", "72565003017", "72466693067"], "source": "obs", "hours": null}], "stations": {"KDEN": {"distance": 318.0, "latitude": 39.86, "longitude": -104.67, "useCount": 0, "id": "KDEN", "name": "KDEN", "quality": 100, "contribution": 0.0}, "KBKF": {"distance": 17094.0, "latitude": 39.72, "longitude": -104.75, "useCount": 0, "id": "KBKF", "name": "KBKF", "quality": 100, "contribution": 0.0}, "72469523036": {"distance": 17433.0, "latitude": 39.717, "longitude": -104.75, "useCount": 0, "id": "72469523036", "name": "AURORA BUCKLEY FIELD ANGB, CO US", "quality": 100, "contribution": 0.0}, "KAPA": {"distance": 35835.0, "latitude": 39.57, "longitude": -104.85, "useCount": 0, "id": "KAPA", "name": "KAPA", "quality": 100, "contribution": 0.0}, "72565003017": {"distance": 3463.0, "latitude": 39.833, "longitude": -104.658, "useCount": 0, "id": "72565003017", "name": "DENVER INTERNATIONAL AIRPORT, CO US", "quality": 100, "contribution": 0.0}, "72466693067": {"distance": 35768.0, "latitude": 39.57, "longitude": -104.849, "useCount": 0, "id": "72466693067", "name": "DENVER CENTENNIAL AIRPORT, CO US", "quality": 100, "contribution": 0.0}}}