{"queryCost": 1, "latitude": 39.861698150635, "longitude": -104.672996521, "resolvedAddress": "39.861698150635, -104.672996521", "address": "39.861698150635, -104.672996521", "timezone": "America/Denver", "tzoffset": -7.0, "days": [{"datetime": "2018-01-22", "datetimeEpoch": 1516604400, "tempmax": 5.0, "tempmin": -10.6, "temp": -2.7, "feelslikemax": 3.8, "feelslikemin": -15.8, "feelslike": -7.1, "dew": -13.6, "humidity": 45.82, "precip": 0.0, "precipprob": null, "precipcover": 0.0, "preciptype": null, "snow": 2.43, "snowdepth": 9.83, "windgust": 51.8, "windspeed": 31.7, "winddir": 250.0, "pressure": 1018.7, "cloudcover": 50.7, "visibility": 16.0, "solarradiation": 276.3, "solarenergy": 10.9, "sunrise": "07:14:42", "sunriseEpoch": 1516630482, "sunset": "17:06:20", "sunsetEpoch": 1516665980, "moonphase": 0.13, "conditions": "Partially cloudy", "icon": "snow", "stations": ["KDEN", "KBKF", "72469523036", "KAPA", "72565003017", "72466693067"], "source": "obs", "hours": null}], "stations": {"KDEN": {"distance": 318.0, "latitude": 39.86, "longitude": -104.67, "useCount": 0, "id": "KDEN", "name": "KDEN", "quality": 100, "contribution": 0.0}, "KBKF": {"distance": 17094.0, "latitude": 39.72, "longitude": -104.75, "useCount": 0, "id": "KBKF", "name": "KBKF", "quality": 100, "contribution": 0.0}, "72469523036": {"distance": 17433.0, "latitude": 39.717, "longitude": -104.75, "useCount": 0, "id": "72469523036", "name": "AURORA BUCKLEY FIELD ANGB, CO US", "quality": 100, "contribution": 0.0}, "KAPA": {"distance": 35835.0, "latitude": 39.57, "longitude": -104.85, "useCount": 0, "id": "KAPA", "name": "KAPA", "quality": 100, "contribution": 0.0}, "72565003017": {"distance": 3463.0, "latitude": 39.833, "longitude": -104.658, "useCount": 0, "id": "72565003017", "name": "DENVER INTERNATIONAL AIRPORT, CO US", "quality": 100, "contribution": 0.0}, "72466693067": {"distance": 35768.0, "latitude": 39.57, "longitude": -104.849, "useCount": 0, "id": "72466693067", "name": "DENVER CENTENNIAL AIRPORT, CO US", "quality": 100, "contribution": 0.0}}}