{"queryCost": 1, "latitude": 39.861698150635, "longitude": -104.672996521, "resolvedAddress": "39.861698150635, -104.672996521", "address": "39.861698150635, -104.672996521", "timezone": "America/Denver", "tzoffset": -7.0, "days": [{"datetime": "2019-12-13", "datetimeEpoch": 1576220400, "tempmax": 7.8, "tempmin": -4.3, "temp": 2.8, "feelslikemax": 4.6, "feelslikemin": -10.1, "feelslike": -1.3, "dew": -7.2, "humidity": 50.87, "precip": 0.0, "precipprob": null, "precipcover": 0.0, "preciptype": null, "snow": 0.0, "snowdepth": 0.0, "windgust": 62.6, "windspeed": 42.5, "winddir": 235.4, "pressure": 1012.0, "cloudcover": 41.5, "visibility": 16.0, "solarradiation": 110.4, "solarenergy": 4.4, "sunrise": "07:11:31", "sunriseEpoch": 1576246291, "sunset": "16:34:09", "sunsetEpoch": 1576280049, "moonphase": 0.51, "conditions": "Partially cloudy", "icon": "wind", "stations": ["KDEN", "KBKF", "72469523036", "KAPA", "72565003017", "72466693067"], "source": "obs", "hours": null}], "stations": {"KDEN": {"distance": 318.0, "latitude": 39.86, "longitude": -104.67, "useCount": 0, "id": "KDEN", "name": "KDEN", "quality": 100, "contribution": 0.0}, "KBKF": {"distance": 17094.0, "latitude": 39.72, "longitude": -104.75, "useCount": 0, "id": "KBKF", "name": "KBKF", "quality": 100, "contribution": 0.0}, "72469523036": {"distance": 17433.0, "latitude": 39.717, "longitude": -104.75, "useCount": 0, "id": "72469523036", "name": "AURORA BUCKLEY FIELD ANGB, CO US", "quality": 100, "contribution": 0.0}, "KAPA": {"distance": 35835.0, "latitude": 39.57, "longitude": -104.85, "useCount": 0, "id": "KAPA", "name": "KAPA", "quality": 100, "contribution": 0.0}, "72565003017": {"distance": 3463.0, "latitude": 39.833, "longitude": -104.658, "useCount": 0, "id": "72565003017", "name": "DENVER INTERNATIONAL AIRPORT, CO US", "quality": 100, "contribution": 0.0}, "72466693067": {"distance": 35768.0, "latitude": 39.57, "longitude": -104.849, "useCount": 0, "id": "72466693067", "name": "DENVER CENTENNIAL AIRPORT, CO US", "quality": 100, "contribution": 0.0}}}