{"queryCost": 1, "latitude": 39.861698150635, "longitude": -104.672996521, "resolvedAddress": "39.861698150635, -104.672996521", "address": "39.861698150635, -104.672996521", "timezone": "America/Denver", "tzoffset": -6.0, "days": [{"datetime": "2019-03-11", "datetimeEpoch": 1552284000, "tempmax": 11.2, "tempmin": -1.2, "temp": 3.7, "feelslikemax": 11.2, "feelslikemin": -5.4, "feelslike": 1.1, "dew": -2.3, "humidity": 66.99, "precip": 0.0, "precipprob": null, "precipcover": 0.0, "preciptype": null, "snow": 0.0, "snowdepth": 0.0, "windgust": 25.9, "windspeed": 18.4, "winddir": 223.0, "pressure": 1018.4, "cloudcover": 28.4, "visibility": 16.0, "solarradiation": 224.5, "solarenergy": 10.5, "sunrise": "07:16:41", "sunriseEpoch": 1552310201, "sunset": "19:01:18", "sunsetEpoch": 1552352478, "moonphase": 0.1, "conditions": "Partially cloudy", "icon": "partly-cloudy-day", "stations": ["KDEN", "KBKF", "72469523036", "KAPA", "72565003017", "72466693067"], "source": "obs", "hours": null}], "stations": {"KDEN": {"distance": 318.0, "latitude": 39.86, "longitude": -104.67, "useCount": 0, "id": "KDEN", "name": "KDEN", "quality": 100, "contribution": 0.0}, "KBKF": {"distance": 17094.0, "latitude": 39.72, "longitude": -104.75, "useCount": 0, "id": "KBKF", "name": "KBKF", "quality": 100, "contribution": 0.0}, "72469523036": {"distance": 17433.0, "latitude": 39.717, "longitude": -104.75, "useCount": 0, "id": "72469523036", "name": "AURORA BUCKLEY FIELD ANGB, CO US", "quality": 100, "contribution": 0.0}, "KAPA": {"distance": 35835.0, "latitude": 39.57, "longitude": -104.85, "useCount": 0, "id": "KAPA", "name": "KAPA", "quality": 100, "contribution": 0.0}, "72565003017": {"distance": 3463.0, "latitude": 39.833, "longitude": -104.658, "useCount": 0, "id": "72565003017", "name": "DENVER INTERNATIONAL AIRPORT, CO US", "quality": 100, "contribution": 0.0}, "72466693067": {"distance": 35768.0, "latitude": 39.57, "longitude": -104.849, "useCount": 0, "id": "72466693067", "name": "DENVER CENTENNIAL AIRPORT, CO US", "quality": 100, "contribution": 0.0}}}