{"queryCost": 1, "latitude": 32.896801, "longitude": -97.038002, "resolvedAddress": "32.896801, -97.038002", "address": "32.896801, -97.038002", "timezone": "America/Chicago", "tzoffset": -6.0, "days": [{"datetime": "2019-02-22", "datetimeEpoch": 1550815200, "tempmax": 9.4, "tempmin": 7.2, "temp": 8.6, "feelslikemax": 8.9, "feelslikemin": 4.3, "feelslike": 6.7, "dew": 7.7, "humidity": 94.09, "precip": 2.19, "precipprob": null, "precipcover": 29.17, "preciptype": null, "snow": 0.0, "snowdepth": 0.0, "windgust": 37.1, "windspeed": 24.1, "winddir": 109.5, "pressure": 1014.1, "cloudcover": 99.6, "visibility": 7.9, "solarradiation": 48.5, "solarenergy": 2.1, "sunrise": "07:04:16", "sunriseEpoch": 1550840656, "sunset": "18:19:28", "sunsetEpoch": 1550881168, "moonphase": 0.56, "conditions": "Rain, Overcast", "icon": "rain", "stations": ["72247953907", "KDAL", "72259003927", "KDFW", "KGPM", "72258013960"], "source": "obs", "hours": null}], "stations": {"72247953907": {"distance": 26482.0, "latitude": 32.664, "longitude": -97.094, "useCount": 0, "id": "72247953907", "name": "ARLINGTON MUNICIPAL AIRPORT, TX US", "quality": 100, "contribution": 0.0}, "KDAL": {"distance": 18333.0, "latitude": 32.85, "longitude": -96.85, "useCount": 0, "id": "KDAL", "name": "KDAL", "quality": 100, "contribution": 0.0}, "72259003927": {"distance": 1789.0, "latitude": 32.898, "longitude": -97.019, "useCount": 0, "id": "72259003927", "name": "DAL FTW WSCMO AIRPORT, TX US", "quality": 100, "contribution": 0.0}, "KDFW": {"distance": 828.0, "latitude": 32.9, "longitude": -97.03, "useCount": 0, "id": "KDFW", "name": "KDFW", "quality": 100, "contribution": 0.0}, "KGPM": {"distance": 21937.0, "latitude": 32.7, "longitude": -97.05, "useCount": 0, "id": "KGPM", "name": "KGPM", "quality": 98, "contribution": 0.0}, "72258013960": {"distance": 17780.0, "latitude": 32.852, "longitude": -96.855, "useCount": 0, "id": "72258013960", "name": "DALLAS FAA AIRPORT, TX US", "quality": 100, "contribution": 0.0}}}