{"queryCost": 1, "latitude": 32.896801, "longitude": -97.038002, "resolvedAddress": "32.896801, -97.038002", "address": "32.896801, -97.038002", "timezone": "America/Chicago", "tzoffset": -5.0, "days": [{"datetime": "2019-07-26", "datetimeEpoch": 1564117200, "tempmax": 31.7, "tempmin": 21.2, "temp": 26.3, "feelslikemax": 31.1, "feelslikemin": 21.2, "feelslike": 26.1, "dew": 14.7, "humidity": 50.55, "precip": 0.0, "precipprob": null, "precipcover": 0.0, "preciptype": null, "snow": 0.0, "snowdepth": 0.0, "windgust": 37.1, "windspeed": 18.3, "winddir": 107.7, "pressure": 1018.9, "cloudcover": 41.3, "visibility": 16.0, "solarradiation": 464.1, "solarenergy": 25.1, "sunrise": "06:37:36", "sunriseEpoch": 1564141056, "sunset": "20:31:25", "sunsetEpoch": 1564191085, "moonphase": 0.83, "conditions": "Partially cloudy", "icon": "partly-cloudy-day", "stations": ["72247953907", "KDAL", "72259003927", "KDFW", "KGPM", "72258013960"], "source": "obs", "hours": null}], "stations": {"72247953907": {"distance": 26482.0, "latitude": 32.664, "longitude": -97.094, "useCount": 0, "id": "72247953907", "name": "ARLINGTON MUNICIPAL AIRPORT, TX US", "quality": 100, "contribution": 0.0}, "KDAL": {"distance": 18333.0, "latitude": 32.85, "longitude": -96.85, "useCount": 0, "id": "KDAL", "name": "KDAL", "quality": 100, "contribution": 0.0}, "72259003927": {"distance": 1789.0, "latitude": 32.898, "longitude": -97.019, "useCount": 0, "id": "72259003927", "name": "DAL FTW WSCMO AIRPORT, TX US", "quality": 100, "contribution": 0.0}, "KDFW": {"distance": 828.0, "latitude": 32.9, "longitude": -97.03, "useCount": 0, "id": "KDFW", "name": "KDFW", "quality": 100, "contribution": 0.0}, "KGPM": {"distance": 21937.0, "latitude": 32.7, "longitude": -97.05, "useCount": 0, "id": "KGPM", "name": "KGPM", "quality": 98, "contribution": 0.0}, "72258013960": {"distance": 17780.0, "latitude": 32.852, "longitude": -96.855, "useCount": 0, "id": "72258013960", "name": "DALLAS FAA AIRPORT, TX US", "quality": 100, "contribution": 0.0}}}