{"queryCost": 1, "latitude": 32.896801, "longitude": -97.038002, "resolvedAddress": "32.896801, -97.038002", "address": "32.896801, -97.038002", "timezone": "America/Chicago", "tzoffset": -5.0, "days": [{"datetime": "2019-10-07", "datetimeEpoch": 1570424400, "tempmax": 26.2, "tempmin": 15.7, "temp": 20.2, "feelslikemax": 26.2, "feelslikemin": 15.7, "feelslike": 20.2, "dew": 10.0, "humidity": 54.18, "precip": 0.0, "precipprob": null, "precipcover": 0.0, "preciptype": null, "snow": 0.0, "snowdepth": 0.0, "windgust": 48.2, "windspeed": 35.2, "winddir": 91.7, "pressure": 1020.1, "cloudcover": 29.0, "visibility": 16.0, "solarradiation": 347.8, "solarenergy": 16.3, "sunrise": "07:26:17", "sunriseEpoch": 1570451177, "sunset": "19:05:13", "sunsetEpoch": 1570493113, "moonphase": 0.34, "conditions": "Partially cloudy", "icon": "wind", "stations": ["72247953907", "KDAL", "72259003927", "KDFW", "KGPM", "72258013960"], "source": "obs", "hours": null}], "stations": {"72247953907": {"distance": 26482.0, "latitude": 32.664, "longitude": -97.094, "useCount": 0, "id": "72247953907", "name": "ARLINGTON MUNICIPAL AIRPORT, TX US", "quality": 100, "contribution": 0.0}, "KDAL": {"distance": 18333.0, "latitude": 32.85, "longitude": -96.85, "useCount": 0, "id": "KDAL", "name": "KDAL", "quality": 100, "contribution": 0.0}, "72259003927": {"distance": 1789.0, "latitude": 32.898, "longitude": -97.019, "useCount": 0, "id": "72259003927", "name": "DAL FTW WSCMO AIRPORT, TX US", "quality": 100, "contribution": 0.0}, "KDFW": {"distance": 828.0, "latitude": 32.9, "longitude": -97.03, "useCount": 0, "id": "KDFW", "name": "KDFW", "quality": 100, "contribution": 0.0}, "KGPM": {"distance": 21937.0, "latitude": 32.7, "longitude": -97.05, "useCount": 0, "id": "KGPM", "name": "KGPM", "quality": 98, "contribution": 0.0}, "72258013960": {"distance": 17780.0, "latitude": 32.852, "longitude": -96.855, "useCount": 0, "id": "72258013960", "name": "DALLAS FAA AIRPORT, TX US", "quality": 100, "contribution": 0.0}}}