{"queryCost": 1, "latitude": 32.896801, "longitude": -97.038002, "resolvedAddress": "32.896801, -97.038002", "address": "32.896801, -97.038002", "timezone": "America/Chicago", "tzoffset": -6.0, "days": [{"datetime": "2019-01-09", "datetimeEpoch": 1547013600, "tempmax": 15.0, "tempmin": 5.7, "temp": 9.3, "feelslikemax": 15.0, "feelslikemin": 3.5, "feelslike": 7.8, "dew": -3.8, "humidity": 42.04, "precip": 0.0, "precipprob": null, "precipcover": 0.0, "preciptype": null, "snow": 0.0, "snowdepth": 0.0, "windgust": 38.9, "windspeed": 22.3, "winddir": 107.5, "pressure": 1031.8, "cloudcover": 57.2, "visibility": 16.0, "solarradiation": 248.6, "solarenergy": 10.7, "sunrise": "07:31:43", "sunriseEpoch": 1547040703, "sunset": "17:39:00", "sunsetEpoch": 1547077140, "moonphase": 0.05, "conditions": "Partially cloudy", "icon": "partly-cloudy-day", "stations": ["72247953907", "KDAL", "72259003927", "KDFW", "KGPM", "72258013960"], "source": "obs", "hours": null}], "stations": {"72247953907": {"distance": 26482.0, "latitude": 32.664, "longitude": -97.094, "useCount": 0, "id": "72247953907", "name": "ARLINGTON MUNICIPAL AIRPORT, TX US", "quality": 100, "contribution": 0.0}, "KDAL": {"distance": 18333.0, "latitude": 32.85, "longitude": -96.85, "useCount": 0, "id": "KDAL", "name": "KDAL", "quality": 100, "contribution": 0.0}, "72259003927": {"distance": 1789.0, "latitude": 32.898, "longitude": -97.019, "useCount": 0, "id": "72259003927", "name": "DAL FTW WSCMO AIRPORT, TX US", "quality": 100, "contribution": 0.0}, "KDFW": {"distance": 828.0, "latitude": 32.9, "longitude": -97.03, "useCount": 0, "id": "KDFW", "name": "KDFW", "quality": 100, "contribution": 0.0}, "KGPM": {"distance": 21937.0, "latitude": 32.7, "longitude": -97.05, "useCount": 0, "id": "KGPM", "name": "KGPM", "quality": 98, "contribution": 0.0}, "72258013960": {"distance": 17780.0, "latitude": 32.852, "longitude": -96.855, "useCount": 0, "id": "72258013960", "name": "DALLAS FAA AIRPORT, TX US", "quality": 100, "contribution": 0.0}}}