{"queryCost": 1, "latitude": 32.896801, "longitude": -97.038002, "resolvedAddress": "32.896801, -97.038002", "address": "32.896801, -97.038002", "timezone": "America/Chicago", "tzoffset": -5.0, "days": [{"datetime": "2018-09-22", "datetimeEpoch": 1537592400, "tempmax": 23.9, "tempmin": 20.0, "temp": 22.4, "feelslikemax": 23.9, "feelslikemin": 20.0, "feelslike": 22.4, "dew": 21.4, "humidity": 94.12, "precip": 118.82, "precipprob": null, "precipcover": 91.67, "preciptype": null, "snow": 0.0, "snowdepth": 0.0, "windgust": 44.6, "windspeed": 27.6, "winddir": 192.3, "pressure": 1011.1, "cloudcover": 100.0, "visibility": 9.1, "solarradiation": null, "solarenergy": null, "sunrise": "07:16:16", "sunriseEpoch": 1537618576, "sunset": "19:24:50", "sunsetEpoch": 1537662290, "moonphase": 0.47, "conditions": "Rain, Overcast", "icon": "rain", "stations": ["72247953907", "KDAL", "72259003927", "KDFW", "KGPM", "72258013960"], "source": "obs", "hours": null}], "stations": {"72247953907": {"distance": 26482.0, "latitude": 32.664, "longitude": -97.094, "useCount": 0, "id": "72247953907", "name": "ARLINGTON MUNICIPAL AIRPORT, TX US", "quality": 100, "contribution": 0.0}, "KDAL": {"distance": 18333.0, "latitude": 32.85, "longitude": -96.85, "useCount": 0, "id": "KDAL", "name": "KDAL", "quality": 100, "contribution": 0.0}, "72259003927": {"distance": 1789.0, "latitude": 32.898, "longitude": -97.019, "useCount": 0, "id": "72259003927", "name": "DAL FTW WSCMO AIRPORT, TX US", "quality": 100, "contribution": 0.0}, "KDFW": {"distance": 828.0, "latitude": 32.9, "longitude": -97.03, "useCount": 0, "id": "KDFW", "name": "KDFW", "quality": 100, "contribution": 0.0}, "KGPM": {"distance": 21937.0, "latitude": 32.7, "longitude": -97.05, "useCount": 0, "id": "KGPM", "name": "KGPM", "quality": 98, "contribution": 0.0}, "72258013960": {"distance": 17780.0, "latitude": 32.852, "longitude": -96.855, "useCount": 0, "id": "72258013960", "name": "DALLAS FAA AIRPORT, TX US", "quality": 100, "contribution": 0.0}}}