{"queryCost": 1, "latitude": 32.896801, "longitude": -97.038002, "resolvedAddress": "32.896801, -97.038002", "address": "32.896801, -97.038002", "timezone": "America/Chicago", "tzoffset": -6.0, "days": [{"datetime": "2018-11-25", "datetimeEpoch": 1543125600, "tempmax": 16.2, "tempmin": 4.4, "temp": 11.8, "feelslikemax": 16.2, "feelslikemin": -0.6, "feelslike": 10.5, "dew": 2.2, "humidity": 53.01, "precip": 0.0, "precipprob": null, "precipcover": 0.0, "preciptype": null, "snow": 0.0, "snowdepth": 0.0, "windgust": 66.5, "windspeed": 51.7, "winddir": 284.2, "pressure": 1011.3, "cloudcover": 80.1, "visibility": 16.0, "solarradiation": null, "solarenergy": null, "sunrise": "07:07:42", "sunriseEpoch": 1543151262, "sunset": "17:22:26", "sunsetEpoch": 1543188146, "moonphase": 0.53, "conditions": "Overcast", "icon": "wind", "stations": ["72247953907", "KDAL", "72259003927", "KDFW", "KGPM", "72258013960"], "source": "obs", "hours": null}], "stations": {"72247953907": {"distance": 26482.0, "latitude": 32.664, "longitude": -97.094, "useCount": 0, "id": "72247953907", "name": "ARLINGTON MUNICIPAL AIRPORT, TX US", "quality": 100, "contribution": 0.0}, "KDAL": {"distance": 18333.0, "latitude": 32.85, "longitude": -96.85, "useCount": 0, "id": "KDAL", "name": "KDAL", "quality": 100, "contribution": 0.0}, "72259003927": {"distance": 1789.0, "latitude": 32.898, "longitude": -97.019, "useCount": 0, "id": "72259003927", "name": "DAL FTW WSCMO AIRPORT, TX US", "quality": 100, "contribution": 0.0}, "KDFW": {"distance": 828.0, "latitude": 32.9, "longitude": -97.03, "useCount": 0, "id": "KDFW", "name": "KDFW", "quality": 100, "contribution": 0.0}, "KGPM": {"distance": 21937.0, "latitude": 32.7, "longitude": -97.05, "useCount": 0, "id": "KGPM", "name": "KGPM", "quality": 98, "contribution": 0.0}, "72258013960": {"distance": 17780.0, "latitude": 32.852, "longitude": -96.855, "useCount": 0, "id": "72258013960", "name": "DALLAS FAA AIRPORT, TX US", "quality": 100, "contribution": 0.0}}}