{"queryCost": 1, "latitude": 31.321300506591797, "longitude": -85.44960021972656, "resolvedAddress": "31.321300506591797, -85.44960021972656", "address": "31.321300506591797, -85.44960021972656", "timezone": "America/Chicago", "tzoffset": -6.0, "days": [{"datetime": "2020-01-01", "datetimeEpoch": 1577858400, "tempmax": 15.7, "tempmin": 3.8, "temp": 9.4, "feelslikemax": 15.7, "feelslikemin": 1.9, "feelslike": 8.8, "dew": 0.1, "humidity": 55.35, "precip": 0.0, "precipprob": null, "precipcover": 0.0, "preciptype": null, "snow": 0.0, "snowdepth": 0.0, "windgust": null, "windspeed": 9.4, "winddir": 195.1, "pressure": 1019.5, "cloudcover": 8.4, "visibility": 16.0, "solarradiation": 298.2, "solarenergy": 11.8, "sunrise": "06:40:48", "sunriseEpoch": 1577882448, "sunset": "16:49:48", "sunsetEpoch": 1577918988, "moonphase": 0.17, "conditions": "Clear", "icon": "clear-day", "stations": ["72226813839", "KHEY", "72223863873", "72226903850", "KDHN", "KOZR"], "source": "obs", "hours": null}], "stations": {"72226813839": {"distance": 514.0, "latitude": 31.317, "longitude": -85.45, "useCount": 0, "id": "72226813839", "name": "DOTHAN REGIONAL AIRPORT, AL US", "quality": 100, "contribution": 0.0}, "KHEY": {"distance": 19320.0, "latitude": 31.35, "longitude": -85.65, "useCount": 0, "id": "KHEY", "name": "KHEY", "quality": 100, "contribution": 0.0}, "72223863873": {"distance": 20888.0, "latitude": 31.35, "longitude": -85.667, "useCount": 0, "id": "72223863873", "name": "OZARK FORT RUCKER, AL US", "quality": 99, "contribution": 0.0}, "72226903850": {"distance": 26124.0, "latitude": 31.267, "longitude": -85.717, "useCount": 0, "id": "72226903850", "name": "CAIRNS FIELD FORT RUCKER, AL US", "quality": 99, "contribution": 0.0}, "KDHN": {"distance": 150.0, "latitude": 31.32, "longitude": -85.45, "useCount": 0, "id": "KDHN", "name": "KDHN", "quality": 100, "contribution": 0.0}, "KOZR": {"distance": 26127.0, "latitude": 31.28, "longitude": -85.72, "useCount": 0, "id": "KOZR", "name": "KOZR", "quality": 100, "contribution": 0.0}}}