{"queryCost": 1, "latitude": 31.321300506591797, "longitude": -85.44960021972656, "resolvedAddress": "31.321300506591797, -85.44960021972656", "address": "31.321300506591797, -85.44960021972656", "timezone": "America/Chicago", "tzoffset": -6.0, "days": [{"datetime": "2020-01-04", "datetimeEpoch": 1578117600, "tempmax": 17.8, "tempmin": 7.2, "temp": 14.4, "feelslikemax": 17.8, "feelslikemin": 4.3, "feelslike": 13.9, "dew": 8.0, "humidity": 68.84, "precip": 2.3, "precipprob": null, "precipcover": 12.5, "preciptype": null, "snow": 0.0, "snowdepth": 0.0, "windgust": 63.0, "windspeed": 44.6, "winddir": 265.8, "pressure": 1018.8, "cloudcover": 37.6, "visibility": 15.5, "solarradiation": 172.8, "solarenergy": 6.8, "sunrise": "06:41:22", "sunriseEpoch": 1578141682, "sunset": "16:52:01", "sunsetEpoch": 1578178321, "moonphase": 0.31, "conditions": "Rain, Partially cloudy", "icon": "rain", "stations": ["72226813839", "KHEY", "72226903850", "KDHN", "KOZR"], "source": "obs", "hours": null}], "stations": {"72226813839": {"distance": 514.0, "latitude": 31.317, "longitude": -85.45, "useCount": 0, "id": "72226813839", "name": "DOTHAN REGIONAL AIRPORT, AL US", "quality": 100, "contribution": 0.0}, "KHEY": {"distance": 19320.0, "latitude": 31.35, "longitude": -85.65, "useCount": 0, "id": "KHEY", "name": "KHEY", "quality": 100, "contribution": 0.0}, "KDHN": {"distance": 150.0, "latitude": 31.32, "longitude": -85.45, "useCount": 0, "id": "KDHN", "name": "KDHN", "quality": 100, "contribution": 0.0}, "72226903850": {"distance": 26124.0, "latitude": 31.267, "longitude": -85.717, "useCount": 0, "id": "72226903850", "name": "CAIRNS FIELD FORT RUCKER, AL US", "quality": 99, "contribution": 0.0}, "KOZR": {"distance": 26127.0, "latitude": 31.28, "longitude": -85.72, "useCount": 0, "id": "KOZR", "name": "KOZR", "quality": 100, "contribution": 0.0}}}