{"queryCost": 1, "latitude": 46.8420982361, "longitude": -92.19360351559999, "resolvedAddress": "46.8420982361, -92.19360351559999", "address": "46.8420982361, -92.19360351559999", "timezone": "America/Chicago", "tzoffset": -6.0, "days": [{"datetime": "2020-01-03", "datetimeEpoch": 1578031200, "tempmax": -3.8, "tempmin": -7.8, "temp": -6.6, "feelslikemax": -8.8, "feelslikemin": -13.5, "feelslike": -11.9, "dew": -9.1, "humidity": 82.4, "precip": 0.0, "precipprob": null, "precipcover": 0.0, "preciptype": null, "snow": 0.0, "snowdepth": 51.0, "windgust": 35.3, "windspeed": 25.9, "winddir": 325.4, "pressure": 1011.7, "cloudcover": 99.2, "visibility": 14.5, "solarradiation": null, "solarenergy": null, "sunrise": "07:54:01", "sunriseEpoch": 1578059641, "sunset": "16:32:30", "sunsetEpoch": 1578090750, "moonphase": 0.26, "conditions": "Overcast", "icon": "cloudy", "stations": ["KDLH", "72642754908", "KSUW", "KCOQ", "72745014913"], "source": "obs", "hours": null}], "stations": {"72642754908": {"distance": 18605.0, "latitude": 46.689, "longitude": -92.094, "useCount": 0, "id": "72642754908", "name": "SUPERIOR RICHARD I BONG AIRPORT, WI US", "quality": 100, "contribution": 0.0}, "KSUW": {"distance": 18684.0, "latitude": 46.69, "longitude": -92.09, "useCount": 0, "id": "KSUW", "name": "KSUW", "quality": 99, "contribution": 0.0}, "KCOQ": {"distance": 28213.0, "latitude": 46.7, "longitude": -92.5, "useCount": 0, "id": "KCOQ", "name": "KCOQ", "quality": 100, "contribution": 0.0}, "72745014913": {"distance": 975.0, "latitude": 46.837, "longitude": -92.183, "useCount": 0, "id": "72745014913", "name": "DULUTH INTERNATIONAL AIRPORT, MN US", "quality": 100, "contribution": 0.0}, "KDLH": {"distance": 1699.0, "latitude": 46.83, "longitude": -92.18, "useCount": 0, "id": "KDLH", "name": "KDLH", "quality": 100, "contribution": 0.0}}}