{"queryCost": 1, "latitude": 37.1515007019, "longitude": -107.753997803, "resolvedAddress": "37.1515007019, -107.753997803", "address": "37.1515007019, -107.753997803", "timezone": "America/Denver", "tzoffset": -7.0, "days": [{"datetime": "2020-01-07", "datetimeEpoch": 1578380400, "tempmax": 2.2, "tempmin": -15.0, "temp": -7.1, "feelslikemax": 0.0, "feelslikemin": -20.2, "feelslike": -9.5, "dew": -12.1, "humidity": 70.11, "precip": 0.0, "precipprob": null, "precipcover": 0.0, "preciptype": null, "snow": 0.0, "snowdepth": 0.0, "windgust": null, "windspeed": 9.4, "winddir": 53.9, "pressure": 1035.2, "cloudcover": 0.0, "visibility": 16.0, "solarradiation": 242.0, "solarenergy": 11.3, "uvindex": 5.0, "sunrise": "07:25:12", "sunriseEpoch": 1578407112, "sunset": "17:09:23", "sunsetEpoch": 1578442163, "moonphase": 0.44, "conditions": "Clear", "description": "Clear conditions.", "icon": "clear-day", "stations": ["99999903061", "KDRO", "72365823090", "72462593005", "KFMN"], "source": "obs", "hours": null}], "stations": {"99999903061": {"distance": 67495.0, "latitude": 37.255, "longitude": -108.504, "useCount": 0, "id": "99999903061", "name": "CORTEZ 8 SE, CO US", "quality": 100, "contribution": 0.0}, "72365823090": {"distance": 62029.0, "latitude": 36.744, "longitude": -108.229, "useCount": 0, "id": "72365823090", "name": "FARMINGTON FOUR CORNERS REGIONAL AIRPORT, NM US", "quality": 100, "contribution": 0.0}, "KDRO": {"distance": 392.0, "latitude": 37.15, "longitude": -107.75, "useCount": 0, "id": "KDRO", "name": "KDRO", "quality": 100, "contribution": 0.0}, "72462593005": {"distance": 1076.0, "latitude": 37.143, "longitude": -107.76, "useCount": 0, "id": "72462593005", "name": "DURANGO LA PLATA CO AIRPORT, CO US", "quality": 100, "contribution": 0.0}, "KFMN": {"distance": 61569.0, "latitude": 36.75, "longitude": -108.23, "useCount": 0, "id": "KFMN", "name": "KFMN", "quality": 100, "contribution": 0.0}}}