{"queryCost": 1, "latitude": 37.1515007019, "longitude": -107.753997803, "resolvedAddress": "37.1515007019, -107.753997803", "address": "37.1515007019, -107.753997803", "timezone": "America/Denver", "tzoffset": -7.0, "days": [{"datetime": "2020-01-02", "datetimeEpoch": 1577948400, "tempmax": -0.6, "tempmin": -13.3, "temp": -6.6, "feelslikemax": -1.6, "feelslikemin": -18.9, "feelslike": -9.2, "dew": -9.1, "humidity": 83.16, "precip": 0.0, "precipprob": null, "precipcover": 8.33, "preciptype": null, "snow": 0.0, "snowdepth": 3.0, "windgust": 42.5, "windspeed": 13.0, "winddir": 141.3, "pressure": 1014.0, "cloudcover": 45.6, "visibility": 15.5, "solarradiation": 211.2, "solarenergy": 9.9, "sunrise": "07:24:57", "sunriseEpoch": 1577975097, "sunset": "17:05:06", "sunsetEpoch": 1578009906, "moonphase": 0.22, "conditions": "Partially cloudy", "icon": "partly-cloudy-day", "stations": ["99999903061", "KDRO", "72365823090", "72462593005", "KFMN"], "source": "obs", "hours": null}], "stations": {"99999903061": {"distance": 67495.0, "latitude": 37.255, "longitude": -108.504, "useCount": 0, "id": "99999903061", "name": "CORTEZ 8 SE, CO US", "quality": 100, "contribution": 0.0}, "72365823090": {"distance": 62029.0, "latitude": 36.744, "longitude": -108.229, "useCount": 0, "id": "72365823090", "name": "FARMINGTON FOUR CORNERS REGIONAL AIRPORT, NM US", "quality": 100, "contribution": 0.0}, "KDRO": {"distance": 392.0, "latitude": 37.15, "longitude": -107.75, "useCount": 0, "id": "KDRO", "name": "KDRO", "quality": 100, "contribution": 0.0}, "72462593005": {"distance": 1076.0, "latitude": 37.143, "longitude": -107.76, "useCount": 0, "id": "72462593005", "name": "DURANGO LA PLATA CO AIRPORT, CO US", "quality": 100, "contribution": 0.0}, "KFMN": {"distance": 61569.0, "latitude": 36.75, "longitude": -108.23, "useCount": 0, "id": "KFMN", "name": "KFMN", "quality": 100, "contribution": 0.0}}}