{"queryCost": 1, "latitude": 41.534000396728516, "longitude": -93.66310119628906, "resolvedAddress": "41.534000396728516, -93.66310119628906", "address": "41.534000396728516, -93.66310119628906", "timezone": "America/Chicago", "tzoffset": -6.0, "days": [{"datetime": "2020-01-02", "datetimeEpoch": 1577944800, "tempmax": 8.8, "tempmin": -0.6, "temp": 3.2, "feelslikemax": 6.3, "feelslikemin": -4.8, "feelslike": -0.1, "dew": -0.2, "humidity": 78.81, "precip": 0.0, "precipprob": null, "precipcover": 0.0, "preciptype": null, "snow": 0.0, "snowdepth": 0.0, "windgust": 40.7, "windspeed": 24.1, "winddir": 263.8, "pressure": 1001.9, "cloudcover": 70.0, "visibility": 16.0, "solarradiation": 76.3, "solarenergy": 2.7, "sunrise": "07:41:24", "sunriseEpoch": 1577972484, "sunset": "16:55:54", "sunsetEpoch": 1578005754, "moonphase": 0.22, "conditions": "Partially cloudy", "icon": "partly-cloudy-day", "stations": ["KDSM", "KAMW", "72546014933", "KIKV", "99999954902", "72547294989"], "source": "obs", "hours": null}], "stations": {"KDSM": {"distance": 1179.0, "latitude": 41.53, "longitude": -93.65, "useCount": 0, "id": "KDSM", "name": "KDSM", "quality": 100, "contribution": 0.0}, "KAMW": {"distance": 50888.0, "latitude": 41.99, "longitude": -93.62, "useCount": 0, "id": "KAMW", "name": "KAMW", "quality": 100, "contribution": 0.0}, "72546014933": {"distance": 842.0, "latitude": 41.534, "longitude": -93.653, "useCount": 0, "id": "72546014933", "name": "DES MOINES INTERNATIONAL AIRPORT, IA US", "quality": 100, "contribution": 0.0}, "KIKV": {"distance": 19016.0, "latitude": 41.69, "longitude": -93.57, "useCount": 0, "id": "KIKV", "name": "KIKV", "quality": 100, "contribution": 0.0}, "99999954902": {"distance": 31557.0, "latitude": 41.556, "longitude": -93.285, "useCount": 0, "id": "99999954902", "name": "DES MOINES 17 E, IA US", "quality": 100, "contribution": 0.0}, "72547294989": {"distance": 50961.0, "latitude": 41.991, "longitude": -93.619, "useCount": 0, "id": "72547294989", "name": "AMES MUNICIPAL AIRPORT, IA US", "quality": 100, "contribution": 0.0}}}