{"queryCost": 1, "latitude": 42.212398529052734, "longitude": -83.35340118408203, "resolvedAddress": "42.212398529052734, -83.35340118408203", "address": "42.212398529052734, -83.35340118408203", "timezone": "America/Detroit", "tzoffset": -5.0, "days": [{"datetime": "2019-01-10", "datetimeEpoch": 1547096400, "tempmax": -2.1, "tempmin": -6.1, "temp": -4.6, "feelslikemax": -8.0, "feelslikemin": -13.1, "feelslike": -10.8, "dew": -11.4, "humidity": 58.79, "precip": 0.0, "precipprob": null, "precipcover": 0.0, "preciptype": null, "snow": 0.0, "snowdepth": 0.0, "windgust": 46.2, "windspeed": 31.4, "winddir": 320.7, "pressure": 1025.4, "cloudcover": 82.3, "visibility": 13.7, "solarradiation": null, "solarenergy": null, "sunrise": "08:01:30", "sunriseEpoch": 1547125290, "sunset": "17:20:36", "sunsetEpoch": 1547158836, "moonphase": 0.08, "conditions": "Overcast", "icon": "wind", "stations": ["72537094847", "72537614853", "KONZ", "KYIP", "72537354819", "KDTW"], "source": "obs", "hours": null}], "stations": {"72537094847": {"distance": 2810.0, "latitude": 42.231, "longitude": -83.331, "useCount": 0, "id": "72537094847", "name": "DETROIT METRO AIRPORT, MI US", "quality": 100, "contribution": 0.0}, "72537614853": {"distance": 15012.0, "latitude": 42.233, "longitude": -83.533, "useCount": 0, "id": "72537614853", "name": "DETROIT WILLOW RUN AIRPORT, MI US", "quality": 100, "contribution": 0.0}, "KONZ": {"distance": 20280.0, "latitude": 42.1, "longitude": -83.16, "useCount": 0, "id": "KONZ", "name": "KONZ", "quality": 100, "contribution": 0.0}, "KYIP": {"distance": 14690.0, "latitude": 42.23, "longitude": -83.53, "useCount": 0, "id": "KYIP", "name": "KYIP", "quality": 100, "contribution": 0.0}, "72537354819": {"distance": 20306.0, "latitude": 42.099, "longitude": -83.161, "useCount": 0, "id": "72537354819", "name": "GROSSE ILE MUNICIPAL AIRPORT, MI US", "quality": 100, "contribution": 0.0}, "KDTW": {"distance": 2750.0, "latitude": 42.23, "longitude": -83.33, "useCount": 0, "id": "KDTW", "name": "KDTW", "quality": 100, "contribution": 0.0}}}