{"queryCost": 1, "latitude": 42.212398529052734, "longitude": -83.35340118408203, "resolvedAddress": "42.212398529052734, -83.35340118408203", "address": "42.212398529052734, -83.35340118408203", "timezone": "America/Detroit", "tzoffset": -5.0, "days": [{"datetime": "2019-02-14", "datetimeEpoch": 1550120400, "tempmax": 7.2, "tempmin": -7.8, "temp": 0.3, "feelslikemax": 4.4, "feelslikemin": -12.9, "feelslike": -3.3, "dew": -4.5, "humidity": 70.98, "precip": 0.0, "precipprob": null, "precipcover": 0.0, "preciptype": null, "snow": 0.02, "snowdepth": 3.06, "windgust": null, "windspeed": 20.5, "winddir": 162.0, "pressure": 1008.9, "cloudcover": 79.5, "visibility": 13.4, "solarradiation": null, "solarenergy": null, "sunrise": "07:31:17", "sunriseEpoch": 1550147477, "sunset": "18:04:28", "sunsetEpoch": 1550185468, "moonphase": 0.33, "conditions": "Overcast", "icon": "snow", "stations": ["72537094847", "72537614853", "KONZ", "KYIP", "72537354819", "KDTW"], "source": "obs", "hours": null}], "stations": {"72537094847": {"distance": 2810.0, "latitude": 42.231, "longitude": -83.331, "useCount": 0, "id": "72537094847", "name": "DETROIT METRO AIRPORT, MI US", "quality": 100, "contribution": 0.0}, "72537614853": {"distance": 15012.0, "latitude": 42.233, "longitude": -83.533, "useCount": 0, "id": "72537614853", "name": "DETROIT WILLOW RUN AIRPORT, MI US", "quality": 100, "contribution": 0.0}, "KONZ": {"distance": 20280.0, "latitude": 42.1, "longitude": -83.16, "useCount": 0, "id": "KONZ", "name": "KONZ", "quality": 100, "contribution": 0.0}, "KYIP": {"distance": 14690.0, "latitude": 42.23, "longitude": -83.53, "useCount": 0, "id": "KYIP", "name": "KYIP", "quality": 100, "contribution": 0.0}, "72537354819": {"distance": 20306.0, "latitude": 42.099, "longitude": -83.161, "useCount": 0, "id": "72537354819", "name": "GROSSE ILE MUNICIPAL AIRPORT, MI US", "quality": 100, "contribution": 0.0}, "KDTW": {"distance": 2750.0, "latitude": 42.23, "longitude": -83.33, "useCount": 0, "id": "KDTW", "name": "KDTW", "quality": 100, "contribution": 0.0}}}