{"queryCost": 1, "latitude": 42.212398529052734, "longitude": -83.35340118408203, "resolvedAddress": "42.212398529052734, -83.35340118408203", "address": "42.212398529052734, -83.35340118408203", "timezone": "America/Detroit", "tzoffset": -4.0, "days": [{"datetime": "2018-09-10", "datetimeEpoch": 1536552000, "tempmax": 17.9, "tempmin": 13.4, "temp": 15.6, "feelslikemax": 17.9, "feelslikemin": 13.4, "feelslike": 15.6, "dew": 12.9, "humidity": 84.2, "precip": 7.5, "precipprob": null, "precipcover": 58.33, "preciptype": null, "snow": 0.0, "snowdepth": 0.0, "windgust": 43.9, "windspeed": 29.4, "winddir": 159.7, "pressure": 1013.7, "cloudcover": 98.8, "visibility": 8.7, "solarradiation": null, "solarenergy": null, "sunrise": "07:08:07", "sunriseEpoch": 1536577687, "sunset": "19:51:50", "sunsetEpoch": 1536623510, "moonphase": 0.0, "conditions": "Rain, Overcast", "icon": "rain", "stations": ["72537094847", "72537614853", "KONZ", "KYIP", "72537354819", "KDTW"], "source": "obs", "hours": null}], "stations": {"72537094847": {"distance": 2810.0, "latitude": 42.231, "longitude": -83.331, "useCount": 0, "id": "72537094847", "name": "DETROIT METRO AIRPORT, MI US", "quality": 100, "contribution": 0.0}, "72537614853": {"distance": 15012.0, "latitude": 42.233, "longitude": -83.533, "useCount": 0, "id": "72537614853", "name": "DETROIT WILLOW RUN AIRPORT, MI US", "quality": 100, "contribution": 0.0}, "KONZ": {"distance": 20280.0, "latitude": 42.1, "longitude": -83.16, "useCount": 0, "id": "KONZ", "name": "KONZ", "quality": 100, "contribution": 0.0}, "KYIP": {"distance": 14690.0, "latitude": 42.23, "longitude": -83.53, "useCount": 0, "id": "KYIP", "name": "KYIP", "quality": 100, "contribution": 0.0}, "72537354819": {"distance": 20306.0, "latitude": 42.099, "longitude": -83.161, "useCount": 0, "id": "72537354819", "name": "GROSSE ILE MUNICIPAL AIRPORT, MI US", "quality": 100, "contribution": 0.0}, "KDTW": {"distance": 2750.0, "latitude": 42.23, "longitude": -83.33, "useCount": 0, "id": "KDTW", "name": "KDTW", "quality": 100, "contribution": 0.0}}}