{"queryCost": 1, "latitude": 42.212398529052734, "longitude": -83.35340118408203, "resolvedAddress": "42.212398529052734, -83.35340118408203", "address": "42.212398529052734, -83.35340118408203", "timezone": "America/Detroit", "tzoffset": -5.0, "days": [{"datetime": "2019-01-03", "datetimeEpoch": 1546491600, "tempmax": 2.9, "tempmin": -0.6, "temp": 0.4, "feelslikemax": -2.1, "feelslikemin": -6.3, "feelslike": -4.9, "dew": -4.9, "humidity": 67.75, "precip": 0.0, "precipprob": null, "precipcover": 0.0, "preciptype": null, "snow": 0.0, "snowdepth": 0.0, "windgust": 40.4, "windspeed": 29.3, "winddir": 234.0, "pressure": 1016.1, "cloudcover": 62.1, "visibility": 14.7, "solarradiation": null, "solarenergy": null, "sunrise": "08:02:22", "sunriseEpoch": 1546520542, "sunset": "17:13:35", "sunsetEpoch": 1546553615, "moonphase": 0.97, "conditions": "Partially cloudy", "icon": "partly-cloudy-day", "stations": ["72537094847", "72537614853", "KONZ", "KYIP", "72537354819", "KDTW"], "source": "obs", "hours": null}], "stations": {"72537094847": {"distance": 2810.0, "latitude": 42.231, "longitude": -83.331, "useCount": 0, "id": "72537094847", "name": "DETROIT METRO AIRPORT, MI US", "quality": 100, "contribution": 0.0}, "72537614853": {"distance": 15012.0, "latitude": 42.233, "longitude": -83.533, "useCount": 0, "id": "72537614853", "name": "DETROIT WILLOW RUN AIRPORT, MI US", "quality": 100, "contribution": 0.0}, "KONZ": {"distance": 20280.0, "latitude": 42.1, "longitude": -83.16, "useCount": 0, "id": "KONZ", "name": "KONZ", "quality": 100, "contribution": 0.0}, "KYIP": {"distance": 14690.0, "latitude": 42.23, "longitude": -83.53, "useCount": 0, "id": "KYIP", "name": "KYIP", "quality": 100, "contribution": 0.0}, "72537354819": {"distance": 20306.0, "latitude": 42.099, "longitude": -83.161, "useCount": 0, "id": "72537354819", "name": "GROSSE ILE MUNICIPAL AIRPORT, MI US", "quality": 100, "contribution": 0.0}, "KDTW": {"distance": 2750.0, "latitude": 42.23, "longitude": -83.33, "useCount": 0, "id": "KDTW", "name": "KDTW", "quality": 100, "contribution": 0.0}}}