{"queryCost": 1, "latitude": 42.212398529052734, "longitude": -83.35340118408203, "resolvedAddress": "42.212398529052734, -83.35340118408203", "address": "42.212398529052734, -83.35340118408203", "timezone": "America/Detroit", "tzoffset": -5.0, "days": [{"datetime": "2018-02-23", "datetimeEpoch": 1519362000, "tempmax": 10.0, "tempmin": 1.7, "temp": 5.3, "feelslikemax": 7.1, "feelslikemin": -2.6, "feelslike": 2.1, "dew": 3.5, "humidity": 88.45, "precip": 5.1, "precipprob": null, "precipcover": 20.83, "preciptype": null, "snow": 0.0, "snowdepth": 0.0, "windgust": 50.0, "windspeed": 29.1, "winddir": 184.9, "pressure": 1023.5, "cloudcover": 100.0, "visibility": 11.4, "solarradiation": null, "solarenergy": null, "sunrise": "07:17:56", "sunriseEpoch": 1519388276, "sunset": "18:16:09", "sunsetEpoch": 1519427769, "moonphase": 0.26, "conditions": "Rain, Overcast", "icon": "rain", "stations": ["72537094847", "72537614853", "KONZ", "KYIP", "72537354819", "KDTW"], "source": "obs", "hours": null}], "stations": {"72537094847": {"distance": 2810.0, "latitude": 42.231, "longitude": -83.331, "useCount": 0, "id": "72537094847", "name": "DETROIT METRO AIRPORT, MI US", "quality": 100, "contribution": 0.0}, "72537614853": {"distance": 15012.0, "latitude": 42.233, "longitude": -83.533, "useCount": 0, "id": "72537614853", "name": "DETROIT WILLOW RUN AIRPORT, MI US", "quality": 100, "contribution": 0.0}, "KONZ": {"distance": 20280.0, "latitude": 42.1, "longitude": -83.16, "useCount": 0, "id": "KONZ", "name": "KONZ", "quality": 100, "contribution": 0.0}, "KYIP": {"distance": 14690.0, "latitude": 42.23, "longitude": -83.53, "useCount": 0, "id": "KYIP", "name": "KYIP", "quality": 100, "contribution": 0.0}, "72537354819": {"distance": 20306.0, "latitude": 42.099, "longitude": -83.161, "useCount": 0, "id": "72537354819", "name": "GROSSE ILE MUNICIPAL AIRPORT, MI US", "quality": 100, "contribution": 0.0}, "KDTW": {"distance": 2750.0, "latitude": 42.23, "longitude": -83.33, "useCount": 0, "id": "KDTW", "name": "KDTW", "quality": 100, "contribution": 0.0}}}