{"queryCost": 1, "latitude": 44.86579895019531, "longitude": -91.48429870605469, "resolvedAddress": "44.86579895019531, -91.48429870605469", "address": "44.86579895019531, -91.48429870605469", "timezone": "America/Chicago", "tzoffset": -6.0, "days": [{"datetime": "2020-01-07", "datetimeEpoch": 1578376800, "tempmax": 0.6, "tempmin": -12.2, "temp": -3.9, "feelslikemax": -3.6, "feelslikemin": -21.0, "feelslike": -9.9, "dew": -10.4, "humidity": 61.46, "precip": 0.0, "precipprob": null, "precipcover": 0.0, "preciptype": null, "snow": 0.0, "snowdepth": 17.99, "windgust": 51.8, "windspeed": 31.7, "winddir": 275.0, "pressure": 1015.6, "cloudcover": 38.6, "visibility": 15.5, "solarradiation": 190.1, "solarenergy": 6.2, "uvindex": 4.0, "sunrise": "07:43:24", "sunriseEpoch": 1578404604, "sunset": "16:41:03", "sunsetEpoch": 1578436863, "moonphase": 0.44, "conditions": "Partially cloudy", "description": "Partly cloudly.", "icon": "wind", "stations": ["72643514991", "72032704995", "KLUM", "KY23", "72646754909", "KEAU"], "source": "obs", "hours": null}], "stations": {"72643514991": {"distance": 295.0, "latitude": 44.867, "longitude": -91.488, "useCount": 0, "id": "72643514991", "name": "CHIPPEWA VALLEY REGIONAL AIRPORT, WI US", "quality": 100, "contribution": 0.0}, "72032704995": {"distance": 30393.0, "latitude": 44.892, "longitude": -91.868, "useCount": 0, "id": "72032704995", "name": "MENOMONIE MUNICIPAL AIRPORT SCORE FIELD, WI US", "quality": 100, "contribution": 0.0}, "KLUM": {"distance": 30544.0, "latitude": 44.89, "longitude": -91.87, "useCount": 0, "id": "KLUM", "name": "KLUM", "quality": 99, "contribution": 0.0}, "KY23": {"distance": 49673.0, "latitude": 45.3, "longitude": -91.63, "useCount": 0, "id": "KY23", "name": "KY23", "quality": 99, "contribution": 0.0}, "72646754909": {"distance": 65588.0, "latitude": 45.419, "longitude": -91.773, "useCount": 0, "id": "72646754909", "name": "RICE LAKE REGIONAL AIRPORT CARLS FIELD, WI US", "quality": 100, "contribution": 0.0}, "KEAU": {"distance": 578.0, "latitude": 44.87, "longitude": -91.48, "useCount": 0, "id": "KEAU", "name": "KEAU", "quality": 100, "contribution": 0.0}}}