{"queryCost": 1, "latitude": 44.86579895019531, "longitude": -91.48429870605469, "resolvedAddress": "44.86579895019531, -91.48429870605469", "address": "44.86579895019531, -91.48429870605469", "timezone": "America/Chicago", "tzoffset": -6.0, "days": [{"datetime": "2020-01-06", "datetimeEpoch": 1578290400, "tempmax": 1.1, "tempmin": -5.7, "temp": -2.1, "feelslikemax": -2.6, "feelslikemin": -11.2, "feelslike": -6.6, "dew": -7.6, "humidity": 66.28, "precip": 0.0, "precipprob": null, "precipcover": 0.0, "preciptype": null, "snow": 0.0, "snowdepth": 18.69, "windgust": null, "windspeed": 20.5, "winddir": 235.4, "pressure": 1016.9, "cloudcover": 11.1, "visibility": 16.0, "solarradiation": 193.6, "solarenergy": 6.3, "sunrise": "07:43:35", "sunriseEpoch": 1578318215, "sunset": "16:39:59", "sunsetEpoch": 1578350399, "moonphase": 0.4, "conditions": "Clear", "icon": "clear-day", "stations": ["72643514991", "72032704995", "KLUM", "KY23", "72646754909", "KEAU"], "source": "obs", "hours": null}], "stations": {"72643514991": {"distance": 295.0, "latitude": 44.867, "longitude": -91.488, "useCount": 0, "id": "72643514991", "name": "CHIPPEWA VALLEY REGIONAL AIRPORT, WI US", "quality": 100, "contribution": 0.0}, "72032704995": {"distance": 30393.0, "latitude": 44.892, "longitude": -91.868, "useCount": 0, "id": "72032704995", "name": "MENOMONIE MUNICIPAL AIRPORT SCORE FIELD, WI US", "quality": 100, "contribution": 0.0}, "KLUM": {"distance": 30544.0, "latitude": 44.89, "longitude": -91.87, "useCount": 0, "id": "KLUM", "name": "KLUM", "quality": 99, "contribution": 0.0}, "KY23": {"distance": 49673.0, "latitude": 45.3, "longitude": -91.63, "useCount": 0, "id": "KY23", "name": "KY23", "quality": 99, "contribution": 0.0}, "72646754909": {"distance": 65588.0, "latitude": 45.419, "longitude": -91.773, "useCount": 0, "id": "72646754909", "name": "RICE LAKE REGIONAL AIRPORT CARLS FIELD, WI US", "quality": 100, "contribution": 0.0}, "KEAU": {"distance": 578.0, "latitude": 44.87, "longitude": -91.48, "useCount": 0, "id": "KEAU", "name": "KEAU", "quality": 100, "contribution": 0.0}}}