{"queryCost": 1, "latitude": 30.357106, "longitude": -85.795414, "resolvedAddress": "30.357106, -85.795414", "address": "30.357106, -85.795414", "timezone": "America/Chicago", "tzoffset": -5.0, "days": [{"datetime": "2019-08-18", "datetimeEpoch": 1566104400, "tempmax": 33.3, "tempmin": 24.4, "temp": 27.3, "feelslikemax": 39.5, "feelslikemin": 24.4, "feelslike": 29.9, "dew": 24.2, "humidity": 83.77, "precip": 0.86, "precipprob": null, "precipcover": 54.17, "preciptype": null, "snow": 0.0, "snowdepth": 0.0, "windgust": 51.8, "windspeed": 22.3, "winddir": 158.8, "pressure": 1015.7, "cloudcover": 55.4, "visibility": 15.5, "solarradiation": 162.2, "solarenergy": 8.2, "sunrise": "06:11:42", "sunriseEpoch": 1566126702, "sunset": "19:21:58", "sunsetEpoch": 1566174118, "moonphase": 0.54, "conditions": "Rain, Partially cloudy", "icon": "rain", "stations": ["72073573805", "KPAM", "K54J", "KECP", "99999963871", "74775013846"], "source": "obs", "hours": null}], "stations": {"72073573805": {"distance": 1150.0, "latitude": 30.349, "longitude": -85.788, "useCount": 0, "id": "72073573805", "name": "NORTHWEST FLORIDA BEACHES INTERNATIONAL AIRPORT, FL US", "quality": 100, "contribution": 0.0}, "KPAM": {"distance": 38090.0, "latitude": 30.07, "longitude": -85.58, "useCount": 0, "id": "KPAM", "name": "KPAM", "quality": 100, "contribution": 0.0}, "K54J": {"distance": 53654.0, "latitude": 30.73, "longitude": -86.15, "useCount": 0, "id": "K54J", "name": "K54J", "quality": 98, "contribution": 0.0}, "KECP": {"distance": 546.0, "latitude": 30.36, "longitude": -85.8, "useCount": 0, "id": "KECP", "name": "KECP", "quality": 100, "contribution": 0.0}, "99999963871": {"distance": 57490.0, "latitude": 30.846, "longitude": -85.601, "useCount": 0, "id": "99999963871", "name": "BONIFAY TRI CO AIRPORT, FL US", "quality": 99, "contribution": 0.0}, "74775013846": {"distance": 38229.0, "latitude": 30.067, "longitude": -85.583, "useCount": 0, "id": "74775013846", "name": "TYNDALL AFB, FL US", "quality": 99, "contribution": 0.0}}}