{"queryCost": 1, "latitude": 30.357106, "longitude": -85.795414, "resolvedAddress": "30.357106, -85.795414", "address": "30.357106, -85.795414", "timezone": "America/Chicago", "tzoffset": -6.0, "days": [{"datetime": "2020-01-05", "datetimeEpoch": 1578204000, "tempmax": 15.6, "tempmin": 0.7, "temp": 7.7, "feelslikemax": 15.6, "feelslikemin": 0.7, "feelslike": 7.0, "dew": 1.3, "humidity": 67.15, "precip": 0.0, "precipprob": null, "precipcover": 0.0, "preciptype": null, "snow": 0.0, "snowdepth": 0.0, "windgust": null, "windspeed": 18.4, "winddir": 267.1, "pressure": 1028.7, "cloudcover": 0.0, "visibility": 16.0, "solarradiation": 360.0, "solarenergy": 14.3, "sunrise": "06:40:42", "sunriseEpoch": 1578228042, "sunset": "16:56:22", "sunsetEpoch": 1578264982, "moonphase": 0.36, "conditions": "Clear", "icon": "clear-day", "stations": ["72073573805", "K54J", "KPAM", "KECP", "99999963871", "74775013846"], "source": "obs", "hours": null}], "stations": {"72073573805": {"distance": 1150.0, "latitude": 30.349, "longitude": -85.788, "useCount": 0, "id": "72073573805", "name": "NORTHWEST FLORIDA BEACHES INTERNATIONAL AIRPORT, FL US", "quality": 100, "contribution": 0.0}, "K54J": {"distance": 53654.0, "latitude": 30.73, "longitude": -86.15, "useCount": 0, "id": "K54J", "name": "K54J", "quality": 98, "contribution": 0.0}, "KPAM": {"distance": 38090.0, "latitude": 30.07, "longitude": -85.58, "useCount": 0, "id": "KPAM", "name": "KPAM", "quality": 100, "contribution": 0.0}, "KECP": {"distance": 546.0, "latitude": 30.36, "longitude": -85.8, "useCount": 0, "id": "KECP", "name": "KECP", "quality": 100, "contribution": 0.0}, "99999963871": {"distance": 57490.0, "latitude": 30.846, "longitude": -85.601, "useCount": 0, "id": "99999963871", "name": "BONIFAY TRI CO AIRPORT, FL US", "quality": 99, "contribution": 0.0}, "74775013846": {"distance": 38229.0, "latitude": 30.067, "longitude": -85.583, "useCount": 0, "id": "74775013846", "name": "TYNDALL AFB, FL US", "quality": 99, "contribution": 0.0}}}