{"queryCost": 1, "latitude": 42.1599006652832, "longitude": -76.8916015625, "resolvedAddress": "42.1599006652832, -76.8916015625", "address": "42.1599006652832, -76.8916015625", "timezone": "America/New_York", "tzoffset": -5.0, "days": [{"datetime": "2020-01-04", "datetimeEpoch": 1578114000, "tempmax": 5.6, "tempmin": 1.7, "temp": 3.6, "feelslikemax": 5.6, "feelslikemin": -2.0, "feelslike": 1.5, "dew": 1.6, "humidity": 87.07, "precip": 8.0, "precipprob": null, "precipcover": 50.0, "preciptype": null, "snow": 0.0, "snowdepth": 0.0, "windgust": 33.5, "windspeed": 14.8, "winddir": 202.7, "pressure": 1005.8, "cloudcover": 95.8, "visibility": 11.7, "solarradiation": 23.7, "solarenergy": 0.9, "sunrise": "07:36:22", "sunriseEpoch": 1578141382, "sunset": "16:48:36", "sunsetEpoch": 1578174516, "moonphase": 0.31, "conditions": "Rain, Overcast", "icon": "rain", "stations": ["KITH", "72515594761", "72519454778", "KELM", "72515614748", "KPEO"], "source": "obs", "hours": null}], "stations": {"KITH": {"distance": 50901.0, "latitude": 42.48, "longitude": -76.45, "useCount": 0, "id": "KITH", "name": "ITHACA, NY", "quality": 100, "contribution": 0.0}, "72515594761": {"distance": 50191.0, "latitude": 42.483, "longitude": -76.467, "useCount": 0, "id": "72515594761", "name": "ITHACA TOMPKINS CNTY, NY US", "quality": 100, "contribution": 0.0}, "72519454778": {"distance": 55404.0, "latitude": 42.643, "longitude": -77.056, "useCount": 0, "id": "72519454778", "name": "PENN YAN AIRPORT, NY US", "quality": 100, "contribution": 0.0}, "KELM": {"distance": 1321.0, "latitude": 42.17, "longitude": -76.9, "useCount": 0, "id": "KELM", "name": "KELM", "quality": 100, "contribution": 0.0}, "72515614748": {"distance": 61.0, "latitude": 42.159, "longitude": -76.892, "useCount": 0, "id": "72515614748", "name": "ELMIRA CORNING REGIONAL AIRPORT, NY US", "quality": 100, "contribution": 0.0}, "KPEO": {"distance": 55008.0, "latitude": 42.64, "longitude": -77.05, "useCount": 0, "id": "KPEO", "name": "KPEO", "quality": 100, "contribution": 0.0}}}