{"queryCost": 1, "latitude": 42.1599006652832, "longitude": -76.8916015625, "resolvedAddress": "42.1599006652832, -76.8916015625", "address": "42.1599006652832, -76.8916015625", "timezone": "America/New_York", "tzoffset": -5.0, "days": [{"datetime": "2020-01-03", "datetimeEpoch": 1578027600, "tempmax": 7.2, "tempmin": -1.6, "temp": 4.2, "feelslikemax": 7.2, "feelslikemin": -1.6, "feelslike": 3.9, "dew": 1.9, "humidity": 85.59, "precip": 0.0, "precipprob": null, "precipcover": 4.17, "preciptype": null, "snow": 0.0, "snowdepth": 0.0, "windgust": null, "windspeed": 9.4, "winddir": 247.5, "pressure": 1008.5, "cloudcover": 95.8, "visibility": 14.2, "solarradiation": 39.3, "solarenergy": 1.4, "sunrise": "07:36:21", "sunriseEpoch": 1578054981, "sunset": "16:47:40", "sunsetEpoch": 1578088060, "moonphase": 0.26, "conditions": "Overcast", "icon": "cloudy", "stations": ["KITH", "72515594761", "72519454778", "KELM", "72515614748", "KPEO"], "source": "obs", "hours": null}], "stations": {"KITH": {"distance": 50901.0, "latitude": 42.48, "longitude": -76.45, "useCount": 0, "id": "KITH", "name": "ITHACA, NY", "quality": 100, "contribution": 0.0}, "72515594761": {"distance": 50191.0, "latitude": 42.483, "longitude": -76.467, "useCount": 0, "id": "72515594761", "name": "ITHACA TOMPKINS CNTY, NY US", "quality": 100, "contribution": 0.0}, "72519454778": {"distance": 55404.0, "latitude": 42.643, "longitude": -77.056, "useCount": 0, "id": "72519454778", "name": "PENN YAN AIRPORT, NY US", "quality": 100, "contribution": 0.0}, "KELM": {"distance": 1321.0, "latitude": 42.17, "longitude": -76.9, "useCount": 0, "id": "KELM", "name": "KELM", "quality": 100, "contribution": 0.0}, "72515614748": {"distance": 61.0, "latitude": 42.159, "longitude": -76.892, "useCount": 0, "id": "72515614748", "name": "ELMIRA CORNING REGIONAL AIRPORT, NY US", "quality": 100, "contribution": 0.0}, "KPEO": {"distance": 55008.0, "latitude": 42.64, "longitude": -77.05, "useCount": 0, "id": "KPEO", "name": "KPEO", "quality": 100, "contribution": 0.0}}}