{"queryCost": 1, "latitude": 31.80719948, "longitude": -106.3779984, "resolvedAddress": "31.80719948, -106.3779984", "address": "31.80719948, -106.3779984", "timezone": "America/Denver", "tzoffset": -6.0, "days": [{"datetime": "2019-09-18", "datetimeEpoch": 1568786400, "tempmax": 34.3, "tempmin": 22.1, "temp": 28.3, "feelslikemax": 32.1, "feelslikemin": 22.1, "feelslike": 27.3, "dew": 8.9, "humidity": 32.09, "precip": 0.0, "precipprob": null, "precipcover": 0.0, "preciptype": null, "snow": 0.0, "snowdepth": 0.0, "windgust": 33.5, "windspeed": 18.2, "winddir": 205.7, "pressure": 1009.0, "cloudcover": 38.1, "visibility": 16.0, "solarradiation": 476.3, "solarenergy": 20.6, "sunrise": "06:51:08", "sunriseEpoch": 1568811068, "sunset": "19:07:43", "sunsetEpoch": 1568855263, "moonphase": 0.59, "conditions": "Partially cloudy", "icon": "partly-cloudy-day", "stations": ["KLRU", "KBIF", "72270499999", "72364099999", "72270023044", "KELP"], "source": "obs", "hours": null}], "stations": {"KLRU": {"distance": 73387.0, "latitude": 32.28, "longitude": -106.92, "useCount": 0, "id": "KLRU", "name": "KLRU", "quality": 100, "contribution": 0.0}, "KBIF": {"distance": 4768.0, "latitude": 31.85, "longitude": -106.38, "useCount": 0, "id": "KBIF", "name": "KBIF", "quality": 98, "contribution": 0.0}, "72270499999": {"distance": 4713.0, "latitude": 31.85, "longitude": -106.38, "useCount": 0, "id": "72270499999", "name": "BIGGS ARMY AIR FIELD FORT BLISS TEXAS USA, TX US", "quality": 98, "contribution": 0.0}, "72364099999": {"distance": 31796.0, "latitude": 31.88, "longitude": -106.703, "useCount": 0, "id": "72364099999", "name": "DONA ANA CO INTERNATIONAL JETPORT ARPT SANTA TERESA, NM US", "quality": 100, "contribution": 0.0}, "72270023044": {"distance": 474.0, "latitude": 31.811, "longitude": -106.376, "useCount": 0, "id": "72270023044", "name": "EL PASO INTERNATIONAL AIRPORT, TX US", "quality": 100, "contribution": 0.0}, "KELP": {"distance": 2230.0, "latitude": 31.8, "longitude": -106.4, "useCount": 0, "id": "KELP", "name": "KELP", "quality": 100, "contribution": 0.0}}}