{"queryCost": 1, "latitude": 31.80719948, "longitude": -106.3779984, "resolvedAddress": "31.80719948, -106.3779984", "address": "31.80719948, -106.3779984", "timezone": "America/Denver", "tzoffset": -7.0, "days": [{"datetime": "2020-01-04", "datetimeEpoch": 1578121200, "tempmax": 13.8, "tempmin": -1.7, "temp": 5.8, "feelslikemax": 13.8, "feelslikemin": -3.4, "feelslike": 4.9, "dew": -5.5, "humidity": 47.69, "precip": 0.0, "precipprob": null, "precipcover": 0.0, "preciptype": null, "snow": 0.0, "snowdepth": 0.0, "windgust": null, "windspeed": 18.0, "winddir": 128.4, "pressure": 1027.2, "cloudcover": 21.5, "visibility": 15.7, "solarradiation": 330.4, "solarenergy": 14.3, "sunrise": "07:06:14", "sunriseEpoch": 1578146774, "sunset": "17:14:39", "sunsetEpoch": 1578183279, "moonphase": 0.31, "conditions": "Clear", "icon": "clear-day", "stations": ["KLRU", "KBIF", "72270499999", "72364099999", "72270023044", "KELP"], "source": "obs", "hours": null}], "stations": {"KLRU": {"distance": 73387.0, "latitude": 32.28, "longitude": -106.92, "useCount": 0, "id": "KLRU", "name": "KLRU", "quality": 100, "contribution": 0.0}, "KBIF": {"distance": 4768.0, "latitude": 31.85, "longitude": -106.38, "useCount": 0, "id": "KBIF", "name": "KBIF", "quality": 98, "contribution": 0.0}, "72270499999": {"distance": 4713.0, "latitude": 31.85, "longitude": -106.38, "useCount": 0, "id": "72270499999", "name": "BIGGS ARMY AIR FIELD FORT BLISS TEXAS USA, TX US", "quality": 98, "contribution": 0.0}, "72364099999": {"distance": 31796.0, "latitude": 31.88, "longitude": -106.703, "useCount": 0, "id": "72364099999", "name": "DONA ANA CO INTERNATIONAL JETPORT ARPT SANTA TERESA, NM US", "quality": 100, "contribution": 0.0}, "72270023044": {"distance": 474.0, "latitude": 31.811, "longitude": -106.376, "useCount": 0, "id": "72270023044", "name": "EL PASO INTERNATIONAL AIRPORT, TX US", "quality": 100, "contribution": 0.0}, "KELP": {"distance": 2230.0, "latitude": 31.8, "longitude": -106.4, "useCount": 0, "id": "KELP", "name": "KELP", "quality": 100, "contribution": 0.0}}}