{"queryCost": 1, "latitude": 42.0831270134, "longitude": -80.1738667488, "resolvedAddress": "42.0831270134, -80.1738667488", "address": "42.0831270134, -80.1738667488", "timezone": "America/New_York", "tzoffset": -5.0, "days": [{"datetime": "2020-01-07", "datetimeEpoch": 1578373200, "tempmax": 5.6, "tempmin": -0.7, "temp": 1.8, "feelslikemax": 2.9, "feelslikemin": -4.4, "feelslike": -1.7, "dew": -4.9, "humidity": 63.04, "precip": 1.5, "precipprob": null, "precipcover": 4.17, "preciptype": null, "snow": 4.31, "snowdepth": 3.29, "windgust": 51.8, "windspeed": 18.4, "winddir": 203.3, "pressure": 1014.8, "cloudcover": 26.0, "visibility": 15.1, "solarradiation": 156.3, "solarenergy": 5.6, "uvindex": 4.0, "sunrise": "07:49:02", "sunriseEpoch": 1578401342, "sunset": "17:04:53", "sunsetEpoch": 1578434693, "moonphase": 0.44, "conditions": "Snow, Partially cloudy", "description": "Partly cloudly with late afternoon rain or snow.", "icon": "snow", "stations": ["72525604857", "KERI", "KGKJ", "72526014860", "72510404843", "KHZY"], "source": "obs", "hours": null}], "stations": {"72525604857": {"distance": 54967.0, "latitude": 41.778, "longitude": -80.696, "useCount": 0, "id": "72525604857", "name": "ASHTABULA CO AIRPORT, OH US", "quality": 100, "contribution": 0.0}, "KERI": {"distance": 615.0, "latitude": 42.08, "longitude": -80.18, "useCount": 0, "id": "KERI", "name": "KERI", "quality": 100, "contribution": 0.0}, "KGKJ": {"distance": 50488.0, "latitude": 41.63, "longitude": -80.2, "useCount": 0, "id": "KGKJ", "name": "KGKJ", "quality": 100, "contribution": 0.0}, "72526014860": {"distance": 772.0, "latitude": 42.08, "longitude": -80.182, "useCount": 0, "id": "72526014860", "name": "ERIE INTERNATIONAL AIRPORT, PA US", "quality": 100, "contribution": 0.0}, "72510404843": {"distance": 50957.0, "latitude": 41.626, "longitude": -80.215, "useCount": 0, "id": "72510404843", "name": "MEADVILLE PORT MEADVILLE AIRPORT, PA US", "quality": 100, "contribution": 0.0}, "KHZY": {"distance": 55110.0, "latitude": 41.78, "longitude": -80.7, "useCount": 0, "id": "KHZY", "name": "KHZY", "quality": 100, "contribution": 0.0}}}