{"queryCost": 1, "latitude": 44.12459945678711, "longitude": -123.21199798583984, "resolvedAddress": "44.12459945678711, -123.21199798583984", "address": "44.12459945678711, -123.21199798583984", "timezone": "America/Los_Angeles", "tzoffset": -8.0, "days": [{"datetime": "2020-01-06", "datetimeEpoch": 1578297600, "tempmax": 11.1, "tempmin": 6.2, "temp": 8.4, "feelslikemax": 11.1, "feelslikemin": 3.0, "feelslike": 5.6, "dew": 4.6, "humidity": 77.07, "precip": 1.21, "precipprob": null, "precipcover": 70.83, "preciptype": null, "snow": 0.0, "snowdepth": 0.0, "windgust": 50.0, "windspeed": 40.7, "winddir": 182.5, "pressure": 1030.5, "cloudcover": 83.9, "visibility": 15.9, "solarradiation": 79.1, "solarenergy": 2.8, "sunrise": "07:47:56", "sunriseEpoch": 1578325676, "sunset": "16:49:32", "sunsetEpoch": 1578358172, "moonphase": 0.4, "conditions": "Rain, Overcast", "icon": "rain", "stations": ["KCVO", "72693024221", "99999904236", "K6S2", "72694524202", "KEUG"], "source": "obs", "hours": null}], "stations": {"KCVO": {"distance": 42139.0, "latitude": 44.5, "longitude": -123.28, "useCount": 0, "id": "KCVO", "name": "CORVALLIS MUNI A, OR", "quality": 100, "contribution": 0.0}, "72693024221": {"distance": 803.0, "latitude": 44.128, "longitude": -123.221, "useCount": 0, "id": "72693024221", "name": "EUGENE MAHLON SWEET FIELD, OR US", "quality": 100, "contribution": 0.0}, "99999904236": {"distance": 33955.0, "latitude": 44.419, "longitude": -123.326, "useCount": 0, "id": "99999904236", "name": "CORVALLIS 10 SSW, OR US", "quality": 100, "contribution": 0.0}, "K6S2": {"distance": 73626.0, "latitude": 43.98, "longitude": -124.11, "useCount": 0, "id": "K6S2", "name": "K6S2", "quality": 99, "contribution": 0.0}, "72694524202": {"distance": 42170.0, "latitude": 44.5, "longitude": -123.283, "useCount": 0, "id": "72694524202", "name": "CORVALLIS, OR US", "quality": 100, "contribution": 0.0}, "KEUG": {"distance": 819.0, "latitude": 44.12, "longitude": -123.22, "useCount": 0, "id": "KEUG", "name": "KEUG", "quality": 100, "contribution": 0.0}}}