{"queryCost": 1, "latitude": 44.12459945678711, "longitude": -123.21199798583984, "resolvedAddress": "44.12459945678711, -123.21199798583984", "address": "44.12459945678711, -123.21199798583984", "timezone": "America/Los_Angeles", "tzoffset": -8.0, "days": [{"datetime": "2019-01-04", "datetimeEpoch": 1546588800, "tempmax": 11.7, "tempmin": 5.0, "temp": 8.1, "feelslikemax": 11.7, "feelslikemin": 3.3, "feelslike": 7.1, "dew": 5.3, "humidity": 82.88, "precip": 0.3, "precipprob": null, "precipcover": 37.5, "preciptype": null, "snow": 0.0, "snowdepth": 0.0, "windgust": 31.7, "windspeed": 18.4, "winddir": 194.2, "pressure": 1011.6, "cloudcover": 80.0, "visibility": 12.6, "solarradiation": 74.4, "solarenergy": 2.7, "sunrise": "07:48:06", "sunriseEpoch": 1546616886, "sunset": "16:47:45", "sunsetEpoch": 1546649265, "moonphase": 0.99, "conditions": "Rain, Overcast", "icon": "rain", "stations": ["KCVO", "72693024221", "99999904236", "K6S2", "72694524202", "KEUG"], "source": "obs", "hours": null}], "stations": {"KCVO": {"distance": 42139.0, "latitude": 44.5, "longitude": -123.28, "useCount": 0, "id": "KCVO", "name": "CORVALLIS MUNI A, OR", "quality": 100, "contribution": 0.0}, "72693024221": {"distance": 803.0, "latitude": 44.128, "longitude": -123.221, "useCount": 0, "id": "72693024221", "name": "EUGENE MAHLON SWEET FIELD, OR US", "quality": 100, "contribution": 0.0}, "99999904236": {"distance": 33955.0, "latitude": 44.419, "longitude": -123.326, "useCount": 0, "id": "99999904236", "name": "CORVALLIS 10 SSW, OR US", "quality": 100, "contribution": 0.0}, "K6S2": {"distance": 73626.0, "latitude": 43.98, "longitude": -124.11, "useCount": 0, "id": "K6S2", "name": "K6S2", "quality": 99, "contribution": 0.0}, "72694524202": {"distance": 42170.0, "latitude": 44.5, "longitude": -123.283, "useCount": 0, "id": "72694524202", "name": "CORVALLIS, OR US", "quality": 100, "contribution": 0.0}, "KEUG": {"distance": 819.0, "latitude": 44.12, "longitude": -123.22, "useCount": 0, "id": "KEUG", "name": "KEUG", "quality": 100, "contribution": 0.0}}}