{"queryCost": 1, "latitude": 38.0369987488, "longitude": -87.5324020386, "resolvedAddress": "38.0369987488, -87.5324020386", "address": "38.0369987488, -87.5324020386", "timezone": "America/Chicago", "tzoffset": -6.0, "days": [{"datetime": "2020-01-02", "datetimeEpoch": 1577944800, "tempmax": 10.7, "tempmin": 5.6, "temp": 8.3, "feelslikemax": 10.7, "feelslikemin": 2.6, "feelslike": 6.5, "dew": 3.4, "humidity": 73.41, "precip": 4.38, "precipprob": null, "precipcover": 37.5, "preciptype": null, "snow": 0.0, "snowdepth": 0.0, "windgust": 50.0, "windspeed": 25.9, "winddir": 173.8, "pressure": 1007.7, "cloudcover": 80.5, "visibility": 12.1, "solarradiation": 34.2, "solarenergy": 1.2, "sunrise": "07:06:30", "sunriseEpoch": 1577970390, "sunset": "16:41:43", "sunsetEpoch": 1578004903, "moonphase": 0.22, "conditions": "Rain, Overcast", "icon": "rain", "stations": ["72423853886", "72432093817", "KEHR", "72423753803", "KEVV", "KOWB"], "source": "obs", "hours": null}], "stations": {"72423853886": {"distance": 29524.0, "latitude": 37.8, "longitude": -87.683, "useCount": 0, "id": "72423853886", "name": "HENDERSON CITY CO AIRPORT, KY US", "quality": 100, "contribution": 0.0}, "72432093817": {"distance": 1309.0, "latitude": 38.044, "longitude": -87.52, "useCount": 0, "id": "72432093817", "name": "EVANSVILLE REGIONAL AIRPORT, IN US", "quality": 100, "contribution": 0.0}, "KEHR": {"distance": 27413.0, "latitude": 37.82, "longitude": -87.68, "useCount": 0, "id": "KEHR", "name": "HENDERSON CITY, KY", "quality": 100, "contribution": 0.0}, "72423753803": {"distance": 45308.0, "latitude": 37.75, "longitude": -87.167, "useCount": 0, "id": "72423753803", "name": "OWENSBORO DAVIESS CO REGIONAL AIRPORT, KY US", "quality": 100, "contribution": 0.0}, "KEVV": {"distance": 395.0, "latitude": 38.04, "longitude": -87.53, "useCount": 0, "id": "KEVV", "name": "KEVV", "quality": 100, "contribution": 0.0}, "KOWB": {"distance": 46709.0, "latitude": 37.73, "longitude": -87.17, "useCount": 0, "id": "KOWB", "name": "OWENSBORO, KY", "quality": 100, "contribution": 0.0}}}