{"queryCost": 1, "latitude": 40.692501068115234, "longitude": -74.168701171875, "resolvedAddress": "40.692501068115234, -74.168701171875", "address": "40.692501068115234, -74.168701171875", "timezone": "America/New_York", "tzoffset": -4.0, "days": [{"datetime": "2019-07-05", "datetimeEpoch": 1562299200, "tempmax": 27.9, "tempmin": 23.3, "temp": 25.5, "feelslikemax": 30.6, "feelslikemin": 23.3, "feelslike": 26.3, "dew": 21.7, "humidity": 79.96, "precip": 0.0, "precipprob": null, "precipcover": 0.0, "preciptype": null, "snow": 0.0, "snowdepth": 0.0, "windgust": 27.7, "windspeed": 20.5, "winddir": 131.5, "pressure": 1019.9, "cloudcover": 74.1, "visibility": 15.2, "solarradiation": 318.6, "solarenergy": 18.4, "sunrise": "05:31:25", "sunriseEpoch": 1562319085, "sunset": "20:30:53", "sunsetEpoch": 1562373053, "moonphase": 0.05, "conditions": "Partially cloudy", "icon": "partly-cloudy-day", "stations": ["72505394728", "KEWR", "72055399999", "72502014734", "KJRB", "KNYC"], "source": "obs", "hours": null}], "stations": {"72505394728": {"distance": 19381.0, "latitude": 40.779, "longitude": -73.969, "useCount": 0, "id": "72505394728", "name": "NY CITY CENTRAL PARK, NY US", "quality": 100, "contribution": 0.0}, "KEWR": {"distance": 842.0, "latitude": 40.7, "longitude": -74.17, "useCount": 0, "id": "KEWR", "name": "KEWR", "quality": 100, "contribution": 0.0}, "72055399999": {"distance": 13513.0, "latitude": 40.701, "longitude": -74.009, "useCount": 0, "id": "72055399999", "name": "PORT AUTH DOWNTN MANHATTAN WALL ST HEL, NY US", "quality": 100, "contribution": 0.0}, "72502014734": {"distance": 1115.0, "latitude": 40.683, "longitude": -74.169, "useCount": 0, "id": "72502014734", "name": "NEWARK LIBERTY INTERNATIONAL AIRPORT, NJ US", "quality": 100, "contribution": 0.0}, "KJRB": {"distance": 13513.0, "latitude": 40.701, "longitude": -74.009, "useCount": 0, "id": "KJRB", "name": "Downtown Manhattan/wall St, New York", "quality": 100, "contribution": 0.0}, "KNYC": {"distance": 18106.0, "latitude": 40.77, "longitude": -73.98, "useCount": 0, "id": "KNYC", "name": "KNYC", "quality": 100, "contribution": 0.0}}}