{"queryCost": 1, "latitude": 40.692501068115234, "longitude": -74.168701171875, "resolvedAddress": "40.692501068115234, -74.168701171875", "address": "40.692501068115234, -74.168701171875", "timezone": "America/New_York", "tzoffset": -4.0, "days": [{"datetime": "2019-04-12", "datetimeEpoch": 1555041600, "tempmax": 20.0, "tempmin": 8.4, "temp": 13.0, "feelslikemax": 20.0, "feelslikemin": 6.8, "feelslike": 12.4, "dew": 6.1, "humidity": 64.3, "precip": 11.29, "precipprob": null, "precipcover": 20.83, "preciptype": null, "snow": 0.0, "snowdepth": 0.0, "windgust": 74.0, "windspeed": 25.8, "winddir": 107.6, "pressure": 1022.9, "cloudcover": 70.7, "visibility": 14.9, "solarradiation": 322.1, "solarenergy": 15.1, "sunrise": "06:22:54", "sunriseEpoch": 1555064574, "sunset": "19:32:45", "sunsetEpoch": 1555111965, "moonphase": 0.23, "conditions": "Rain, Partially cloudy", "icon": "rain", "stations": ["72505394728", "KEWR", "72055399999", "72502014734", "KJRB", "KNYC"], "source": "obs", "hours": null}], "stations": {"72505394728": {"distance": 19381.0, "latitude": 40.779, "longitude": -73.969, "useCount": 0, "id": "72505394728", "name": "NY CITY CENTRAL PARK, NY US", "quality": 100, "contribution": 0.0}, "KEWR": {"distance": 842.0, "latitude": 40.7, "longitude": -74.17, "useCount": 0, "id": "KEWR", "name": "KEWR", "quality": 100, "contribution": 0.0}, "72055399999": {"distance": 13513.0, "latitude": 40.701, "longitude": -74.009, "useCount": 0, "id": "72055399999", "name": "PORT AUTH DOWNTN MANHATTAN WALL ST HEL, NY US", "quality": 100, "contribution": 0.0}, "72502014734": {"distance": 1115.0, "latitude": 40.683, "longitude": -74.169, "useCount": 0, "id": "72502014734", "name": "NEWARK LIBERTY INTERNATIONAL AIRPORT, NJ US", "quality": 100, "contribution": 0.0}, "KJRB": {"distance": 13513.0, "latitude": 40.701, "longitude": -74.009, "useCount": 0, "id": "KJRB", "name": "Downtown Manhattan/wall St, New York", "quality": 100, "contribution": 0.0}, "KNYC": {"distance": 18106.0, "latitude": 40.77, "longitude": -73.98, "useCount": 0, "id": "KNYC", "name": "KNYC", "quality": 100, "contribution": 0.0}}}