{"queryCost": 1, "latitude": 40.692501068115234, "longitude": -74.168701171875, "resolvedAddress": "40.692501068115234, -74.168701171875", "address": "40.692501068115234, -74.168701171875", "timezone": "America/New_York", "tzoffset": -4.0, "days": [{"datetime": "2019-03-15", "datetimeEpoch": 1552622400, "tempmax": 23.8, "tempmin": 7.9, "temp": 16.4, "feelslikemax": 23.8, "feelslikemin": 7.2, "feelslike": 16.3, "dew": 11.0, "humidity": 72.26, "precip": 13.22, "precipprob": null, "precipcover": 25.0, "preciptype": null, "snow": 0.0, "snowdepth": 0.0, "windgust": 59.2, "windspeed": 44.5, "winddir": 165.1, "pressure": 1008.5, "cloudcover": 55.1, "visibility": 14.8, "solarradiation": 260.3, "solarenergy": 12.2, "sunrise": "07:08:36", "sunriseEpoch": 1552648116, "sunset": "19:03:15", "sunsetEpoch": 1552690995, "moonphase": 0.31, "conditions": "Rain, Partially cloudy", "icon": "rain", "stations": ["72505394728", "KEWR", "72055399999", "72502014734", "KJRB", "KNYC"], "source": "obs", "hours": null}], "stations": {"72505394728": {"distance": 19381.0, "latitude": 40.779, "longitude": -73.969, "useCount": 0, "id": "72505394728", "name": "NY CITY CENTRAL PARK, NY US", "quality": 100, "contribution": 0.0}, "KEWR": {"distance": 842.0, "latitude": 40.7, "longitude": -74.17, "useCount": 0, "id": "KEWR", "name": "KEWR", "quality": 100, "contribution": 0.0}, "72055399999": {"distance": 13513.0, "latitude": 40.701, "longitude": -74.009, "useCount": 0, "id": "72055399999", "name": "PORT AUTH DOWNTN MANHATTAN WALL ST HEL, NY US", "quality": 100, "contribution": 0.0}, "72502014734": {"distance": 1115.0, "latitude": 40.683, "longitude": -74.169, "useCount": 0, "id": "72502014734", "name": "NEWARK LIBERTY INTERNATIONAL AIRPORT, NJ US", "quality": 100, "contribution": 0.0}, "KJRB": {"distance": 13513.0, "latitude": 40.701, "longitude": -74.009, "useCount": 0, "id": "KJRB", "name": "Downtown Manhattan/wall St, New York", "quality": 100, "contribution": 0.0}, "KNYC": {"distance": 18106.0, "latitude": 40.77, "longitude": -73.98, "useCount": 0, "id": "KNYC", "name": "KNYC", "quality": 100, "contribution": 0.0}}}