{"queryCost": 1, "latitude": 40.692501068115234, "longitude": -74.168701171875, "resolvedAddress": "40.692501068115234, -74.168701171875", "address": "40.692501068115234, -74.168701171875", "timezone": "America/New_York", "tzoffset": -4.0, "days": [{"datetime": "2019-06-29", "datetimeEpoch": 1561780800, "tempmax": 33.8, "tempmin": 22.9, "temp": 26.8, "feelslikemax": 35.2, "feelslikemin": 22.9, "feelslike": 27.4, "dew": 19.4, "humidity": 66.31, "precip": 8.06, "precipprob": null, "precipcover": 12.5, "preciptype": null, "snow": 0.0, "snowdepth": 0.0, "windgust": 79.6, "windspeed": 25.9, "winddir": 235.0, "pressure": 1014.9, "cloudcover": 41.7, "visibility": 15.6, "solarradiation": 506.0, "solarenergy": 21.9, "sunrise": "05:28:20", "sunriseEpoch": 1561800500, "sunset": "20:31:49", "sunsetEpoch": 1561854709, "moonphase": 0.94, "conditions": "Rain, Partially cloudy", "icon": "rain", "stations": ["72505394728", "KEWR", "72055399999", "72502014734", "KJRB", "KNYC"], "source": "obs", "hours": null}], "stations": {"72505394728": {"distance": 19381.0, "latitude": 40.779, "longitude": -73.969, "useCount": 0, "id": "72505394728", "name": "NY CITY CENTRAL PARK, NY US", "quality": 100, "contribution": 0.0}, "KEWR": {"distance": 842.0, "latitude": 40.7, "longitude": -74.17, "useCount": 0, "id": "KEWR", "name": "KEWR", "quality": 100, "contribution": 0.0}, "72055399999": {"distance": 13513.0, "latitude": 40.701, "longitude": -74.009, "useCount": 0, "id": "72055399999", "name": "PORT AUTH DOWNTN MANHATTAN WALL ST HEL, NY US", "quality": 100, "contribution": 0.0}, "72502014734": {"distance": 1115.0, "latitude": 40.683, "longitude": -74.169, "useCount": 0, "id": "72502014734", "name": "NEWARK LIBERTY INTERNATIONAL AIRPORT, NJ US", "quality": 100, "contribution": 0.0}, "KJRB": {"distance": 13513.0, "latitude": 40.701, "longitude": -74.009, "useCount": 0, "id": "KJRB", "name": "Downtown Manhattan/wall St, New York", "quality": 100, "contribution": 0.0}, "KNYC": {"distance": 18106.0, "latitude": 40.77, "longitude": -73.98, "useCount": 0, "id": "KNYC", "name": "KNYC", "quality": 100, "contribution": 0.0}}}