{"queryCost": 1, "latitude": 64.81510162, "longitude": -147.8560028, "resolvedAddress": "64.81510162, -147.8560028", "address": "64.81510162, -147.8560028", "timezone": "America/Anchorage", "tzoffset": -9.0, "days": [{"datetime": "2020-01-03", "datetimeEpoch": 1578042000, "tempmax": -23.3, "tempmin": -35.9, "temp": -29.5, "feelslikemax": -23.3, "feelslikemin": -35.9, "feelslike": -29.5, "dew": -32.9, "humidity": 72.69, "precip": 0.0, "precipprob": null, "precipcover": 4.17, "preciptype": null, "snow": 0.0, "snowdepth": 41.15, "windgust": null, "windspeed": 0.0, "winddir": 0.0, "pressure": 1008.6, "cloudcover": 35.1, "visibility": 14.9, "solarradiation": 6.0, "solarenergy": 0.1, "sunrise": "10:51:58", "sunriseEpoch": 1578081118, "sunset": "15:00:07", "sunsetEpoch": 1578096007, "moonphase": 0.26, "conditions": "Partially cloudy", "icon": "partly-cloudy-day", "stations": ["PAEI", "PAFB", "PAFA", "70261026411", "99999926494", "70265026407"], "source": "obs", "hours": null}], "stations": {"PAEI": {"distance": 39374.0, "latitude": 64.67, "longitude": -147.1, "useCount": 0, "id": "PAEI", "name": "PAEI", "quality": 100, "contribution": 0.0}, "PAFB": {"distance": 11299.0, "latitude": 64.83, "longitude": -147.62, "useCount": 0, "id": "PAFB", "name": "PAFB", "quality": 98, "contribution": 0.0}, "PAFA": {"distance": 858.0, "latitude": 64.82, "longitude": -147.87, "useCount": 0, "id": "PAFA", "name": "FAIRBNKS INTLARPT, AK", "quality": 100, "contribution": 0.0}, "70261026411": {"distance": 1566.0, "latitude": 64.804, "longitude": -147.876, "useCount": 0, "id": "70261026411", "name": "FAIRBANKS INTERNATIONAL AIRPORT, AK US", "quality": 100, "contribution": 0.0}, "99999926494": {"distance": 24041.0, "latitude": 64.974, "longitude": -147.51, "useCount": 0, "id": "99999926494", "name": "FAIRBANKS 11 NE, AK US", "quality": 99, "contribution": 0.0}, "70265026407": {"distance": 39531.0, "latitude": 64.683, "longitude": -147.083, "useCount": 0, "id": "70265026407", "name": "EIELSON FIELD, AK US", "quality": 99, "contribution": 0.0}}}