{"queryCost": 1, "latitude": 64.81510162, "longitude": -147.8560028, "resolvedAddress": "64.81510162, -147.8560028", "address": "64.81510162, -147.8560028", "timezone": "America/Anchorage", "tzoffset": -8.0, "days": [{"datetime": "2018-06-16", "datetimeEpoch": 1529136000, "tempmax": 18.3, "tempmin": 10.0, "temp": 14.0, "feelslikemax": 18.3, "feelslikemin": 9.1, "feelslike": 13.9, "dew": 7.1, "humidity": 64.05, "precip": 0.0, "precipprob": null, "precipcover": 12.5, "preciptype": null, "snow": 0.0, "snowdepth": 0.0, "windgust": null, "windspeed": 11.1, "winddir": 130.7, "pressure": 1004.2, "cloudcover": 92.2, "visibility": 16.0, "solarradiation": 101.5, "solarenergy": 4.8, "sunrise": "03:01:00", "sunriseEpoch": 1529146860, "sunset": "00:44:24", "sunsetEpoch": 1529225064, "moonphase": 0.05, "conditions": "Overcast", "icon": "cloudy", "stations": ["PAEI", "PAFB", "PAFA", "70261026411", "99999926494", "70265026407"], "source": "obs", "hours": null}], "stations": {"PAEI": {"distance": 39374.0, "latitude": 64.67, "longitude": -147.1, "useCount": 0, "id": "PAEI", "name": "PAEI", "quality": 100, "contribution": 0.0}, "PAFB": {"distance": 11299.0, "latitude": 64.83, "longitude": -147.62, "useCount": 0, "id": "PAFB", "name": "PAFB", "quality": 98, "contribution": 0.0}, "PAFA": {"distance": 858.0, "latitude": 64.82, "longitude": -147.87, "useCount": 0, "id": "PAFA", "name": "FAIRBNKS INTLARPT, AK", "quality": 100, "contribution": 0.0}, "70261026411": {"distance": 1566.0, "latitude": 64.804, "longitude": -147.876, "useCount": 0, "id": "70261026411", "name": "FAIRBANKS INTERNATIONAL AIRPORT, AK US", "quality": 100, "contribution": 0.0}, "99999926494": {"distance": 24041.0, "latitude": 64.974, "longitude": -147.51, "useCount": 0, "id": "99999926494", "name": "FAIRBANKS 11 NE, AK US", "quality": 99, "contribution": 0.0}, "70265026407": {"distance": 39531.0, "latitude": 64.683, "longitude": -147.083, "useCount": 0, "id": "70265026407", "name": "EIELSON FIELD, AK US", "quality": 99, "contribution": 0.0}}}