{"queryCost": 1, "latitude": 36.776199, "longitude": -119.718002, "resolvedAddress": "36.776199, -119.718002", "address": "36.776199, -119.718002", "timezone": "America/Los_Angeles", "tzoffset": -7.0, "days": [{"datetime": "2019-06-05", "datetimeEpoch": 1559718000, "tempmax": 37.9, "tempmin": 24.3, "temp": 31.2, "feelslikemax": 36.8, "feelslikemin": 24.3, "feelslike": 31.2, "dew": 15.8, "humidity": 42.72, "precip": 0.0, "precipprob": null, "precipcover": 0.0, "preciptype": null, "snow": 0.0, "snowdepth": 0.0, "windgust": null, "windspeed": 25.9, "winddir": 205.4, "pressure": 1009.2, "cloudcover": 15.5, "visibility": 15.7, "solarradiation": 468.9, "solarenergy": 25.3, "sunrise": "05:40:20", "sunriseEpoch": 1559738420, "sunset": "20:14:42", "sunsetEpoch": 1559790882, "moonphase": 0.03, "conditions": "Clear", "icon": "clear-day", "stations": ["KHJO", "KMAE", "74504693242", "KFAT", "72389093193", "72389853119"], "source": "obs", "hours": null}], "stations": {"KHJO": {"distance": 51390.0, "latitude": 36.32, "longitude": -119.63, "useCount": 0, "id": "KHJO", "name": "KHJO", "quality": 100, "contribution": 0.0}, "KMAE": {"distance": 42246.0, "latitude": 36.99, "longitude": -120.11, "useCount": 0, "id": "KMAE", "name": "KMAE", "quality": 100, "contribution": 0.0}, "74504693242": {"distance": 42183.0, "latitude": 36.988, "longitude": -120.111, "useCount": 0, "id": "74504693242", "name": "MADERA MUNICIPAL AIRPORT, CA US", "quality": 100, "contribution": 0.0}, "KFAT": {"distance": 713.0, "latitude": 36.77, "longitude": -119.72, "useCount": 0, "id": "KFAT", "name": "KFAT", "quality": 100, "contribution": 0.0}, "72389093193": {"distance": 432.0, "latitude": 36.78, "longitude": -119.719, "useCount": 0, "id": "72389093193", "name": "FRESNO YOSEMITE INTERNATIONAL, CA US", "quality": 100, "contribution": 0.0}, "72389853119": {"distance": 51525.0, "latitude": 36.319, "longitude": -119.629, "useCount": 0, "id": "72389853119", "name": "HANFORD MUNICIPAL AIRPORT, CA US", "quality": 100, "contribution": 0.0}}}