{"queryCost": 1, "latitude": 36.776199, "longitude": -119.718002, "resolvedAddress": "36.776199, -119.718002", "address": "36.776199, -119.718002", "timezone": "America/Los_Angeles", "tzoffset": -7.0, "days": [{"datetime": "2018-05-09", "datetimeEpoch": 1525849200, "tempmax": 30.0, "tempmin": 16.7, "temp": 23.8, "feelslikemax": 28.6, "feelslikemin": 16.7, "feelslike": 23.5, "dew": 8.8, "humidity": 39.94, "precip": 0.0, "precipprob": null, "precipcover": 0.0, "preciptype": null, "snow": 0.0, "snowdepth": 0.0, "windgust": 33.5, "windspeed": 31.7, "winddir": 305.8, "pressure": 1014.5, "cloudcover": 19.2, "visibility": 16.0, "solarradiation": 566.9, "solarenergy": 28.6, "sunrise": "05:56:31", "sunriseEpoch": 1525870591, "sunset": "19:54:36", "sunsetEpoch": 1525920876, "moonphase": 0.82, "conditions": "Clear", "icon": "wind", "stations": ["KHJO", "KMAE", "74504693242", "KFAT", "72389093193", "72389853119"], "source": "obs", "hours": null}], "stations": {"KHJO": {"distance": 51390.0, "latitude": 36.32, "longitude": -119.63, "useCount": 0, "id": "KHJO", "name": "KHJO", "quality": 100, "contribution": 0.0}, "KMAE": {"distance": 42246.0, "latitude": 36.99, "longitude": -120.11, "useCount": 0, "id": "KMAE", "name": "KMAE", "quality": 100, "contribution": 0.0}, "74504693242": {"distance": 42183.0, "latitude": 36.988, "longitude": -120.111, "useCount": 0, "id": "74504693242", "name": "MADERA MUNICIPAL AIRPORT, CA US", "quality": 100, "contribution": 0.0}, "KFAT": {"distance": 713.0, "latitude": 36.77, "longitude": -119.72, "useCount": 0, "id": "KFAT", "name": "KFAT", "quality": 100, "contribution": 0.0}, "72389093193": {"distance": 432.0, "latitude": 36.78, "longitude": -119.719, "useCount": 0, "id": "72389093193", "name": "FRESNO YOSEMITE INTERNATIONAL, CA US", "quality": 100, "contribution": 0.0}, "72389853119": {"distance": 51525.0, "latitude": 36.319, "longitude": -119.629, "useCount": 0, "id": "72389853119", "name": "HANFORD MUNICIPAL AIRPORT, CA US", "quality": 100, "contribution": 0.0}}}