{"queryCost": 1, "latitude": 34.9911994934082, "longitude": -78.88030242919922, "resolvedAddress": "34.9911994934082, -78.88030242919922", "address": "34.9911994934082, -78.88030242919922", "timezone": "America/New_York", "tzoffset": -5.0, "days": [{"datetime": "2020-01-01", "datetimeEpoch": 1577854800, "tempmax": 13.9, "tempmin": 2.2, "temp": 7.7, "feelslikemax": 13.9, "feelslikemin": -1.0, "feelslike": 6.2, "dew": -0.2, "humidity": 59.69, "precip": 0.0, "precipprob": null, "precipcover": 0.0, "preciptype": null, "snow": 0.0, "snowdepth": 0.0, "windgust": null, "windspeed": 25.9, "winddir": 249.9, "pressure": 1013.5, "cloudcover": 0.0, "visibility": 16.0, "solarradiation": 245.5, "solarenergy": 9.7, "sunrise": "07:23:33", "sunriseEpoch": 1577881413, "sunset": "17:14:29", "sunsetEpoch": 1577916869, "moonphase": 0.17, "conditions": "Clear", "icon": "clear-day", "stations": ["KFAY", "72303593740", "KFBG", "74693093737", "72303013714", "KPOB"], "source": "obs", "hours": null}], "stations": {"KFAY": {"distance": 2360.0, "latitude": 34.97, "longitude": -78.88, "useCount": 0, "id": "KFAY", "name": "KFAY", "quality": 100, "contribution": 0.0}, "72303593740": {"distance": 22.0, "latitude": 34.991, "longitude": -78.88, "useCount": 0, "id": "72303593740", "name": "FAYETTEVILLE REGIONAL AIRPORT GRANNIS FIELD, NC US", "quality": 100, "contribution": 0.0}, "KFBG": {"distance": 16101.0, "latitude": 35.13, "longitude": -78.93, "useCount": 0, "id": "KFBG", "name": "KFBG", "quality": 100, "contribution": 0.0}, "74693093737": {"distance": 16539.0, "latitude": 35.133, "longitude": -78.933, "useCount": 0, "id": "74693093737", "name": "FORT BRAGG SIMMONS ARMY AIR FIELD, NC US", "quality": 99, "contribution": 0.0}, "72303013714": {"distance": 23471.0, "latitude": 35.174, "longitude": -79.009, "useCount": 0, "id": "72303013714", "name": "FAYETTEVILLE POPE AFB, NC US", "quality": 100, "contribution": 0.0}, "KPOB": {"distance": 21263.0, "latitude": 35.15, "longitude": -79.01, "useCount": 0, "id": "KPOB", "name": "KPOB", "quality": 100, "contribution": 0.0}}}