{"queryCost": 1, "latitude": 34.9911994934082, "longitude": -78.88030242919922, "resolvedAddress": "34.9911994934082, -78.88030242919922", "address": "34.9911994934082, -78.88030242919922", "timezone": "America/New_York", "tzoffset": -5.0, "days": [{"datetime": "2020-01-04", "datetimeEpoch": 1578114000, "tempmax": 20.0, "tempmin": 8.8, "temp": 16.8, "feelslikemax": 20.0, "feelslikemin": 5.0, "feelslike": 16.7, "dew": 12.2, "humidity": 76.2, "precip": 14.1, "precipprob": null, "precipcover": 50.0, "preciptype": null, "snow": 0.0, "snowdepth": 0.0, "windgust": 60.8, "windspeed": 42.5, "winddir": 237.9, "pressure": 1007.8, "cloudcover": 78.7, "visibility": 13.9, "solarradiation": 84.4, "solarenergy": 3.3, "sunrise": "07:24:00", "sunriseEpoch": 1578140640, "sunset": "17:16:51", "sunsetEpoch": 1578176211, "moonphase": 0.31, "conditions": "Rain, Overcast", "icon": "rain", "stations": ["KFAY", "72303593740", "KFBG", "74693093737", "72303013714", "KPOB"], "source": "obs", "hours": null}], "stations": {"KFAY": {"distance": 2360.0, "latitude": 34.97, "longitude": -78.88, "useCount": 0, "id": "KFAY", "name": "KFAY", "quality": 100, "contribution": 0.0}, "72303593740": {"distance": 22.0, "latitude": 34.991, "longitude": -78.88, "useCount": 0, "id": "72303593740", "name": "FAYETTEVILLE REGIONAL AIRPORT GRANNIS FIELD, NC US", "quality": 100, "contribution": 0.0}, "KFBG": {"distance": 16101.0, "latitude": 35.13, "longitude": -78.93, "useCount": 0, "id": "KFBG", "name": "KFBG", "quality": 100, "contribution": 0.0}, "74693093737": {"distance": 16539.0, "latitude": 35.133, "longitude": -78.933, "useCount": 0, "id": "74693093737", "name": "FORT BRAGG SIMMONS ARMY AIR FIELD, NC US", "quality": 99, "contribution": 0.0}, "72303013714": {"distance": 23471.0, "latitude": 35.174, "longitude": -79.009, "useCount": 0, "id": "72303013714", "name": "FAYETTEVILLE POPE AFB, NC US", "quality": 100, "contribution": 0.0}, "KPOB": {"distance": 21263.0, "latitude": 35.15, "longitude": -79.01, "useCount": 0, "id": "KPOB", "name": "KPOB", "quality": 100, "contribution": 0.0}}}