{"queryCost": 1, "latitude": 26.072599, "longitude": -80.152702, "resolvedAddress": "26.072599, -80.152702", "address": "26.072599, -80.152702", "timezone": "America/New_York", "tzoffset": -5.0, "days": [{"datetime": "2019-12-27", "datetimeEpoch": 1577422800, "tempmax": 26.7, "tempmin": 22.9, "temp": 24.5, "feelslikemax": 28.5, "feelslikemin": 22.9, "feelslike": 24.7, "dew": 21.5, "humidity": 83.79, "precip": 5.25, "precipprob": null, "precipcover": 58.33, "preciptype": null, "snow": 0.0, "snowdepth": 0.0, "windgust": 51.8, "windspeed": 31.7, "winddir": 109.5, "pressure": 1017.1, "cloudcover": 39.1, "visibility": 15.3, "solarradiation": 166.4, "solarenergy": 12.0, "sunrise": "07:06:14", "sunriseEpoch": 1577448374, "sunset": "17:37:05", "sunsetEpoch": 1577486225, "moonphase": 0.01, "conditions": "Rain, Partially cloudy", "icon": "rain", "stations": ["74783012849", "72204992805", "KFLL", "72203912885", "KFXE", "KPMP"], "source": "obs", "hours": null}], "stations": {"74783012849": {"distance": 1174.0, "latitude": 26.079, "longitude": -80.162, "useCount": 0, "id": "74783012849", "name": "FORT LAUDERDALE INTERNATIONAL AIRPORT, FL US", "quality": 100, "contribution": 0.0}, "72204992805": {"distance": 20240.0, "latitude": 26.25, "longitude": -80.108, "useCount": 0, "id": "72204992805", "name": "POMPANO BEACH AIRPARK, FL US", "quality": 99, "contribution": 0.0}, "KFLL": {"distance": 396.0, "latitude": 26.07, "longitude": -80.15, "useCount": 0, "id": "KFLL", "name": "KFLL", "quality": 100, "contribution": 0.0}, "72203912885": {"distance": 13955.0, "latitude": 26.197, "longitude": -80.171, "useCount": 0, "id": "72203912885", "name": "FORT LAUDERDALE EXECUTIVE AIRPORT, FL US", "quality": 99, "contribution": 0.0}, "KFXE": {"distance": 14287.0, "latitude": 26.2, "longitude": -80.17, "useCount": 0, "id": "KFXE", "name": "KFXE", "quality": 100, "contribution": 0.0}, "KPMP": {"distance": 20204.0, "latitude": 26.25, "longitude": -80.11, "useCount": 0, "id": "KPMP", "name": "KPMP", "quality": 100, "contribution": 0.0}}}