{"queryCost": 1, "latitude": 26.072599, "longitude": -80.152702, "resolvedAddress": "26.072599, -80.152702", "address": "26.072599, -80.152702", "timezone": "America/New_York", "tzoffset": -4.0, "days": [{"datetime": "2018-10-27", "datetimeEpoch": 1540612800, "tempmax": 30.7, "tempmin": 23.9, "temp": 26.9, "feelslikemax": 33.4, "feelslikemin": 23.9, "feelslike": 28.0, "dew": 22.2, "humidity": 76.95, "precip": 0.0, "precipprob": null, "precipcover": 0.0, "preciptype": null, "snow": 0.0, "snowdepth": 0.0, "windgust": 33.5, "windspeed": 24.1, "winddir": 265.5, "pressure": 1012.3, "cloudcover": 45.1, "visibility": 16.0, "solarradiation": 291.6, "solarenergy": 13.6, "sunrise": "07:26:14", "sunriseEpoch": 1540639574, "sunset": "18:42:18", "sunsetEpoch": 1540680138, "moonphase": 0.55, "conditions": "Partially cloudy", "icon": "partly-cloudy-day", "stations": ["74783012849", "72204992805", "KFLL", "72203912885", "KFXE", "KPMP"], "source": "obs", "hours": null}], "stations": {"74783012849": {"distance": 1174.0, "latitude": 26.079, "longitude": -80.162, "useCount": 0, "id": "74783012849", "name": "FORT LAUDERDALE INTERNATIONAL AIRPORT, FL US", "quality": 100, "contribution": 0.0}, "72204992805": {"distance": 20240.0, "latitude": 26.25, "longitude": -80.108, "useCount": 0, "id": "72204992805", "name": "POMPANO BEACH AIRPARK, FL US", "quality": 99, "contribution": 0.0}, "KFLL": {"distance": 396.0, "latitude": 26.07, "longitude": -80.15, "useCount": 0, "id": "KFLL", "name": "KFLL", "quality": 100, "contribution": 0.0}, "72203912885": {"distance": 13955.0, "latitude": 26.197, "longitude": -80.171, "useCount": 0, "id": "72203912885", "name": "FORT LAUDERDALE EXECUTIVE AIRPORT, FL US", "quality": 99, "contribution": 0.0}, "KFXE": {"distance": 14287.0, "latitude": 26.2, "longitude": -80.17, "useCount": 0, "id": "KFXE", "name": "KFXE", "quality": 100, "contribution": 0.0}, "KPMP": {"distance": 20204.0, "latitude": 26.25, "longitude": -80.11, "useCount": 0, "id": "KPMP", "name": "KPMP", "quality": 100, "contribution": 0.0}}}