{"queryCost": 1, "latitude": 26.072599, "longitude": -80.152702, "resolvedAddress": "26.072599, -80.152702", "address": "26.072599, -80.152702", "timezone": "America/New_York", "tzoffset": -4.0, "days": [{"datetime": "2019-08-20", "datetimeEpoch": 1566273600, "tempmax": 30.6, "tempmin": 24.4, "temp": 28.1, "feelslikemax": 34.9, "feelslikemin": 24.4, "feelslike": 30.9, "dew": 22.8, "humidity": 73.5, "precip": 2.61, "precipprob": null, "precipcover": 20.83, "preciptype": null, "snow": 0.0, "snowdepth": 0.0, "windgust": 38.9, "windspeed": 25.9, "winddir": 123.3, "pressure": 1018.0, "cloudcover": 34.3, "visibility": 16.0, "solarradiation": 307.5, "solarenergy": 15.5, "sunrise": "06:55:22", "sunriseEpoch": 1566298522, "sunset": "19:52:18", "sunsetEpoch": 1566345138, "moonphase": 0.61, "conditions": "Rain, Partially cloudy", "icon": "rain", "stations": ["74783012849", "72204992805", "KFLL", "72203912885", "KFXE", "KPMP"], "source": "obs", "hours": null}], "stations": {"74783012849": {"distance": 1174.0, "latitude": 26.079, "longitude": -80.162, "useCount": 0, "id": "74783012849", "name": "FORT LAUDERDALE INTERNATIONAL AIRPORT, FL US", "quality": 100, "contribution": 0.0}, "72204992805": {"distance": 20240.0, "latitude": 26.25, "longitude": -80.108, "useCount": 0, "id": "72204992805", "name": "POMPANO BEACH AIRPARK, FL US", "quality": 99, "contribution": 0.0}, "KFLL": {"distance": 396.0, "latitude": 26.07, "longitude": -80.15, "useCount": 0, "id": "KFLL", "name": "KFLL", "quality": 100, "contribution": 0.0}, "72203912885": {"distance": 13955.0, "latitude": 26.197, "longitude": -80.171, "useCount": 0, "id": "72203912885", "name": "FORT LAUDERDALE EXECUTIVE AIRPORT, FL US", "quality": 99, "contribution": 0.0}, "KFXE": {"distance": 14287.0, "latitude": 26.2, "longitude": -80.17, "useCount": 0, "id": "KFXE", "name": "KFXE", "quality": 100, "contribution": 0.0}, "KPMP": {"distance": 20204.0, "latitude": 26.25, "longitude": -80.11, "useCount": 0, "id": "KPMP", "name": "KPMP", "quality": 100, "contribution": 0.0}}}