{"queryCost": 1, "latitude": 26.072599, "longitude": -80.152702, "resolvedAddress": "26.072599, -80.152702", "address": "26.072599, -80.152702", "timezone": "America/New_York", "tzoffset": -4.0, "days": [{"datetime": "2018-06-23", "datetimeEpoch": 1529726400, "tempmax": 32.2, "tempmin": 24.3, "temp": 27.3, "feelslikemax": 40.5, "feelslikemin": 24.3, "feelslike": 30.4, "dew": 25.0, "humidity": 87.77, "precip": 59.31, "precipprob": null, "precipcover": 25.0, "preciptype": null, "snow": 0.0, "snowdepth": 0.0, "windgust": 35.3, "windspeed": 25.9, "winddir": 180.4, "pressure": 1016.1, "cloudcover": 68.6, "visibility": 14.9, "solarradiation": 315.1, "solarenergy": 18.1, "sunrise": "06:29:47", "sunriseEpoch": 1529749787, "sunset": "20:15:57", "sunsetEpoch": 1529799357, "moonphase": 0.4, "conditions": "Rain, Partially cloudy", "icon": "rain", "stations": ["74783012849", "72204992805", "KFLL", "72203912885", "KFXE", "KPMP"], "source": "obs", "hours": null}], "stations": {"74783012849": {"distance": 1174.0, "latitude": 26.079, "longitude": -80.162, "useCount": 0, "id": "74783012849", "name": "FORT LAUDERDALE INTERNATIONAL AIRPORT, FL US", "quality": 100, "contribution": 0.0}, "72204992805": {"distance": 20240.0, "latitude": 26.25, "longitude": -80.108, "useCount": 0, "id": "72204992805", "name": "POMPANO BEACH AIRPARK, FL US", "quality": 99, "contribution": 0.0}, "KFLL": {"distance": 396.0, "latitude": 26.07, "longitude": -80.15, "useCount": 0, "id": "KFLL", "name": "KFLL", "quality": 100, "contribution": 0.0}, "72203912885": {"distance": 13955.0, "latitude": 26.197, "longitude": -80.171, "useCount": 0, "id": "72203912885", "name": "FORT LAUDERDALE EXECUTIVE AIRPORT, FL US", "quality": 99, "contribution": 0.0}, "KFXE": {"distance": 14287.0, "latitude": 26.2, "longitude": -80.17, "useCount": 0, "id": "KFXE", "name": "KFXE", "quality": 100, "contribution": 0.0}, "KPMP": {"distance": 20204.0, "latitude": 26.25, "longitude": -80.11, "useCount": 0, "id": "KPMP", "name": "KPMP", "quality": 100, "contribution": 0.0}}}