{"queryCost": 1, "latitude": 43.582000732400004, "longitude": -96.741897583, "resolvedAddress": "43.582000732400004, -96.741897583", "address": "43.582000732400004, -96.741897583", "timezone": "America/Chicago", "tzoffset": -6.0, "days": [{"datetime": "2020-01-07", "datetimeEpoch": 1578376800, "tempmax": 1.1, "tempmin": -10.0, "temp": -3.8, "feelslikemax": -2.2, "feelslikemin": -16.7, "feelslike": -8.3, "dew": -8.9, "humidity": 68.09, "precip": 0.0, "precipprob": null, "precipcover": 0.0, "preciptype": null, "snow": 1.54, "snowdepth": 3.08, "windgust": 44.9, "windspeed": 27.7, "winddir": 281.3, "pressure": 1021.6, "cloudcover": 51.9, "visibility": 16.0, "solarradiation": 212.3, "solarenergy": 13.8, "uvindex": 9.0, "sunrise": "08:00:05", "sunriseEpoch": 1578405605, "sunset": "17:06:25", "sunsetEpoch": 1578438385, "moonphase": 0.44, "conditions": "Partially cloudy", "description": "Partly cloudly.", "icon": "snow", "stations": ["72651014944", "KPQN", "99999904990", "KLYV", "KFSD"], "source": "obs", "hours": null}], "stations": {"72651014944": {"distance": 1075.0, "latitude": 43.578, "longitude": -96.754, "useCount": 0, "id": "72651014944", "name": "SIOUX FALLS FOSS FIELD, SD US", "quality": 100, "contribution": 0.0}, "KPQN": {"distance": 55792.0, "latitude": 43.98, "longitude": -96.32, "useCount": 0, "id": "KPQN", "name": "KPQN", "quality": 100, "contribution": 0.0}, "KLYV": {"distance": 42284.0, "latitude": 43.62, "longitude": -96.22, "useCount": 0, "id": "KLYV", "name": "KLYV", "quality": 100, "contribution": 0.0}, "99999904990": {"distance": 19532.0, "latitude": 43.735, "longitude": -96.622, "useCount": 0, "id": "99999904990", "name": "SIOUX FALLS 14 NNE, SD US", "quality": 100, "contribution": 0.0}, "KFSD": {"distance": 985.0, "latitude": 43.58, "longitude": -96.73, "useCount": 0, "id": "KFSD", "name": "KFSD", "quality": 100, "contribution": 0.0}}}