{"queryCost": 1, "latitude": 35.33660125732422, "longitude": -94.36740112304688, "resolvedAddress": "35.33660125732422, -94.36740112304688", "address": "35.33660125732422, -94.36740112304688", "timezone": "America/Chicago", "tzoffset": -6.0, "days": [{"datetime": "2020-01-05", "datetimeEpoch": 1578204000, "tempmax": 16.1, "tempmin": -0.6, "temp": 5.9, "feelslikemax": 16.1, "feelslikemin": -4.4, "feelslike": 4.5, "dew": -0.3, "humidity": 66.75, "precip": 0.0, "precipprob": null, "precipcover": 0.0, "preciptype": null, "snow": 0.0, "snowdepth": 0.0, "windgust": 29.5, "windspeed": 16.6, "winddir": 106.7, "pressure": 1023.7, "cloudcover": 0.0, "visibility": 16.0, "solarradiation": null, "solarenergy": null, "sunrise": "07:26:55", "sunriseEpoch": 1578230815, "sunset": "17:18:46", "sunsetEpoch": 1578266326, "moonphase": 0.36, "conditions": "Clear", "icon": "clear-day", "stations": ["72217853953", "KFSM", "72213353946", "72344013964", "KRKR"], "source": "obs", "hours": null}], "stations": {"72213353946": {"distance": 41098.0, "latitude": 35.438, "longitude": -94.803, "useCount": 0, "id": "72213353946", "name": "SALLISAW MUNICIPAL AIRPORT, OK US", "quality": 100, "contribution": 0.0}, "72217853953": {"distance": 42000.0, "latitude": 35.021, "longitude": -94.621, "useCount": 0, "id": "72217853953", "name": "POTEAU ROBERT S KERR AIRPORT, OK US", "quality": 100, "contribution": 0.0}, "72344013964": {"distance": 599.0, "latitude": 35.333, "longitude": -94.362, "useCount": 0, "id": "72344013964", "name": "FORT SMITH REGIONAL AIRPORT, AR US", "quality": 100, "contribution": 0.0}, "KRKR": {"distance": 42076.0, "latitude": 35.02, "longitude": -94.62, "useCount": 0, "id": "KRKR", "name": "KRKR", "quality": 100, "contribution": 0.0}, "KFSM": {"distance": 772.0, "latitude": 35.33, "longitude": -94.37, "useCount": 0, "id": "KFSM", "name": "KFSM", "quality": 100, "contribution": 0.0}}}