{"queryCost": 1, "latitude": 37.9275016785, "longitude": -100.723999023, "resolvedAddress": "37.9275016785, -100.723999023", "address": "37.9275016785, -100.723999023", "timezone": "America/Chicago", "tzoffset": -6.0, "days": [{"datetime": "2020-01-01", "datetimeEpoch": 1577858400, "tempmax": 12.8, "tempmin": -9.3, "temp": 1.7, "feelslikemax": 12.8, "feelslikemin": -15.4, "feelslike": -1.7, "dew": -6.8, "humidity": 60.19, "precip": 0.0, "precipprob": null, "precipcover": 0.0, "preciptype": null, "snow": 0.0, "snowdepth": 0.0, "windgust": null, "windspeed": 27.7, "winddir": 229.2, "pressure": 1002.7, "cloudcover": 9.5, "visibility": 16.0, "solarradiation": null, "solarenergy": null, "sunrise": "07:58:50", "sunriseEpoch": 1577887130, "sunset": "17:34:01", "sunsetEpoch": 1577921641, "moonphase": 0.17, "conditions": "Clear", "icon": "clear-day", "stations": ["72043899999", "72451523064", "KGCK", "72451013985", "KDDC"], "source": "obs", "hours": null}], "stations": {"72043899999": {"distance": 62478.0, "latitude": 38.474, "longitude": -100.885, "useCount": 0, "id": "72043899999", "name": "SCOTT CITY MUNICIPAL, KS US", "quality": 95, "contribution": 0.0}, "72451013985": {"distance": 68785.0, "latitude": 37.769, "longitude": -99.968, "useCount": 0, "id": "72451013985", "name": "DODGE CITY REGIONAL AIRPORT, KS US", "quality": 100, "contribution": 0.0}, "KDDC": {"distance": 68557.0, "latitude": 37.77, "longitude": -99.97, "useCount": 0, "id": "KDDC", "name": "KDDC", "quality": 100, "contribution": 0.0}, "72451523064": {"distance": 94.0, "latitude": 37.927, "longitude": -100.725, "useCount": 0, "id": "72451523064", "name": "GARDEN CITY REGIONAL AIRPORT, KS US", "quality": 100, "contribution": 0.0}, "KGCK": {"distance": 448.0, "latitude": 37.93, "longitude": -100.72, "useCount": 0, "id": "KGCK", "name": "KGCK", "quality": 100, "contribution": 0.0}}}