{"queryCost": 1, "latitude": 37.9275016785, "longitude": -100.723999023, "resolvedAddress": "37.9275016785, -100.723999023", "address": "37.9275016785, -100.723999023", "timezone": "America/Chicago", "tzoffset": -6.0, "days": [{"datetime": "2020-01-04", "datetimeEpoch": 1578117600, "tempmax": 13.8, "tempmin": -5.6, "temp": 3.1, "feelslikemax": 13.8, "feelslikemin": -9.8, "feelslike": 0.4, "dew": -3.2, "humidity": 67.44, "precip": 0.0, "precipprob": null, "precipcover": 0.0, "preciptype": null, "snow": 0.0, "snowdepth": 0.0, "windgust": null, "windspeed": 27.7, "winddir": 170.8, "pressure": 1022.2, "cloudcover": 13.7, "visibility": 16.0, "solarradiation": null, "solarenergy": null, "sunrise": "07:59:09", "sunriseEpoch": 1578146349, "sunset": "17:36:30", "sunsetEpoch": 1578180990, "moonphase": 0.31, "conditions": "Clear", "icon": "clear-day", "stations": ["72043899999", "72451523064", "KGCK", "72451013985", "KDDC"], "source": "obs", "hours": null}], "stations": {"72043899999": {"distance": 62478.0, "latitude": 38.474, "longitude": -100.885, "useCount": 0, "id": "72043899999", "name": "SCOTT CITY MUNICIPAL, KS US", "quality": 95, "contribution": 0.0}, "72451013985": {"distance": 68785.0, "latitude": 37.769, "longitude": -99.968, "useCount": 0, "id": "72451013985", "name": "DODGE CITY REGIONAL AIRPORT, KS US", "quality": 100, "contribution": 0.0}, "KDDC": {"distance": 68557.0, "latitude": 37.77, "longitude": -99.97, "useCount": 0, "id": "KDDC", "name": "KDDC", "quality": 100, "contribution": 0.0}, "72451523064": {"distance": 94.0, "latitude": 37.927, "longitude": -100.725, "useCount": 0, "id": "72451523064", "name": "GARDEN CITY REGIONAL AIRPORT, KS US", "quality": 100, "contribution": 0.0}, "KGCK": {"distance": 448.0, "latitude": 37.93, "longitude": -100.72, "useCount": 0, "id": "KGCK", "name": "KGCK", "quality": 100, "contribution": 0.0}}}