{"queryCost": 1, "latitude": 47.61989974975586, "longitude": -117.53399658203125, "resolvedAddress": "47.61989974975586, -117.53399658203125", "address": "47.61989974975586, -117.53399658203125", "timezone": "America/Los_Angeles", "tzoffset": -8.0, "days": [{"datetime": "2018-01-31", "datetimeEpoch": 1517385600, "tempmax": 2.9, "tempmin": -2.8, "temp": -0.2, "feelslikemax": -0.5, "feelslikemin": -7.4, "feelslike": -4.0, "dew": -3.1, "humidity": 81.0, "precip": 0.0, "precipprob": null, "precipcover": 0.0, "preciptype": null, "snow": 1.88, "snowdepth": 1.88, "windgust": null, "windspeed": 24.1, "winddir": 185.6, "pressure": 1022.0, "cloudcover": 72.1, "visibility": 16.0, "solarradiation": null, "solarenergy": null, "sunrise": "07:17:51", "sunriseEpoch": 1517411871, "sunset": "16:49:58", "sunsetEpoch": 1517446198, "moonphase": 0.5, "conditions": "Partially cloudy", "icon": "snow", "stations": ["72785524114", "72785694176", "72785024157", "KSFF", "KSKA", "KGEG"], "source": "obs", "hours": null}], "stations": {"72785524114": {"distance": 8830.0, "latitude": 47.633, "longitude": -117.65, "useCount": 0, "id": "72785524114", "name": "FAIRCHILD AFB, WA US", "quality": 96, "contribution": 0.0}, "72785694176": {"distance": 17453.0, "latitude": 47.683, "longitude": -117.321, "useCount": 0, "id": "72785694176", "name": "SPOKANE FELTS FIELD, WA US", "quality": 100, "contribution": 0.0}, "72785024157": {"distance": 488.0, "latitude": 47.622, "longitude": -117.528, "useCount": 0, "id": "72785024157", "name": "SPOKANE INTERNATIONAL AIRPORT, WA US", "quality": 100, "contribution": 0.0}, "KSFF": {"distance": 17387.0, "latitude": 47.68, "longitude": -117.32, "useCount": 0, "id": "KSFF", "name": "KSFF", "quality": 100, "contribution": 0.0}, "KSKA": {"distance": 8704.0, "latitude": 47.62, "longitude": -117.65, "useCount": 0, "id": "KSKA", "name": "KSKA", "quality": 100, "contribution": 0.0}, "KGEG": {"distance": 1164.0, "latitude": 47.63, "longitude": -117.53, "useCount": 0, "id": "KGEG", "name": "KGEG", "quality": 100, "contribution": 0.0}}}