{"queryCost": 1, "latitude": 47.61989974975586, "longitude": -117.53399658203125, "resolvedAddress": "47.61989974975586, -117.53399658203125", "address": "47.61989974975586, -117.53399658203125", "timezone": "America/Los_Angeles", "tzoffset": -7.0, "days": [{"datetime": "2019-09-21", "datetimeEpoch": 1569049200, "tempmax": 20.0, "tempmin": 6.7, "temp": 13.7, "feelslikemax": 20.0, "feelslikemin": 4.4, "feelslike": 13.2, "dew": 6.6, "humidity": 65.21, "precip": 0.0, "precipprob": null, "precipcover": 0.0, "preciptype": null, "snow": 0.0, "snowdepth": 0.0, "windgust": null, "windspeed": 18.3, "winddir": 198.5, "pressure": 1017.4, "cloudcover": 51.3, "visibility": 16.0, "solarradiation": 251.4, "solarenergy": 11.8, "sunrise": "06:35:17", "sunriseEpoch": 1569072917, "sunset": "18:50:17", "sunsetEpoch": 1569117017, "moonphase": 0.72, "conditions": "Partially cloudy", "icon": "partly-cloudy-day", "stations": ["72785524114", "72785694176", "72785024157", "KSFF", "KGEG", "KSKA"], "source": "obs", "hours": null}], "stations": {"72785524114": {"distance": 8830.0, "latitude": 47.633, "longitude": -117.65, "useCount": 0, "id": "72785524114", "name": "FAIRCHILD AFB, WA US", "quality": 96, "contribution": 0.0}, "72785694176": {"distance": 17453.0, "latitude": 47.683, "longitude": -117.321, "useCount": 0, "id": "72785694176", "name": "SPOKANE FELTS FIELD, WA US", "quality": 100, "contribution": 0.0}, "72785024157": {"distance": 488.0, "latitude": 47.622, "longitude": -117.528, "useCount": 0, "id": "72785024157", "name": "SPOKANE INTERNATIONAL AIRPORT, WA US", "quality": 100, "contribution": 0.0}, "KSFF": {"distance": 17387.0, "latitude": 47.68, "longitude": -117.32, "useCount": 0, "id": "KSFF", "name": "KSFF", "quality": 100, "contribution": 0.0}, "KGEG": {"distance": 1164.0, "latitude": 47.63, "longitude": -117.53, "useCount": 0, "id": "KGEG", "name": "KGEG", "quality": 100, "contribution": 0.0}, "KSKA": {"distance": 8704.0, "latitude": 47.62, "longitude": -117.65, "useCount": 0, "id": "KSKA", "name": "KSKA", "quality": 100, "contribution": 0.0}}}