{"queryCost": 1, "latitude": 47.949299, "longitude": -97.176102, "resolvedAddress": "47.949299, -97.176102", "address": "47.949299, -97.176102", "timezone": "America/Chicago", "tzoffset": -6.0, "days": [{"datetime": "2020-01-02", "datetimeEpoch": 1577944800, "tempmax": -0.6, "tempmin": -5.0, "temp": -3.6, "feelslikemax": -4.3, "feelslikemin": -11.4, "feelslike": -7.6, "dew": -5.8, "humidity": 85.13, "precip": 0.0, "precipprob": null, "precipcover": 0.0, "preciptype": null, "snow": 0.0, "snowdepth": 31.17, "windgust": 42.5, "windspeed": 33.5, "winddir": 285.8, "pressure": 999.8, "cloudcover": 97.2, "visibility": 15.3, "solarradiation": null, "solarenergy": null, "sunrise": "08:18:25", "sunriseEpoch": 1577974705, "sunset": "16:47:02", "sunsetEpoch": 1578005222, "moonphase": 0.22, "conditions": "Overcast", "icon": "wind", "stations": ["KGFK", "72757594925", "72755594956", "KRDR", "KCKN", "72757014916"], "source": "obs", "hours": null}], "stations": {"KGFK": {"distance": 301.0, "latitude": 47.95, "longitude": -97.18, "useCount": 0, "id": "KGFK", "name": "KGFK", "quality": 100, "contribution": 0.0}, "72757594925": {"distance": 16803.0, "latitude": 47.967, "longitude": -97.4, "useCount": 0, "id": "72757594925", "name": "GRAND FORKS AF, ND US", "quality": 98, "contribution": 0.0}, "72755594956": {"distance": 75085.0, "latitude": 48.067, "longitude": -96.183, "useCount": 0, "id": "72755594956", "name": "THIEF RIVER FALLS MUNICIPAL AIRPORT, MN US", "quality": 99, "contribution": 0.0}, "KRDR": {"distance": 16849.0, "latitude": 47.97, "longitude": -97.4, "useCount": 0, "id": "KRDR", "name": "KRDR", "quality": 100, "contribution": 0.0}, "KCKN": {"distance": 42950.0, "latitude": 47.85, "longitude": -96.62, "useCount": 0, "id": "KCKN", "name": "KCKN", "quality": 100, "contribution": 0.0}, "72757014916": {"distance": 928.0, "latitude": 47.943, "longitude": -97.184, "useCount": 0, "id": "72757014916", "name": "GRAND FORKS INTERNATIONAL AIRPORT, ND US", "quality": 100, "contribution": 0.0}}}