{"queryCost": 1, "latitude": 32.38399887084961, "longitude": -94.71150207519531, "resolvedAddress": "32.38399887084961, -94.71150207519531", "address": "32.38399887084961, -94.71150207519531", "timezone": "America/Chicago", "tzoffset": -6.0, "days": [{"datetime": "2020-01-04", "datetimeEpoch": 1578117600, "tempmax": 14.3, "tempmin": 1.7, "temp": 7.3, "feelslikemax": 14.3, "feelslikemin": -1.2, "feelslike": 6.1, "dew": -0.7, "humidity": 60.72, "precip": 0.0, "precipprob": null, "precipcover": 0.0, "preciptype": null, "snow": 0.0, "snowdepth": 0.0, "windgust": 25.9, "windspeed": 16.6, "winddir": 226.2, "pressure": 1025.6, "cloudcover": 0.0, "visibility": 16.0, "solarradiation": 349.8, "solarenergy": 21.4, "sunrise": "07:20:55", "sunriseEpoch": 1578144055, "sunset": "17:26:36", "sunsetEpoch": 1578180396, "moonphase": 0.31, "conditions": "Clear", "icon": "clear-day", "stations": ["72247003901", "72057700175", "72094300431", "KRFI", "KASL", "KGGG"], "source": "obs", "hours": null}], "stations": {"72247003901": {"distance": 80.0, "latitude": 32.385, "longitude": -94.712, "useCount": 0, "id": "72247003901", "name": "LONGVIEW E TEXAS REGIONAL AIRPORT, TX US", "quality": 100, "contribution": 0.0}, "72057700175": {"distance": 29129.0, "latitude": 32.15, "longitude": -94.85, "useCount": 0, "id": "72057700175", "name": "RUSK CO AIRPORT, TX US", "quality": 100, "contribution": 0.0}, "72094300431": {"distance": 40862.0, "latitude": 32.521, "longitude": -94.308, "useCount": 0, "id": "72094300431", "name": "HARRISON CO AIRPORT, TX US", "quality": 100, "contribution": 0.0}, "KRFI": {"distance": 30129.0, "latitude": 32.14, "longitude": -94.85, "useCount": 0, "id": "KRFI", "name": "KRFI", "quality": 98, "contribution": 0.0}, "KASL": {"distance": 41514.0, "latitude": 32.52, "longitude": -94.3, "useCount": 0, "id": "KASL", "name": "KASL", "quality": 100, "contribution": 0.0}, "KGGG": {"distance": 915.0, "latitude": 32.38, "longitude": -94.72, "useCount": 0, "id": "KGGG", "name": "KGGG", "quality": 100, "contribution": 0.0}}}