{"queryCost": 1, "latitude": 32.38399887084961, "longitude": -94.71150207519531, "resolvedAddress": "32.38399887084961, -94.71150207519531", "address": "32.38399887084961, -94.71150207519531", "timezone": "America/Chicago", "tzoffset": -6.0, "days": [{"datetime": "2020-01-03", "datetimeEpoch": 1578031200, "tempmax": 15.0, "tempmin": 6.2, "temp": 11.5, "feelslikemax": 15.0, "feelslikemin": 3.8, "feelslike": 11.3, "dew": 8.4, "humidity": 81.89, "precip": 0.0, "precipprob": null, "precipcover": 4.17, "preciptype": null, "snow": 0.0, "snowdepth": 0.0, "windgust": 31.7, "windspeed": 22.3, "winddir": 228.8, "pressure": 1011.4, "cloudcover": 47.6, "visibility": 10.9, "solarradiation": 160.5, "solarenergy": 6.4, "sunrise": "07:20:46", "sunriseEpoch": 1578057646, "sunset": "17:25:49", "sunsetEpoch": 1578093949, "moonphase": 0.26, "conditions": "Partially cloudy", "icon": "partly-cloudy-day", "stations": ["72247003901", "72057700175", "72094300431", "KRFI", "KASL", "KGGG"], "source": "obs", "hours": null}], "stations": {"72247003901": {"distance": 80.0, "latitude": 32.385, "longitude": -94.712, "useCount": 0, "id": "72247003901", "name": "LONGVIEW E TEXAS REGIONAL AIRPORT, TX US", "quality": 100, "contribution": 0.0}, "72057700175": {"distance": 29129.0, "latitude": 32.15, "longitude": -94.85, "useCount": 0, "id": "72057700175", "name": "RUSK CO AIRPORT, TX US", "quality": 100, "contribution": 0.0}, "72094300431": {"distance": 40862.0, "latitude": 32.521, "longitude": -94.308, "useCount": 0, "id": "72094300431", "name": "HARRISON CO AIRPORT, TX US", "quality": 100, "contribution": 0.0}, "KRFI": {"distance": 30129.0, "latitude": 32.14, "longitude": -94.85, "useCount": 0, "id": "KRFI", "name": "KRFI", "quality": 98, "contribution": 0.0}, "KASL": {"distance": 41514.0, "latitude": 32.52, "longitude": -94.3, "useCount": 0, "id": "KASL", "name": "KASL", "quality": 100, "contribution": 0.0}, "KGGG": {"distance": 915.0, "latitude": 32.38, "longitude": -94.72, "useCount": 0, "id": "KGGG", "name": "KGGG", "quality": 100, "contribution": 0.0}}}