{"queryCost": 1, "latitude": 29.6900997162, "longitude": -82.2717971802, "resolvedAddress": "29.6900997162, -82.2717971802", "address": "29.6900997162, -82.2717971802", "timezone": "America/New_York", "tzoffset": -5.0, "days": [{"datetime": "2020-01-06", "datetimeEpoch": 1578286800, "tempmax": 19.3, "tempmin": 1.2, "temp": 9.1, "feelslikemax": 19.3, "feelslikemin": 0.1, "feelslike": 9.0, "dew": 2.1, "humidity": 68.69, "precip": 0.0, "precipprob": null, "precipcover": 0.0, "preciptype": null, "snow": 0.0, "snowdepth": 0.0, "windgust": null, "windspeed": 11.2, "winddir": 220.0, "pressure": 1024.5, "cloudcover": 0.0, "visibility": 16.0, "solarradiation": 290.2, "solarenergy": 12.5, "sunrise": "07:25:14", "sunriseEpoch": 1578313514, "sunset": "17:44:31", "sunsetEpoch": 1578350671, "moonphase": 0.4, "conditions": "Clear", "icon": "clear-day", "stations": ["74904800415", "KOCF", "74756012816", "KGNV", "72205512861", "KLCQ"], "source": "obs", "hours": null}], "stations": {"74904800415": {"distance": 27676.0, "latitude": 29.845, "longitude": -82.047, "useCount": 0, "id": "74904800415", "name": "KEYSTONE AIRPARK, FL US", "quality": 50, "contribution": 0.0}, "KOCF": {"distance": 58115.0, "latitude": 29.17, "longitude": -82.22, "useCount": 0, "id": "KOCF", "name": "OCALA, FL", "quality": 100, "contribution": 0.0}, "74756012816": {"distance": 410.0, "latitude": 29.692, "longitude": -82.275, "useCount": 0, "id": "74756012816", "name": "GAINESVILLE REGIONAL AIRPORT, FL US", "quality": 100, "contribution": 0.0}, "KGNV": {"distance": 1358.0, "latitude": 29.7, "longitude": -82.28, "useCount": 0, "id": "KGNV", "name": "KGNV", "quality": 100, "contribution": 0.0}, "72205512861": {"distance": 58384.0, "latitude": 29.167, "longitude": -82.233, "useCount": 0, "id": "72205512861", "name": "OCALA JIM TAYLOR FIELD, FL US", "quality": 100, "contribution": 0.0}, "KLCQ": {"distance": 62114.0, "latitude": 30.18, "longitude": -82.58, "useCount": 0, "id": "KLCQ", "name": "KLCQ", "quality": 98, "contribution": 0.0}}}