{"queryCost": 1, "latitude": 29.6900997162, "longitude": -82.2717971802, "resolvedAddress": "29.6900997162, -82.2717971802", "address": "29.6900997162, -82.2717971802", "timezone": "America/New_York", "tzoffset": -5.0, "days": [{"datetime": "2020-01-01", "datetimeEpoch": 1577854800, "tempmax": 18.8, "tempmin": 3.9, "temp": 10.6, "feelslikemax": 18.8, "feelslikemin": 1.9, "feelslike": 10.1, "dew": 3.2, "humidity": 64.71, "precip": 0.0, "precipprob": null, "precipcover": 0.0, "preciptype": null, "snow": 0.0, "snowdepth": 0.0, "windgust": null, "windspeed": 11.2, "winddir": 256.5, "pressure": 1019.6, "cloudcover": 9.1, "visibility": 16.0, "solarradiation": 251.7, "solarenergy": 11.8, "sunrise": "07:24:19", "sunriseEpoch": 1577881459, "sunset": "17:40:50", "sunsetEpoch": 1577918450, "moonphase": 0.17, "conditions": "Clear", "icon": "clear-day", "stations": ["74904800415", "KOCF", "74756012816", "KGNV", "72205512861"], "source": "obs", "hours": null}], "stations": {"74904800415": {"distance": 27676.0, "latitude": 29.845, "longitude": -82.047, "useCount": 0, "id": "74904800415", "name": "KEYSTONE AIRPARK, FL US", "quality": 50, "contribution": 0.0}, "KOCF": {"distance": 58115.0, "latitude": 29.17, "longitude": -82.22, "useCount": 0, "id": "KOCF", "name": "OCALA, FL", "quality": 100, "contribution": 0.0}, "72205512861": {"distance": 58384.0, "latitude": 29.167, "longitude": -82.233, "useCount": 0, "id": "72205512861", "name": "OCALA JIM TAYLOR FIELD, FL US", "quality": 100, "contribution": 0.0}, "74756012816": {"distance": 410.0, "latitude": 29.692, "longitude": -82.275, "useCount": 0, "id": "74756012816", "name": "GAINESVILLE REGIONAL AIRPORT, FL US", "quality": 100, "contribution": 0.0}, "KGNV": {"distance": 1358.0, "latitude": 29.7, "longitude": -82.28, "useCount": 0, "id": "KGNV", "name": "KGNV", "quality": 100, "contribution": 0.0}}}