{"queryCost": 1, "latitude": 29.6900997162, "longitude": -82.2717971802, "resolvedAddress": "29.6900997162, -82.2717971802", "address": "29.6900997162, -82.2717971802", "timezone": "America/New_York", "tzoffset": -5.0, "days": [{"datetime": "2020-01-04", "datetimeEpoch": 1578114000, "tempmax": 22.8, "tempmin": 13.4, "temp": 20.0, "feelslikemax": 22.8, "feelslikemin": 13.4, "feelslike": 20.0, "dew": 16.5, "humidity": 81.12, "precip": 17.31, "precipprob": null, "precipcover": 25.0, "preciptype": null, "snow": 0.0, "snowdepth": 0.0, "windgust": 50.3, "windspeed": 25.9, "winddir": 237.5, "pressure": 1016.3, "cloudcover": 58.5, "visibility": 14.9, "solarradiation": 116.6, "solarenergy": 5.0, "sunrise": "07:24:57", "sunriseEpoch": 1578140697, "sunset": "17:43:00", "sunsetEpoch": 1578177780, "moonphase": 0.31, "conditions": "Rain, Partially cloudy", "icon": "rain", "stations": ["74904800415", "KOCF", "74756012816", "KGNV", "72205512861"], "source": "obs", "hours": null}], "stations": {"74904800415": {"distance": 27676.0, "latitude": 29.845, "longitude": -82.047, "useCount": 0, "id": "74904800415", "name": "KEYSTONE AIRPARK, FL US", "quality": 50, "contribution": 0.0}, "KOCF": {"distance": 58115.0, "latitude": 29.17, "longitude": -82.22, "useCount": 0, "id": "KOCF", "name": "OCALA, FL", "quality": 100, "contribution": 0.0}, "72205512861": {"distance": 58384.0, "latitude": 29.167, "longitude": -82.233, "useCount": 0, "id": "72205512861", "name": "OCALA JIM TAYLOR FIELD, FL US", "quality": 100, "contribution": 0.0}, "74756012816": {"distance": 410.0, "latitude": 29.692, "longitude": -82.275, "useCount": 0, "id": "74756012816", "name": "GAINESVILLE REGIONAL AIRPORT, FL US", "quality": 100, "contribution": 0.0}, "KGNV": {"distance": 1358.0, "latitude": 29.7, "longitude": -82.28, "useCount": 0, "id": "KGNV", "name": "KGNV", "quality": 100, "contribution": 0.0}}}