{"queryCost": 1, "latitude": 30.40730094909668, "longitude": -89.07009887695312, "resolvedAddress": "30.40730094909668, -89.07009887695312", "address": "30.40730094909668, -89.07009887695312", "timezone": "America/Chicago", "tzoffset": -6.0, "days": [{"datetime": "2020-01-06", "datetimeEpoch": 1578290400, "tempmax": 19.3, "tempmin": 4.4, "temp": 12.3, "feelslikemax": 19.3, "feelslikemin": 4.4, "feelslike": 12.2, "dew": 7.4, "humidity": 74.24, "precip": 0.0, "precipprob": null, "precipcover": 0.0, "preciptype": null, "snow": 0.0, "snowdepth": 0.0, "windgust": null, "windspeed": 13.0, "winddir": 190.9, "pressure": 1022.8, "cloudcover": 0.0, "visibility": 16.0, "solarradiation": 280.4, "solarenergy": 12.1, "sunrise": "06:54:02", "sunriseEpoch": 1578315242, "sunset": "17:10:08", "sunsetEpoch": 1578352208, "moonphase": 0.4, "conditions": "Clear", "icon": "clear-day", "stations": ["KGPT", "KPQL", "KBIX", "74768613820", "74757093874", "74768853858"], "source": "obs", "hours": null}], "stations": {"KGPT": {"distance": 1703.0, "latitude": 30.42, "longitude": -89.08, "useCount": 0, "id": "KGPT", "name": "KGPT", "quality": 100, "contribution": 0.0}, "KPQL": {"distance": 52170.0, "latitude": 30.46, "longitude": -88.53, "useCount": 0, "id": "KPQL", "name": "KPQL", "quality": 100, "contribution": 0.0}, "KBIX": {"distance": 14479.0, "latitude": 30.42, "longitude": -88.92, "useCount": 0, "id": "KBIX", "name": "KBIX", "quality": 100, "contribution": 0.0}, "74768613820": {"distance": 14764.0, "latitude": 30.417, "longitude": -88.917, "useCount": 0, "id": "74768613820", "name": "BILOXI KEESLER AFB, MS US", "quality": 100, "contribution": 0.0}, "74757093874": {"distance": 1148.0, "latitude": 30.412, "longitude": -89.081, "useCount": 0, "id": "74757093874", "name": "GULFPORT BILOXI AIRPORT, MS US", "quality": 100, "contribution": 0.0}, "74768853858": {"distance": 52035.0, "latitude": 30.464, "longitude": -88.532, "useCount": 0, "id": "74768853858", "name": "PASCAGOULA LOTT INTERNATIONAL AIRPORT, MS US", "quality": 100, "contribution": 0.0}}}