{"queryCost": 1, "latitude": 30.40730094909668, "longitude": -89.07009887695312, "resolvedAddress": "30.40730094909668, -89.07009887695312", "address": "30.40730094909668, -89.07009887695312", "timezone": "America/Chicago", "tzoffset": -6.0, "days": [{"datetime": "2020-01-03", "datetimeEpoch": 1578031200, "tempmax": 20.6, "tempmin": 15.0, "temp": 16.9, "feelslikemax": 20.6, "feelslikemin": 15.0, "feelslike": 16.9, "dew": 15.2, "humidity": 89.56, "precip": 24.86, "precipprob": null, "precipcover": 79.17, "preciptype": null, "snow": 0.0, "snowdepth": 0.0, "windgust": 37.1, "windspeed": 20.5, "winddir": 244.1, "pressure": 1011.5, "cloudcover": 87.5, "visibility": 12.8, "solarradiation": 38.0, "solarenergy": 1.5, "sunrise": "06:53:35", "sunriseEpoch": 1578056015, "sunset": "17:07:51", "sunsetEpoch": 1578092871, "moonphase": 0.26, "conditions": "Rain, Overcast", "icon": "rain", "stations": ["KGPT", "KPQL", "KBIX", "74768613820", "74757093874", "74768853858"], "source": "obs", "hours": null}], "stations": {"KGPT": {"distance": 1703.0, "latitude": 30.42, "longitude": -89.08, "useCount": 0, "id": "KGPT", "name": "KGPT", "quality": 100, "contribution": 0.0}, "KPQL": {"distance": 52170.0, "latitude": 30.46, "longitude": -88.53, "useCount": 0, "id": "KPQL", "name": "KPQL", "quality": 100, "contribution": 0.0}, "KBIX": {"distance": 14479.0, "latitude": 30.42, "longitude": -88.92, "useCount": 0, "id": "KBIX", "name": "KBIX", "quality": 100, "contribution": 0.0}, "74768613820": {"distance": 14764.0, "latitude": 30.417, "longitude": -88.917, "useCount": 0, "id": "74768613820", "name": "BILOXI KEESLER AFB, MS US", "quality": 100, "contribution": 0.0}, "74757093874": {"distance": 1148.0, "latitude": 30.412, "longitude": -89.081, "useCount": 0, "id": "74757093874", "name": "GULFPORT BILOXI AIRPORT, MS US", "quality": 100, "contribution": 0.0}, "74768853858": {"distance": 52035.0, "latitude": 30.464, "longitude": -88.532, "useCount": 0, "id": "74768853858", "name": "PASCAGOULA LOTT INTERNATIONAL AIRPORT, MS US", "quality": 100, "contribution": 0.0}}}