{"queryCost": 1, "latitude": 44.48509979248047, "longitude": -88.12960052490234, "resolvedAddress": "44.48509979248047, -88.12960052490234", "address": "44.48509979248047, -88.12960052490234", "timezone": "America/Chicago", "tzoffset": -6.0, "days": [{"datetime": "2019-02-21", "datetimeEpoch": 1550728800, "tempmax": 0.6, "tempmin": -9.4, "temp": -3.6, "feelslikemax": -4.4, "feelslikemin": -14.2, "feelslike": -9.0, "dew": -10.0, "humidity": 61.43, "precip": 0.0, "precipprob": null, "precipcover": 0.0, "preciptype": null, "snow": 0.13, "snowdepth": 28.64, "windgust": 48.1, "windspeed": 25.9, "winddir": 257.1, "pressure": 1018.5, "cloudcover": 27.2, "visibility": 15.4, "solarradiation": null, "solarenergy": null, "sunrise": "06:43:28", "sunriseEpoch": 1550753008, "sunset": "17:29:27", "sunsetEpoch": 1550791767, "moonphase": 0.53, "conditions": "Partially cloudy", "icon": "snow", "stations": ["KEZS", "KOCQ", "72645014898", "A0705600464", "72058900185", "KGRB"], "source": "obs", "hours": null}], "stations": {"KEZS": {"distance": 48107.0, "latitude": 44.79, "longitude": -88.56, "useCount": 0, "id": "KEZS", "name": "KEZS", "quality": 99, "contribution": 0.0}, "KOCQ": {"distance": 45947.0, "latitude": 44.87, "longitude": -87.92, "useCount": 0, "id": "KOCQ", "name": "KOCQ", "quality": 98, "contribution": 0.0}, "72645014898": {"distance": 844.0, "latitude": 44.479, "longitude": -88.137, "useCount": 0, "id": "72645014898", "name": "GREEN BAY A S INTERNATIONAL AIRPORT, WI US", "quality": 100, "contribution": 0.0}, "A0705600464": {"distance": 46668.0, "latitude": 44.874, "longitude": -87.91, "useCount": 0, "id": "A0705600464", "name": "J DOUGLAS BAKE MEMORIAL AIRPORT, WI US", "quality": 100, "contribution": 0.0}, "72058900185": {"distance": 46997.0, "latitude": 44.783, "longitude": -88.55, "useCount": 0, "id": "72058900185", "name": "SHAWANO MUNICIPAL AIRPORT, WI US", "quality": 100, "contribution": 0.0}, "KGRB": {"distance": 569.0, "latitude": 44.48, "longitude": -88.13, "useCount": 0, "id": "KGRB", "name": "KGRB", "quality": 100, "contribution": 0.0}}}