{"queryCost": 1, "latitude": 44.48509979248047, "longitude": -88.12960052490234, "resolvedAddress": "44.48509979248047, -88.12960052490234", "address": "44.48509979248047, -88.12960052490234", "timezone": "America/Chicago", "tzoffset": -6.0, "days": [{"datetime": "2020-01-04", "datetimeEpoch": 1578117600, "tempmax": -0.7, "tempmin": -3.9, "temp": -2.1, "feelslikemax": -3.3, "feelslikemin": -8.5, "feelslike": -6.9, "dew": -6.4, "humidity": 72.95, "precip": 0.0, "precipprob": null, "precipcover": 0.0, "preciptype": null, "snow": 3.71, "snowdepth": 5.0, "windgust": 37.1, "windspeed": 24.1, "winddir": 272.5, "pressure": 1016.2, "cloudcover": 82.5, "visibility": 15.7, "solarradiation": 55.9, "solarenergy": 1.8, "sunrise": "07:29:03", "sunriseEpoch": 1578144543, "sunset": "16:25:51", "sunsetEpoch": 1578176751, "moonphase": 0.31, "conditions": "Overcast", "icon": "snow", "stations": ["KEZS", "KOCQ", "72645014898", "A0705600464", "72058900185", "KGRB"], "source": "obs", "hours": null}], "stations": {"KEZS": {"distance": 48107.0, "latitude": 44.79, "longitude": -88.56, "useCount": 0, "id": "KEZS", "name": "KEZS", "quality": 99, "contribution": 0.0}, "KOCQ": {"distance": 45947.0, "latitude": 44.87, "longitude": -87.92, "useCount": 0, "id": "KOCQ", "name": "KOCQ", "quality": 98, "contribution": 0.0}, "72645014898": {"distance": 844.0, "latitude": 44.479, "longitude": -88.137, "useCount": 0, "id": "72645014898", "name": "GREEN BAY A S INTERNATIONAL AIRPORT, WI US", "quality": 100, "contribution": 0.0}, "A0705600464": {"distance": 46668.0, "latitude": 44.874, "longitude": -87.91, "useCount": 0, "id": "A0705600464", "name": "J DOUGLAS BAKE MEMORIAL AIRPORT, WI US", "quality": 100, "contribution": 0.0}, "72058900185": {"distance": 46997.0, "latitude": 44.783, "longitude": -88.55, "useCount": 0, "id": "72058900185", "name": "SHAWANO MUNICIPAL AIRPORT, WI US", "quality": 100, "contribution": 0.0}, "KGRB": {"distance": 569.0, "latitude": 44.48, "longitude": -88.13, "useCount": 0, "id": "KGRB", "name": "KGRB", "quality": 100, "contribution": 0.0}}}