{"queryCost": 1, "latitude": 40.967498779296875, "longitude": -98.30960083007812, "resolvedAddress": "40.967498779296875, -98.30960083007812", "address": "40.967498779296875, -98.30960083007812", "timezone": "America/Chicago", "tzoffset": -6.0, "days": [{"datetime": "2020-01-03", "datetimeEpoch": 1578031200, "tempmax": 2.9, "tempmin": -5.6, "temp": -0.5, "feelslikemax": -2.5, "feelslikemin": -10.4, "feelslike": -5.6, "dew": -5.5, "humidity": 69.89, "precip": 0.0, "precipprob": null, "precipcover": 0.0, "preciptype": null, "snow": 0.01, "snowdepth": 3.0, "windgust": 61.0, "windspeed": 44.6, "winddir": 296.7, "pressure": 1017.1, "cloudcover": 13.9, "visibility": 16.0, "solarradiation": null, "solarenergy": null, "sunrise": "07:58:17", "sunriseEpoch": 1578059897, "sunset": "17:17:08", "sunsetEpoch": 1578093428, "moonphase": 0.26, "conditions": "Clear", "icon": "snow", "stations": ["KGRI", "72551304901", "72552014935", "72552594949", "KAUH"], "source": "obs", "hours": null}], "stations": {"KGRI": {"distance": 917.0, "latitude": 40.97, "longitude": -98.32, "useCount": 0, "id": "KGRI", "name": "GRAND ISLAND, NE", "quality": 100, "contribution": 0.0}, "72551304901": {"distance": 27548.0, "latitude": 40.893, "longitude": -97.997, "useCount": 0, "id": "72551304901", "name": "AURORA MUNICIPAL AIRPORT, NE US", "quality": 100, "contribution": 0.0}, "72552014935": {"distance": 788.0, "latitude": 40.961, "longitude": -98.314, "useCount": 0, "id": "72552014935", "name": "GRAND ISLAND CENTRAL NE REGIONAL AIRPORT, NE US", "quality": 100, "contribution": 0.0}, "72552594949": {"distance": 42012.0, "latitude": 40.601, "longitude": -98.426, "useCount": 0, "id": "72552594949", "name": "HASTINGS MUNICIPAL AIRPORT, NE US", "quality": 100, "contribution": 0.0}, "KAUH": {"distance": 28230.0, "latitude": 40.89, "longitude": -97.99, "useCount": 0, "id": "KAUH", "name": "KAUH", "quality": 100, "contribution": 0.0}}}