{"queryCost": 1, "latitude": 40.967498779296875, "longitude": -98.30960083007812, "resolvedAddress": "40.967498779296875, -98.30960083007812", "address": "40.967498779296875, -98.30960083007812", "timezone": "America/Chicago", "tzoffset": -6.0, "days": [{"datetime": "2020-01-07", "datetimeEpoch": 1578376800, "tempmax": 8.3, "tempmin": -4.3, "temp": 0.6, "feelslikemax": 5.7, "feelslikemin": -8.8, "feelslike": -3.3, "dew": -5.4, "humidity": 66.02, "precip": 0.0, "precipprob": null, "precipcover": 4.17, "preciptype": null, "snow": 0.0, "snowdepth": 0.0, "windgust": 33.5, "windspeed": 25.9, "winddir": 212.1, "pressure": 1023.4, "cloudcover": 1.2, "visibility": 16.0, "solarradiation": null, "solarenergy": null, "uvindex": 0.0, "sunrise": "07:58:10", "sunriseEpoch": 1578405490, "sunset": "17:20:53", "sunsetEpoch": 1578439253, "moonphase": 0.44, "conditions": "Clear", "description": "Clear conditions.", "icon": "clear-day", "stations": ["KGRI", "72551304901", "KHSI", "72552014935", "72552594949", "KAUH"], "source": "obs", "hours": null}], "stations": {"KGRI": {"distance": 917.0, "latitude": 40.97, "longitude": -98.32, "useCount": 0, "id": "KGRI", "name": "GRAND ISLAND, NE", "quality": 100, "contribution": 0.0}, "72551304901": {"distance": 27548.0, "latitude": 40.893, "longitude": -97.997, "useCount": 0, "id": "72551304901", "name": "AURORA MUNICIPAL AIRPORT, NE US", "quality": 100, "contribution": 0.0}, "KHSI": {"distance": 42150.0, "latitude": 40.6, "longitude": -98.43, "useCount": 0, "id": "KHSI", "name": "KHSI", "quality": 100, "contribution": 0.0}, "72552014935": {"distance": 788.0, "latitude": 40.961, "longitude": -98.314, "useCount": 0, "id": "72552014935", "name": "GRAND ISLAND CENTRAL NE REGIONAL AIRPORT, NE US", "quality": 100, "contribution": 0.0}, "72552594949": {"distance": 42012.0, "latitude": 40.601, "longitude": -98.426, "useCount": 0, "id": "72552594949", "name": "HASTINGS MUNICIPAL AIRPORT, NE US", "quality": 100, "contribution": 0.0}, "KAUH": {"distance": 28230.0, "latitude": 40.89, "longitude": -97.99, "useCount": 0, "id": "KAUH", "name": "KAUH", "quality": 100, "contribution": 0.0}}}