{"queryCost": 1, "latitude": 42.88079834, "longitude": -85.52279663, "resolvedAddress": "42.88079834, -85.52279663", "address": "42.88079834, -85.52279663", "timezone": "America/Detroit", "tzoffset": -4.0, "days": [{"datetime": "2019-09-15", "datetimeEpoch": 1568520000, "tempmax": 22.2, "tempmin": 16.1, "temp": 19.9, "feelslikemax": 22.2, "feelslikemin": 16.1, "feelslike": 20.0, "dew": 15.5, "humidity": 76.08, "precip": 0.0, "precipprob": null, "precipcover": 12.5, "preciptype": null, "snow": 0.0, "snowdepth": 0.0, "windgust": 51.8, "windspeed": 20.5, "winddir": 190.8, "pressure": 1018.7, "cloudcover": 88.4, "visibility": 16.0, "solarradiation": 104.7, "solarenergy": 5.3, "sunrise": "07:21:29", "sunriseEpoch": 1568546489, "sunset": "19:52:28", "sunsetEpoch": 1568591548, "moonphase": 0.51, "conditions": "Overcast", "icon": "cloudy", "stations": ["72635094860", "A0735900240", "KY70", "KBIV", "72539404839", "KGRR"], "source": "obs", "hours": null}], "stations": {"72635094860": {"distance": 210.0, "latitude": 42.883, "longitude": -85.524, "useCount": 0, "id": "72635094860", "name": "GRAND RAPIDS GERALD R FORD INTERNATIONAL AIRPORT, MI US", "quality": 100, "contribution": 0.0}, "A0735900240": {"distance": 38187.0, "latitude": 42.938, "longitude": -85.061, "useCount": 0, "id": "A0735900240", "name": "IONIA CO AIRPORT, MI US", "quality": 100, "contribution": 0.0}, "KY70": {"distance": 38304.0, "latitude": 42.94, "longitude": -85.06, "useCount": 0, "id": "KY70", "name": "KY70", "quality": 100, "contribution": 0.0}, "KBIV": {"distance": 49331.0, "latitude": 42.75, "longitude": -86.1, "useCount": 0, "id": "KBIV", "name": "KBIV", "quality": 100, "contribution": 0.0}, "72539404839": {"distance": 49206.0, "latitude": 42.746, "longitude": -86.097, "useCount": 0, "id": "72539404839", "name": "HOLLAND TULIP CITY AIRPORT, MI US", "quality": 100, "contribution": 0.0}, "KGRR": {"distance": 245.0, "latitude": 42.88, "longitude": -85.52, "useCount": 0, "id": "KGRR", "name": "KGRR", "quality": 100, "contribution": 0.0}}}