{"queryCost": 1, "latitude": 36.097801208496094, "longitude": -79.93730163574219, "resolvedAddress": "36.097801208496094, -79.93730163574219", "address": "36.097801208496094, -79.93730163574219", "timezone": "America/New_York", "tzoffset": -5.0, "days": [{"datetime": "2020-01-04", "datetimeEpoch": 1578114000, "tempmax": 15.0, "tempmin": 3.9, "temp": 11.3, "feelslikemax": 15.0, "feelslikemin": -1.9, "feelslike": 10.3, "dew": 8.5, "humidity": 84.75, "precip": 4.91, "precipprob": null, "precipcover": 41.67, "preciptype": null, "snow": 0.0, "snowdepth": 0.0, "windgust": 60.3, "windspeed": 40.6, "winddir": 245.9, "pressure": 1007.8, "cloudcover": 72.9, "visibility": 11.7, "solarradiation": 77.6, "solarenergy": 2.8, "sunrise": "07:31:05", "sunriseEpoch": 1578141065, "sunset": "17:18:13", "sunsetEpoch": 1578176293, "moonphase": 0.31, "conditions": "Rain, Partially cloudy", "icon": "rain", "stations": ["72317013723", "KSIF", "KINT", "74207703763", "72319393807", "KGSO"], "source": "obs", "hours": null}], "stations": {"72317013723": {"distance": 540.0, "latitude": 36.097, "longitude": -79.943, "useCount": 0, "id": "72317013723", "name": "GREENSBORO AIRPORT, NC US", "quality": 100, "contribution": 0.0}, "KSIF": {"distance": 39082.0, "latitude": 36.44, "longitude": -79.84, "useCount": 0, "id": "KSIF", "name": "KSIF", "quality": 97, "contribution": 0.0}, "KINT": {"distance": 25674.0, "latitude": 36.13, "longitude": -80.22, "useCount": 0, "id": "KINT", "name": "KINT", "quality": 100, "contribution": 0.0}, "74207703763": {"distance": 38566.0, "latitude": 36.437, "longitude": -79.851, "useCount": 0, "id": "74207703763", "name": "ROCKINGHAM CO SHILOH AIRPORT, NC US", "quality": 100, "contribution": 0.0}, "72319393807": {"distance": 25928.0, "latitude": 36.134, "longitude": -80.222, "useCount": 0, "id": "72319393807", "name": "WINSTON SALEM REYNOLDS AIRPORT, NC US", "quality": 100, "contribution": 0.0}, "KGSO": {"distance": 2287.0, "latitude": 36.08, "longitude": -79.95, "useCount": 0, "id": "KGSO", "name": "KGSO", "quality": 100, "contribution": 0.0}}}