{"queryCost": 1, "latitude": 36.097801208496094, "longitude": -79.93730163574219, "resolvedAddress": "36.097801208496094, -79.93730163574219", "address": "36.097801208496094, -79.93730163574219", "timezone": "America/New_York", "tzoffset": -5.0, "days": [{"datetime": "2020-01-01", "datetimeEpoch": 1577854800, "tempmax": 11.1, "tempmin": 2.2, "temp": 5.7, "feelslikemax": 11.1, "feelslikemin": -1.4, "feelslike": 3.7, "dew": -1.8, "humidity": 59.4, "precip": 0.0, "precipprob": null, "precipcover": 0.0, "preciptype": null, "snow": 0.0, "snowdepth": 0.0, "windgust": 27.7, "windspeed": 20.5, "winddir": 243.3, "pressure": 1013.1, "cloudcover": 50.9, "visibility": 16.0, "solarradiation": 245.8, "solarenergy": 9.7, "sunrise": "07:30:40", "sunriseEpoch": 1577881840, "sunset": "17:15:49", "sunsetEpoch": 1577916949, "moonphase": 0.17, "conditions": "Partially cloudy", "icon": "partly-cloudy-day", "stations": ["72317013723", "KSIF", "KINT", "74207703763", "72319393807", "KGSO"], "source": "obs", "hours": null}], "stations": {"72317013723": {"distance": 540.0, "latitude": 36.097, "longitude": -79.943, "useCount": 0, "id": "72317013723", "name": "GREENSBORO AIRPORT, NC US", "quality": 100, "contribution": 0.0}, "KSIF": {"distance": 39082.0, "latitude": 36.44, "longitude": -79.84, "useCount": 0, "id": "KSIF", "name": "KSIF", "quality": 97, "contribution": 0.0}, "KINT": {"distance": 25674.0, "latitude": 36.13, "longitude": -80.22, "useCount": 0, "id": "KINT", "name": "KINT", "quality": 100, "contribution": 0.0}, "74207703763": {"distance": 38566.0, "latitude": 36.437, "longitude": -79.851, "useCount": 0, "id": "74207703763", "name": "ROCKINGHAM CO SHILOH AIRPORT, NC US", "quality": 100, "contribution": 0.0}, "72319393807": {"distance": 25928.0, "latitude": 36.134, "longitude": -80.222, "useCount": 0, "id": "72319393807", "name": "WINSTON SALEM REYNOLDS AIRPORT, NC US", "quality": 100, "contribution": 0.0}, "KGSO": {"distance": 2287.0, "latitude": 36.08, "longitude": -79.95, "useCount": 0, "id": "KGSO", "name": "KGSO", "quality": 100, "contribution": 0.0}}}