{"queryCost": 1, "latitude": 34.8956985474, "longitude": -82.2189025879, "resolvedAddress": "34.8956985474, -82.2189025879", "address": "34.8956985474, -82.2189025879", "timezone": "America/New_York", "tzoffset": -5.0, "days": [{"datetime": "2020-01-07", "datetimeEpoch": 1578373200, "tempmax": 13.4, "tempmin": 3.4, "temp": 8.0, "feelslikemax": 13.4, "feelslikemin": 1.5, "feelslike": 7.2, "dew": -0.4, "humidity": 60.32, "precip": 3.6, "precipprob": null, "precipcover": 16.67, "preciptype": null, "snow": 0.0, "snowdepth": 0.0, "windgust": 42.5, "windspeed": 27.7, "winddir": 206.3, "pressure": 1016.9, "cloudcover": 31.8, "visibility": 14.9, "solarradiation": 227.3, "solarenergy": 9.8, "uvindex": 6.0, "sunrise": "07:37:17", "sunriseEpoch": 1578400637, "sunset": "17:32:58", "sunsetEpoch": 1578436378, "moonphase": 0.44, "conditions": "Rain, Partially cloudy", "description": "Partly cloudly with late afternoon rain.", "icon": "rain", "stations": ["72312003870", "72311913886", "KGMU", "KGSP", "KSPA", "72312699999"], "source": "obs", "hours": null}], "stations": {"72312003870": {"distance": 1297.0, "latitude": 34.906, "longitude": -82.212, "useCount": 0, "id": "72312003870", "name": "GRNVL SPART INTERNATIONAL AIRPORT, SC US", "quality": 100, "contribution": 0.0}, "72311913886": {"distance": 12862.0, "latitude": 34.846, "longitude": -82.346, "useCount": 0, "id": "72311913886", "name": "GREENVILLE DOWNTOWN AIRPORT, SC US", "quality": 100, "contribution": 0.0}, "KGMU": {"distance": 13009.0, "latitude": 34.85, "longitude": -82.35, "useCount": 0, "id": "KGMU", "name": "KGMU", "quality": 100, "contribution": 0.0}, "KGSP": {"distance": 489.0, "latitude": 34.9, "longitude": -82.22, "useCount": 0, "id": "KGSP", "name": "KGSP", "quality": 100, "contribution": 0.0}, "KSPA": {"distance": 24556.0, "latitude": 34.9, "longitude": -81.95, "useCount": 0, "id": "KSPA", "name": "KSPA", "quality": 99, "contribution": 0.0}, "72312699999": {"distance": 24059.0, "latitude": 34.916, "longitude": -81.956, "useCount": 0, "id": "72312699999", "name": "SPARTANBURG DOWNTOWN MEM, SC US", "quality": 100, "contribution": 0.0}}}