{"queryCost": 1, "latitude": 38.53390121, "longitude": -106.9329987, "resolvedAddress": "38.53390121, -106.9329987", "address": "38.53390121, -106.9329987", "timezone": "America/Denver", "tzoffset": -7.0, "days": [{"datetime": "2020-01-01", "datetimeEpoch": 1577862000, "tempmax": -11.1, "tempmin": -26.0, "temp": -17.1, "feelslikemax": -11.1, "feelslikemin": -31.6, "feelslike": -19.4, "dew": -19.9, "humidity": 79.05, "precip": 0.79, "precipprob": null, "precipcover": 41.67, "preciptype": null, "snow": 0.0, "snowdepth": 15.0, "windgust": 76.0, "windspeed": 9.4, "winddir": 224.8, "pressure": 1027.4, "cloudcover": 88.9, "visibility": 12.4, "solarradiation": 33.3, "solarenergy": 1.3, "sunrise": "07:25:23", "sunriseEpoch": 1577888723, "sunset": "16:57:09", "sunsetEpoch": 1577923029, "moonphase": 0.17, "conditions": "Snow, Overcast", "icon": "snow", "stations": ["KAEJ", "KGUC", "KASE", "72467793007", "99999903060"], "source": "obs", "hours": null}], "stations": {"KAEJ": {"distance": 77053.0, "latitude": 38.81, "longitude": -106.12, "useCount": 0, "id": "KAEJ", "name": "KAEJ", "quality": 50, "contribution": 0.0}, "KGUC": {"distance": 507.0, "latitude": 38.53, "longitude": -106.93, "useCount": 0, "id": "KGUC", "name": "GUNNISON ARPT, CO", "quality": 100, "contribution": 0.0}, "KASE": {"distance": 76571.0, "latitude": 39.22, "longitude": -106.87, "useCount": 0, "id": "KASE", "name": "KASE", "quality": 100, "contribution": 0.0}, "72467793007": {"distance": 67.0, "latitude": 38.533, "longitude": -106.933, "useCount": 0, "id": "72467793007", "name": "GUNNISON CO AIRPORT, CO US", "quality": 100, "contribution": 0.0}, "99999903060": {"distance": 66185.0, "latitude": 38.544, "longitude": -107.693, "useCount": 0, "id": "99999903060", "name": "MONTROSE 11 ENE, CO US", "quality": 100, "contribution": 0.0}}}