{"queryCost": 1, "latitude": 40.48120117, "longitude": -107.2180023, "resolvedAddress": "40.48120117, -107.2180023", "address": "40.48120117, -107.2180023", "timezone": "America/Denver", "tzoffset": -7.0, "days": [{"datetime": "2020-01-07", "datetimeEpoch": 1578380400, "tempmax": -0.7, "tempmin": -7.8, "temp": -4.9, "feelslikemax": -1.6, "feelslikemin": -14.6, "feelslike": -9.7, "dew": -9.9, "humidity": 68.22, "precip": 0.0, "precipprob": null, "precipcover": 0.0, "preciptype": null, "snow": 0.0, "snowdepth": 46.7, "windgust": null, "windspeed": 22.3, "winddir": 123.3, "pressure": 1031.5, "cloudcover": 45.4, "visibility": 16.0, "solarradiation": 290.4, "solarenergy": 11.5, "uvindex": 5.0, "sunrise": "07:32:21", "sunriseEpoch": 1578407541, "sunset": "16:57:59", "sunsetEpoch": 1578441479, "moonphase": 0.44, "conditions": "Partially cloudy", "description": "Partly cloudly.", "icon": "partly-cloudy-day", "stations": ["72570024046", "KHDN", "72571094025", "KEEO", "72467494050", "KCAG"], "source": "obs", "hours": null}], "stations": {"72570024046": {"distance": 25939.0, "latitude": 40.493, "longitude": -107.524, "useCount": 0, "id": "72570024046", "name": "CRAIG MOFFAT CO AIRPORT, CO US", "quality": 100, "contribution": 0.0}, "KHDN": {"distance": 216.0, "latitude": 40.48, "longitude": -107.22, "useCount": 0, "id": "KHDN", "name": "HAYDEN, CO", "quality": 100, "contribution": 0.0}, "72571094025": {"distance": 86.0, "latitude": 40.481, "longitude": -107.217, "useCount": 0, "id": "72571094025", "name": "HAYDEN YAMPA VALLEY AIRPORT, CO US", "quality": 99, "contribution": 0.0}, "KEEO": {"distance": 75306.0, "latitude": 40.04, "longitude": -107.89, "useCount": 0, "id": "KEEO", "name": "KEEO", "quality": 100, "contribution": 0.0}, "72467494050": {"distance": 74936.0, "latitude": 40.044, "longitude": -107.889, "useCount": 0, "id": "72467494050", "name": "MEEKER AIRPORT, CO US", "quality": 100, "contribution": 0.0}, "KCAG": {"distance": 25653.0, "latitude": 40.5, "longitude": -107.52, "useCount": 0, "id": "KCAG", "name": "KCAG", "quality": 100, "contribution": 0.0}}}