{"queryCost": 1, "latitude": 21.32062, "longitude": -157.924228, "resolvedAddress": "21.32062, -157.924228", "address": "21.32062, -157.924228", "timezone": "Pacific/Honolulu", "tzoffset": -10.0, "days": [{"datetime": "2019-10-07", "datetimeEpoch": 1570442400, "tempmax": 29.3, "tempmin": 23.3, "temp": 26.3, "feelslikemax": 30.6, "feelslikemin": 23.3, "feelslike": 26.8, "dew": 19.9, "humidity": 68.36, "precip": 0.01, "precipprob": null, "precipcover": 16.67, "preciptype": null, "snow": 0.0, "snowdepth": 0.0, "windgust": null, "windspeed": 22.3, "winddir": 131.0, "pressure": 1012.3, "cloudcover": 71.9, "visibility": 15.9, "solarradiation": 255.7, "solarenergy": 12.0, "sunrise": "06:24:37", "sunriseEpoch": 1570465477, "sunset": "18:14:04", "sunsetEpoch": 1570508044, "moonphase": 0.34, "conditions": "Rain, Partially cloudy", "icon": "rain", "stations": ["91176022519", "PHNL", "PHNG", "91178022551", "91182022521", "91170022508"], "source": "obs", "hours": null}], "stations": {"91176022519": {"distance": 21709.0, "latitude": 21.451, "longitude": -157.768, "useCount": 0, "id": "91176022519", "name": "KANEOHE BAY MCAS, HI US", "quality": 98, "contribution": 0.0}, "PHNL": {"distance": 3325.0, "latitude": 21.35, "longitude": -157.93, "useCount": 0, "id": "PHNL", "name": "HONOLULU INTL,HI", "quality": 100, "contribution": 0.0}, "PHNG": {"distance": 21517.0, "latitude": 21.45, "longitude": -157.77, "useCount": 0, "id": "PHNG", "name": "PHNG", "quality": 97, "contribution": 0.0}, "91178022551": {"distance": 14812.0, "latitude": 21.317, "longitude": -158.067, "useCount": 0, "id": "91178022551", "name": "EWA KALAELOA AIRPORT, HI US", "quality": 98, "contribution": 0.0}, "91182022521": {"distance": 622.0, "latitude": 21.324, "longitude": -157.929, "useCount": 0, "id": "91182022521", "name": "HONOLULU INTERNATIONAL AIRPORT, HI US", "quality": 100, "contribution": 0.0}, "91170022508": {"distance": 21437.0, "latitude": 21.487, "longitude": -158.028, "useCount": 0, "id": "91170022508", "name": "WHEELER ARMY AIR FIELD 810.1, HI US", "quality": 99, "contribution": 0.0}}}