{"queryCost": 1, "latitude": 21.32062, "longitude": -157.924228, "resolvedAddress": "21.32062, -157.924228", "address": "21.32062, -157.924228", "timezone": "Pacific/Honolulu", "tzoffset": -10.0, "days": [{"datetime": "2018-09-26", "datetimeEpoch": 1537956000, "tempmax": 30.0, "tempmin": 26.1, "temp": 27.6, "feelslikemax": 36.3, "feelslikemin": 26.1, "feelslike": 31.0, "dew": 24.9, "humidity": 85.29, "precip": 6.94, "precipprob": null, "precipcover": 62.5, "preciptype": null, "snow": 0.0, "snowdepth": 0.0, "windgust": null, "windspeed": 18.3, "winddir": 142.3, "pressure": 1011.3, "cloudcover": 70.0, "visibility": 15.5, "solarradiation": 294.2, "solarenergy": 13.8, "sunrise": "06:21:31", "sunriseEpoch": 1537978891, "sunset": "18:23:59", "sunsetEpoch": 1538022239, "moonphase": 0.52, "conditions": "Rain, Partially cloudy", "icon": "rain", "stations": ["91176022519", "PHNL", "PHNG", "91178022551", "91182022521", "91170022508"], "source": "obs", "hours": null}], "stations": {"91176022519": {"distance": 21709.0, "latitude": 21.451, "longitude": -157.768, "useCount": 0, "id": "91176022519", "name": "KANEOHE BAY MCAS, HI US", "quality": 98, "contribution": 0.0}, "PHNL": {"distance": 3325.0, "latitude": 21.35, "longitude": -157.93, "useCount": 0, "id": "PHNL", "name": "HONOLULU INTL,HI", "quality": 100, "contribution": 0.0}, "PHNG": {"distance": 21517.0, "latitude": 21.45, "longitude": -157.77, "useCount": 0, "id": "PHNG", "name": "PHNG", "quality": 97, "contribution": 0.0}, "91178022551": {"distance": 14812.0, "latitude": 21.317, "longitude": -158.067, "useCount": 0, "id": "91178022551", "name": "EWA KALAELOA AIRPORT, HI US", "quality": 98, "contribution": 0.0}, "91182022521": {"distance": 622.0, "latitude": 21.324, "longitude": -157.929, "useCount": 0, "id": "91182022521", "name": "HONOLULU INTERNATIONAL AIRPORT, HI US", "quality": 100, "contribution": 0.0}, "91170022508": {"distance": 21437.0, "latitude": 21.487, "longitude": -158.028, "useCount": 0, "id": "91170022508", "name": "WHEELER ARMY AIR FIELD 810.1, HI US", "quality": 99, "contribution": 0.0}}}