{"queryCost": 1, "latitude": 21.32062, "longitude": -157.924228, "resolvedAddress": "21.32062, -157.924228", "address": "21.32062, -157.924228", "timezone": "Pacific/Honolulu", "tzoffset": -10.0, "days": [{"datetime": "2018-10-25", "datetimeEpoch": 1540461600, "tempmax": 30.6, "tempmin": 25.0, "temp": 27.3, "feelslikemax": 33.1, "feelslikemin": 25.0, "feelslike": 28.3, "dew": 20.8, "humidity": 67.8, "precip": 0.31, "precipprob": null, "precipcover": 20.83, "preciptype": null, "snow": 0.0, "snowdepth": 0.0, "windgust": 46.0, "windspeed": 31.6, "winddir": 68.3, "pressure": 1015.0, "cloudcover": 53.2, "visibility": 16.0, "solarradiation": 405.2, "solarenergy": 19.0, "sunrise": "06:31:27", "sunriseEpoch": 1540485087, "sunset": "17:59:40", "sunsetEpoch": 1540526380, "moonphase": 0.51, "conditions": "Rain, Partially cloudy", "icon": "rain", "stations": ["91176022519", "PHNL", "PHNG", "91178022551", "91182022521", "91170022508"], "source": "obs", "hours": null}], "stations": {"91176022519": {"distance": 21709.0, "latitude": 21.451, "longitude": -157.768, "useCount": 0, "id": "91176022519", "name": "KANEOHE BAY MCAS, HI US", "quality": 98, "contribution": 0.0}, "PHNL": {"distance": 3325.0, "latitude": 21.35, "longitude": -157.93, "useCount": 0, "id": "PHNL", "name": "HONOLULU INTL,HI", "quality": 100, "contribution": 0.0}, "PHNG": {"distance": 21517.0, "latitude": 21.45, "longitude": -157.77, "useCount": 0, "id": "PHNG", "name": "PHNG", "quality": 97, "contribution": 0.0}, "91178022551": {"distance": 14812.0, "latitude": 21.317, "longitude": -158.067, "useCount": 0, "id": "91178022551", "name": "EWA KALAELOA AIRPORT, HI US", "quality": 98, "contribution": 0.0}, "91182022521": {"distance": 622.0, "latitude": 21.324, "longitude": -157.929, "useCount": 0, "id": "91182022521", "name": "HONOLULU INTERNATIONAL AIRPORT, HI US", "quality": 100, "contribution": 0.0}, "91170022508": {"distance": 21437.0, "latitude": 21.487, "longitude": -158.028, "useCount": 0, "id": "91170022508", "name": "WHEELER ARMY AIR FIELD 810.1, HI US", "quality": 99, "contribution": 0.0}}}