{"queryCost": 1, "latitude": 21.32062, "longitude": -157.924228, "resolvedAddress": "21.32062, -157.924228", "address": "21.32062, -157.924228", "timezone": "Pacific/Honolulu", "tzoffset": -10.0, "days": [{"datetime": "2020-01-07", "datetimeEpoch": 1578391200, "tempmax": 27.8, "tempmin": 22.9, "temp": 24.8, "feelslikemax": 28.3, "feelslikemin": 22.9, "feelslike": 24.8, "dew": 17.3, "humidity": 63.45, "precip": 0.0, "precipprob": null, "precipcover": 20.83, "preciptype": null, "snow": 0.0, "snowdepth": 0.0, "windgust": 73.7, "windspeed": 55.3, "winddir": 59.8, "pressure": 1019.6, "cloudcover": 61.3, "visibility": 16.0, "solarradiation": 373.8, "solarenergy": 16.1, "uvindex": 7.0, "sunrise": "07:11:01", "sunriseEpoch": 1578417061, "sunset": "18:04:59", "sunsetEpoch": 1578456299, "moonphase": 0.44, "conditions": "Partially cloudy", "description": "Partly cloudly.", "icon": "wind", "stations": ["91176022519", "PHNL", "PHNG", "91178022551", "91182022521", "91170022508"], "source": "obs", "hours": null}], "stations": {"91176022519": {"distance": 21709.0, "latitude": 21.451, "longitude": -157.768, "useCount": 0, "id": "91176022519", "name": "KANEOHE BAY MCAS, HI US", "quality": 98, "contribution": 0.0}, "PHNL": {"distance": 3325.0, "latitude": 21.35, "longitude": -157.93, "useCount": 0, "id": "PHNL", "name": "HONOLULU INTL,HI", "quality": 100, "contribution": 0.0}, "PHNG": {"distance": 21517.0, "latitude": 21.45, "longitude": -157.77, "useCount": 0, "id": "PHNG", "name": "PHNG", "quality": 97, "contribution": 0.0}, "91178022551": {"distance": 14812.0, "latitude": 21.317, "longitude": -158.067, "useCount": 0, "id": "91178022551", "name": "EWA KALAELOA AIRPORT, HI US", "quality": 98, "contribution": 0.0}, "91182022521": {"distance": 622.0, "latitude": 21.324, "longitude": -157.929, "useCount": 0, "id": "91182022521", "name": "HONOLULU INTERNATIONAL AIRPORT, HI US", "quality": 100, "contribution": 0.0}, "91170022508": {"distance": 21437.0, "latitude": 21.487, "longitude": -158.028, "useCount": 0, "id": "91170022508", "name": "WHEELER ARMY AIR FIELD 810.1, HI US", "quality": 99, "contribution": 0.0}}}