{"queryCost": 1, "latitude": 32.6875, "longitude": -103.2170029, "resolvedAddress": "32.6875, -103.2170029", "address": "32.6875, -103.2170029", "timezone": "America/Denver", "tzoffset": -7.0, "days": [{"datetime": "2020-01-01", "datetimeEpoch": 1577862000, "tempmax": 16.0, "tempmin": -1.0, "temp": 6.0, "feelslikemax": 16.0, "feelslikemin": -5.2, "feelslike": 3.6, "dew": -3.7, "humidity": 56.44, "precip": 0.0, "precipprob": null, "precipcover": 0.0, "preciptype": null, "snow": 0.0, "snowdepth": 0.0, "windgust": 51.8, "windspeed": 40.7, "winddir": 217.5, "pressure": null, "cloudcover": 5.7, "visibility": 16.0, "solarradiation": 270.8, "solarenergy": 11.7, "sunrise": "06:55:08", "sunriseEpoch": 1577886908, "sunset": "16:57:38", "sunsetEpoch": 1577923058, "moonphase": 0.17, "conditions": "Clear", "icon": "wind", "stations": ["99999900349", "KGNC", "KHOB", "72268893034", "KE11", "72210703056"], "source": "obs", "hours": null}], "stations": {"99999900349": {"distance": 75725.0, "latitude": 32.331, "longitude": -102.53, "useCount": 0, "id": "99999900349", "name": null, "quality": 100, "contribution": 0.0}, "KGNC": {"distance": 53131.0, "latitude": 32.68, "longitude": -102.65, "useCount": 0, "id": "KGNC", "name": "KGNC", "quality": 99, "contribution": 0.0}, "KHOB": {"distance": 881.0, "latitude": 32.68, "longitude": -103.22, "useCount": 0, "id": "KHOB", "name": "KHOB", "quality": 98, "contribution": 0.0}, "72268893034": {"distance": 747.0, "latitude": 32.693, "longitude": -103.213, "useCount": 0, "id": "72268893034", "name": "HOBBS FAA, NM US", "quality": 27, "contribution": 0.0}, "KE11": {"distance": 75784.0, "latitude": 32.33, "longitude": -102.53, "useCount": 0, "id": "KE11", "name": "KE11", "quality": 100, "contribution": 0.0}, "72210703056": {"distance": 52769.0, "latitude": 32.675, "longitude": -102.654, "useCount": 0, "id": "72210703056", "name": "GAINES CO AIRPORT, TX US", "quality": 100, "contribution": 0.0}}}