{"queryCost": 1, "latitude": 32.6875, "longitude": -103.2170029, "resolvedAddress": "32.6875, -103.2170029", "address": "32.6875, -103.2170029", "timezone": "America/Denver", "tzoffset": -7.0, "days": [{"datetime": "2020-01-06", "datetimeEpoch": 1578294000, "tempmax": 15.0, "tempmin": -2.0, "temp": 6.1, "feelslikemax": 15.0, "feelslikemin": -6.9, "feelslike": 4.4, "dew": -6.5, "humidity": 45.87, "precip": 0.0, "precipprob": null, "precipcover": 0.0, "preciptype": null, "snow": 0.0, "snowdepth": 0.0, "windgust": 74.2, "windspeed": 51.8, "winddir": 219.2, "pressure": null, "cloudcover": 0.0, "visibility": 16.0, "solarradiation": 293.7, "solarenergy": 13.7, "sunrise": "06:55:53", "sunriseEpoch": 1578318953, "sunset": "17:01:31", "sunsetEpoch": 1578355291, "moonphase": 0.4, "conditions": "Clear", "icon": "wind", "stations": ["99999900349", "KGNC", "KHOB", "72268893034", "KE11", "72210703056"], "source": "obs", "hours": null}], "stations": {"99999900349": {"distance": 75725.0, "latitude": 32.331, "longitude": -102.53, "useCount": 0, "id": "99999900349", "name": null, "quality": 100, "contribution": 0.0}, "KGNC": {"distance": 53131.0, "latitude": 32.68, "longitude": -102.65, "useCount": 0, "id": "KGNC", "name": "KGNC", "quality": 99, "contribution": 0.0}, "KHOB": {"distance": 881.0, "latitude": 32.68, "longitude": -103.22, "useCount": 0, "id": "KHOB", "name": "KHOB", "quality": 98, "contribution": 0.0}, "72268893034": {"distance": 747.0, "latitude": 32.693, "longitude": -103.213, "useCount": 0, "id": "72268893034", "name": "HOBBS FAA, NM US", "quality": 27, "contribution": 0.0}, "KE11": {"distance": 75784.0, "latitude": 32.33, "longitude": -102.53, "useCount": 0, "id": "KE11", "name": "KE11", "quality": 100, "contribution": 0.0}, "72210703056": {"distance": 52769.0, "latitude": 32.675, "longitude": -102.654, "useCount": 0, "id": "72210703056", "name": "GAINES CO AIRPORT, TX US", "quality": 100, "contribution": 0.0}}}