{"queryCost": 1, "latitude": 29.64539909, "longitude": -95.27890015, "resolvedAddress": "29.64539909, -95.27890015", "address": "29.64539909, -95.27890015", "timezone": "America/Chicago", "tzoffset": -6.0, "days": [{"datetime": "2018-01-18", "datetimeEpoch": 1516255200, "tempmax": 3.3, "tempmin": -3.3, "temp": 0.4, "feelslikemax": 3.3, "feelslikemin": -7.6, "feelslike": -1.7, "dew": -6.8, "humidity": 59.5, "precip": 0.0, "precipprob": null, "precipcover": 0.0, "preciptype": null, "snow": 0.0, "snowdepth": 0.35, "windgust": null, "windspeed": 22.2, "winddir": 61.0, "pressure": 1034.2, "cloudcover": 79.9, "visibility": 16.0, "solarradiation": 53.0, "solarenergy": 4.4, "sunrise": "07:16:30", "sunriseEpoch": 1516281390, "sunset": "17:46:56", "sunsetEpoch": 1516319216, "moonphase": 0.01, "conditions": "Overcast", "icon": "cloudy", "stations": ["KHOU", "72059400188", "72242712975", "KAXH", "KLVJ", "72244012918"], "source": "obs", "hours": null}], "stations": {"KHOU": {"distance": 1718.0, "latitude": 29.63, "longitude": -95.28, "useCount": 0, "id": "KHOU", "name": "KHOU", "quality": 100, "contribution": 0.0}, "72059400188": {"distance": 12841.0, "latitude": 29.717, "longitude": -95.383, "useCount": 0, "id": "72059400188", "name": "HOUSTON DUNN HELISTOP, TX US", "quality": 100, "contribution": 0.0}, "72242712975": {"distance": 14535.0, "latitude": 29.519, "longitude": -95.242, "useCount": 0, "id": "72242712975", "name": "HOUSTON CLOVER FIELD, TX US", "quality": 100, "contribution": 0.0}, "KAXH": {"distance": 24622.0, "latitude": 29.51, "longitude": -95.48, "useCount": 0, "id": "KAXH", "name": "KAXH", "quality": 100, "contribution": 0.0}, "KLVJ": {"distance": 14458.0, "latitude": 29.52, "longitude": -95.24, "useCount": 0, "id": "KLVJ", "name": "KLVJ", "quality": 100, "contribution": 0.0}, "72244012918": {"distance": 863.0, "latitude": 29.638, "longitude": -95.282, "useCount": 0, "id": "72244012918", "name": "HOUSTON WILLIAM P HOBBY AIRPORT, TX US", "quality": 100, "contribution": 0.0}}}