{"queryCost": 1, "latitude": 29.64539909, "longitude": -95.27890015, "resolvedAddress": "29.64539909, -95.27890015", "address": "29.64539909, -95.27890015", "timezone": "America/Chicago", "tzoffset": -5.0, "days": [{"datetime": "2019-04-10", "datetimeEpoch": 1554872400, "tempmax": 31.1, "tempmin": 18.4, "temp": 24.0, "feelslikemax": 30.6, "feelslikemin": 18.4, "feelslike": 23.9, "dew": 16.2, "humidity": 65.25, "precip": 0.0, "precipprob": null, "precipcover": 0.0, "preciptype": null, "snow": 0.0, "snowdepth": 0.0, "windgust": 47.6, "windspeed": 33.4, "winddir": 167.9, "pressure": 1007.8, "cloudcover": 19.7, "visibility": 16.0, "solarradiation": 486.1, "solarenergy": 22.7, "sunrise": "07:00:19", "sunriseEpoch": 1554897619, "sunset": "19:44:59", "sunsetEpoch": 1554943499, "moonphase": 0.13, "conditions": "Clear", "icon": "wind", "stations": ["KHOU", "72059400188", "72242712975", "KAXH", "KLVJ", "72244012918"], "source": "obs", "hours": null}], "stations": {"KHOU": {"distance": 1718.0, "latitude": 29.63, "longitude": -95.28, "useCount": 0, "id": "KHOU", "name": "KHOU", "quality": 100, "contribution": 0.0}, "72059400188": {"distance": 12841.0, "latitude": 29.717, "longitude": -95.383, "useCount": 0, "id": "72059400188", "name": "HOUSTON DUNN HELISTOP, TX US", "quality": 100, "contribution": 0.0}, "72242712975": {"distance": 14535.0, "latitude": 29.519, "longitude": -95.242, "useCount": 0, "id": "72242712975", "name": "HOUSTON CLOVER FIELD, TX US", "quality": 100, "contribution": 0.0}, "KAXH": {"distance": 24622.0, "latitude": 29.51, "longitude": -95.48, "useCount": 0, "id": "KAXH", "name": "KAXH", "quality": 100, "contribution": 0.0}, "KLVJ": {"distance": 14458.0, "latitude": 29.52, "longitude": -95.24, "useCount": 0, "id": "KLVJ", "name": "KLVJ", "quality": 100, "contribution": 0.0}, "72244012918": {"distance": 863.0, "latitude": 29.638, "longitude": -95.282, "useCount": 0, "id": "72244012918", "name": "HOUSTON WILLIAM P HOBBY AIRPORT, TX US", "quality": 100, "contribution": 0.0}}}