{"queryCost": 1, "latitude": 29.64539909, "longitude": -95.27890015, "resolvedAddress": "29.64539909, -95.27890015", "address": "29.64539909, -95.27890015", "timezone": "America/Chicago", "tzoffset": -5.0, "days": [{"datetime": "2018-03-14", "datetimeEpoch": 1521003600, "tempmax": 20.7, "tempmin": 9.3, "temp": 14.8, "feelslikemax": 20.7, "feelslikemin": 7.7, "feelslike": 14.6, "dew": 5.4, "humidity": 56.37, "precip": 0.0, "precipprob": null, "precipcover": 0.0, "preciptype": null, "snow": 0.0, "snowdepth": 0.0, "windgust": null, "windspeed": 16.5, "winddir": 66.5, "pressure": 1024.8, "cloudcover": 53.5, "visibility": 16.0, "solarradiation": 243.8, "solarenergy": 18.4, "sunrise": "07:31:55", "sunriseEpoch": 1521030715, "sunset": "19:28:58", "sunsetEpoch": 1521073738, "moonphase": 0.96, "conditions": "Partially cloudy", "icon": "partly-cloudy-day", "stations": ["KHOU", "72059400188", "72242712975", "KAXH", "KLVJ", "72244012918"], "source": "obs", "hours": null}], "stations": {"KHOU": {"distance": 1718.0, "latitude": 29.63, "longitude": -95.28, "useCount": 0, "id": "KHOU", "name": "KHOU", "quality": 100, "contribution": 0.0}, "72059400188": {"distance": 12841.0, "latitude": 29.717, "longitude": -95.383, "useCount": 0, "id": "72059400188", "name": "HOUSTON DUNN HELISTOP, TX US", "quality": 100, "contribution": 0.0}, "72242712975": {"distance": 14535.0, "latitude": 29.519, "longitude": -95.242, "useCount": 0, "id": "72242712975", "name": "HOUSTON CLOVER FIELD, TX US", "quality": 100, "contribution": 0.0}, "KAXH": {"distance": 24622.0, "latitude": 29.51, "longitude": -95.48, "useCount": 0, "id": "KAXH", "name": "KAXH", "quality": 100, "contribution": 0.0}, "KLVJ": {"distance": 14458.0, "latitude": 29.52, "longitude": -95.24, "useCount": 0, "id": "KLVJ", "name": "KLVJ", "quality": 100, "contribution": 0.0}, "72244012918": {"distance": 863.0, "latitude": 29.638, "longitude": -95.282, "useCount": 0, "id": "72244012918", "name": "HOUSTON WILLIAM P HOBBY AIRPORT, TX US", "quality": 100, "contribution": 0.0}}}