{"queryCost": 1, "latitude": 29.64539909, "longitude": -95.27890015, "resolvedAddress": "29.64539909, -95.27890015", "address": "29.64539909, -95.27890015", "timezone": "America/Chicago", "tzoffset": -6.0, "days": [{"datetime": "2019-02-01", "datetimeEpoch": 1549000800, "tempmax": 18.3, "tempmin": 13.8, "temp": 15.5, "feelslikemax": 18.3, "feelslikemin": 13.8, "feelslike": 15.5, "dew": 13.9, "humidity": 90.22, "precip": 2.23, "precipprob": null, "precipcover": 20.83, "preciptype": null, "snow": 0.0, "snowdepth": 0.0, "windgust": null, "windspeed": 18.3, "winddir": 69.6, "pressure": 1020.2, "cloudcover": 97.9, "visibility": 7.1, "solarradiation": 70.3, "solarenergy": 6.1, "sunrise": "07:10:56", "sunriseEpoch": 1549026656, "sunset": "17:58:48", "sunsetEpoch": 1549065528, "moonphase": 0.95, "conditions": "Rain, Overcast", "icon": "rain", "stations": ["KHOU", "72059400188", "72242712975", "KAXH", "KLVJ", "72244012918"], "source": "obs", "hours": null}], "stations": {"KHOU": {"distance": 1718.0, "latitude": 29.63, "longitude": -95.28, "useCount": 0, "id": "KHOU", "name": "KHOU", "quality": 100, "contribution": 0.0}, "72059400188": {"distance": 12841.0, "latitude": 29.717, "longitude": -95.383, "useCount": 0, "id": "72059400188", "name": "HOUSTON DUNN HELISTOP, TX US", "quality": 100, "contribution": 0.0}, "72242712975": {"distance": 14535.0, "latitude": 29.519, "longitude": -95.242, "useCount": 0, "id": "72242712975", "name": "HOUSTON CLOVER FIELD, TX US", "quality": 100, "contribution": 0.0}, "KAXH": {"distance": 24622.0, "latitude": 29.51, "longitude": -95.48, "useCount": 0, "id": "KAXH", "name": "KAXH", "quality": 100, "contribution": 0.0}, "KLVJ": {"distance": 14458.0, "latitude": 29.52, "longitude": -95.24, "useCount": 0, "id": "KLVJ", "name": "KLVJ", "quality": 100, "contribution": 0.0}, "72244012918": {"distance": 863.0, "latitude": 29.638, "longitude": -95.282, "useCount": 0, "id": "72244012918", "name": "HOUSTON WILLIAM P HOBBY AIRPORT, TX US", "quality": 100, "contribution": 0.0}}}