{"queryCost": 1, "latitude": 41.06700134277344, "longitude": -73.70760345458984, "resolvedAddress": "41.06700134277344, -73.70760345458984", "address": "41.06700134277344, -73.70760345458984", "timezone": "America/New_York", "tzoffset": -4.0, "days": [{"datetime": "2019-03-26", "datetimeEpoch": 1553572800, "tempmax": 7.9, "tempmin": -2.1, "temp": 2.9, "feelslikemax": 4.4, "feelslikemin": -8.0, "feelslike": -1.4, "dew": -16.4, "humidity": 23.53, "precip": 0.0, "precipprob": null, "precipcover": 0.0, "preciptype": null, "snow": 0.0, "snowdepth": 0.0, "windgust": 44.6, "windspeed": 33.5, "winddir": 305.4, "pressure": 1023.8, "cloudcover": 2.1, "visibility": 16.0, "solarradiation": 403.6, "solarenergy": 18.9, "sunrise": "06:48:28", "sunriseEpoch": 1553597308, "sunset": "19:13:14", "sunsetEpoch": 1553641994, "moonphase": 0.67, "conditions": "Clear", "icon": "wind", "stations": ["72503794745", "72502594741", "KTEB", "KHPN", "KLGA", "72503014732"], "source": "obs", "hours": null}], "stations": {"72503794745": {"distance": 571.0, "latitude": 41.062, "longitude": -73.705, "useCount": 0, "id": "72503794745", "name": "WESTCHESTER CO AIRPORT, NY US", "quality": 100, "contribution": 0.0}, "72502594741": {"distance": 38316.0, "latitude": 40.85, "longitude": -74.061, "useCount": 0, "id": "72502594741", "name": "TETERBORO AIRPORT, NJ US", "quality": 100, "contribution": 0.0}, "KTEB": {"distance": 38225.0, "latitude": 40.85, "longitude": -74.06, "useCount": 0, "id": "KTEB", "name": "KTEB", "quality": 100, "contribution": 0.0}, "KHPN": {"distance": 720.0, "latitude": 41.07, "longitude": -73.7, "useCount": 0, "id": "KHPN", "name": "KHPN", "quality": 100, "contribution": 0.0}, "KLGA": {"distance": 36811.0, "latitude": 40.77, "longitude": -73.9, "useCount": 0, "id": "KLGA", "name": "KLGA", "quality": 100, "contribution": 0.0}, "72503014732": {"distance": 35157.0, "latitude": 40.779, "longitude": -73.88, "useCount": 0, "id": "72503014732", "name": "LAGUARDIA AIRPORT, NY US", "quality": 100, "contribution": 0.0}}}