{"queryCost": 1, "latitude": 26.228500366210938, "longitude": -97.65440368652344, "resolvedAddress": "26.228500366210938, -97.65440368652344", "address": "26.228500366210938, -97.65440368652344", "timezone": "America/Chicago", "tzoffset": -6.0, "days": [{"datetime": "2020-01-01", "datetimeEpoch": 1577858400, "tempmax": 17.8, "tempmin": 15.0, "temp": 16.3, "feelslikemax": 17.8, "feelslikemin": 15.0, "feelslike": 16.3, "dew": 15.5, "humidity": 95.12, "precip": 5.9, "precipprob": null, "precipcover": 37.5, "preciptype": null, "snow": 0.0, "snowdepth": 0.0, "windgust": null, "windspeed": 22.3, "winddir": 234.2, "pressure": 1014.0, "cloudcover": 99.9, "visibility": 12.8, "solarradiation": 40.0, "solarenergy": 1.6, "sunrise": "07:18:17", "sunriseEpoch": 1577884697, "sunset": "17:49:58", "sunsetEpoch": 1577922598, "moonphase": 0.17, "conditions": "Rain, Overcast", "icon": "rain", "stations": ["KHRL", "72250512904", "72250012919", "KBRO", "72215912980"], "source": "obs", "hours": null}], "stations": {"72215912980": {"distance": 32334.0, "latitude": 26.178, "longitude": -97.973, "useCount": 0, "id": "72215912980", "name": "WESLACO MID VALLEY AIRPORT, TX US", "quality": 100, "contribution": 0.0}, "KHRL": {"distance": 470.0, "latitude": 26.23, "longitude": -97.65, "useCount": 0, "id": "KHRL", "name": "KHRL", "quality": 100, "contribution": 0.0}, "72250512904": {"distance": 49.0, "latitude": 26.228, "longitude": -97.654, "useCount": 0, "id": "72250512904", "name": "HARLINGEN RIO GRANDE VALLEY INTERNATIONAL AIRPORT, TX US", "quality": 99, "contribution": 0.0}, "72250012919": {"distance": 41956.0, "latitude": 25.914, "longitude": -97.423, "useCount": 0, "id": "72250012919", "name": "BROWNSVILLE S PADRE ISLAND INTERNATIONAL AIRPORT, TX US", "quality": 100, "contribution": 0.0}, "KBRO": {"distance": 42905.0, "latitude": 25.9, "longitude": -97.43, "useCount": 0, "id": "KBRO", "name": "KBRO", "quality": 100, "contribution": 0.0}}}