{"queryCost": 1, "latitude": 34.637199401855, "longitude": -86.775100708008, "resolvedAddress": "34.637199401855, -86.775100708008", "address": "34.637199401855, -86.775100708008", "timezone": "America/Chicago", "tzoffset": -6.0, "days": [{"datetime": "2019-12-22", "datetimeEpoch": 1576994400, "tempmax": 11.1, "tempmin": 7.2, "temp": 9.1, "feelslikemax": 11.1, "feelslikemin": 4.5, "feelslike": 8.2, "dew": 7.7, "humidity": 90.93, "precip": 69.12, "precipprob": null, "precipcover": 100.0, "preciptype": null, "snow": 0.0, "snowdepth": 0.0, "windgust": 53.5, "windspeed": 37.0, "winddir": 57.5, "pressure": 1021.3, "cloudcover": 89.5, "visibility": 9.1, "solarradiation": 21.4, "solarenergy": 0.8, "sunrise": "06:50:45", "sunriseEpoch": 1577019045, "sunset": "16:40:35", "sunsetEpoch": 1577054435, "moonphase": 0.93, "conditions": "Rain, Overcast", "icon": "rain", "stations": ["KHSV", "72323003856", "72203163839", "KDCU", "72227953852", "KCMD"], "source": "obs", "hours": null}], "stations": {"KHSV": {"distance": 1500.0, "latitude": 34.65, "longitude": -86.77, "useCount": 0, "id": "KHSV", "name": "KHSV", "quality": 100, "contribution": 0.0}, "72323003856": {"distance": 1253.0, "latitude": 34.644, "longitude": -86.786, "useCount": 0, "id": "72323003856", "name": "HUNTSVILLE INTERNATIONAL AIRPORT JONES FIELD, AL US", "quality": 100, "contribution": 0.0}, "72203163839": {"distance": 41704.0, "latitude": 34.269, "longitude": -86.858, "useCount": 0, "id": "72203163839", "name": "CULLMAN FOLSOM FIELD AIRPORT, AL US", "quality": 100, "contribution": 0.0}, "KDCU": {"distance": 16081.0, "latitude": 34.65, "longitude": -86.95, "useCount": 0, "id": "KDCU", "name": "KDCU", "quality": 100, "contribution": 0.0}, "72227953852": {"distance": 15680.0, "latitude": 34.653, "longitude": -86.945, "useCount": 0, "id": "72227953852", "name": "DECATUR PRYOR FIELD, AL US", "quality": 100, "contribution": 0.0}, "KCMD": {"distance": 41451.0, "latitude": 34.27, "longitude": -86.85, "useCount": 0, "id": "KCMD", "name": "KCMD", "quality": 99, "contribution": 0.0}}}