{"queryCost": 1, "latitude": 34.637199401855, "longitude": -86.775100708008, "resolvedAddress": "34.637199401855, -86.775100708008", "address": "34.637199401855, -86.775100708008", "timezone": "America/Chicago", "tzoffset": -5.0, "days": [{"datetime": "2019-05-30", "datetimeEpoch": 1559192400, "tempmax": 31.7, "tempmin": 21.7, "temp": 26.4, "feelslikemax": 32.5, "feelslikemin": 21.7, "feelslike": 27.0, "dew": 19.0, "humidity": 65.45, "precip": 0.01, "precipprob": null, "precipcover": 12.5, "preciptype": null, "snow": 0.0, "snowdepth": 0.0, "windgust": 38.9, "windspeed": 27.7, "winddir": 206.2, "pressure": 1011.7, "cloudcover": 52.6, "visibility": 16.0, "solarradiation": 246.9, "solarenergy": 13.3, "sunrise": "05:36:05", "sunriseEpoch": 1559212565, "sunset": "19:53:31", "sunsetEpoch": 1559264011, "moonphase": 0.92, "conditions": "Rain, Partially cloudy", "icon": "rain", "stations": ["KHSV", "72323003856", "72203163839", "KDCU", "72227953852", "KCMD"], "source": "obs", "hours": null}], "stations": {"KHSV": {"distance": 1500.0, "latitude": 34.65, "longitude": -86.77, "useCount": 0, "id": "KHSV", "name": "KHSV", "quality": 100, "contribution": 0.0}, "72323003856": {"distance": 1253.0, "latitude": 34.644, "longitude": -86.786, "useCount": 0, "id": "72323003856", "name": "HUNTSVILLE INTERNATIONAL AIRPORT JONES FIELD, AL US", "quality": 100, "contribution": 0.0}, "72203163839": {"distance": 41704.0, "latitude": 34.269, "longitude": -86.858, "useCount": 0, "id": "72203163839", "name": "CULLMAN FOLSOM FIELD AIRPORT, AL US", "quality": 100, "contribution": 0.0}, "KDCU": {"distance": 16081.0, "latitude": 34.65, "longitude": -86.95, "useCount": 0, "id": "KDCU", "name": "KDCU", "quality": 100, "contribution": 0.0}, "72227953852": {"distance": 15680.0, "latitude": 34.653, "longitude": -86.945, "useCount": 0, "id": "72227953852", "name": "DECATUR PRYOR FIELD, AL US", "quality": 100, "contribution": 0.0}, "KCMD": {"distance": 41451.0, "latitude": 34.27, "longitude": -86.85, "useCount": 0, "id": "KCMD", "name": "KCMD", "quality": 99, "contribution": 0.0}}}