{"queryCost": 1, "latitude": 34.637199401855, "longitude": -86.775100708008, "resolvedAddress": "34.637199401855, -86.775100708008", "address": "34.637199401855, -86.775100708008", "timezone": "America/Chicago", "tzoffset": -6.0, "days": [{"datetime": "2020-01-07", "datetimeEpoch": 1578376800, "tempmax": 12.8, "tempmin": 3.3, "temp": 9.1, "feelslikemax": 12.8, "feelslikemin": 2.5, "feelslike": 8.2, "dew": 0.7, "humidity": 57.7, "precip": 0.51, "precipprob": null, "precipcover": 12.5, "preciptype": null, "snow": 0.0, "snowdepth": 0.0, "windgust": 39.0, "windspeed": 22.3, "winddir": 272.5, "pressure": 1021.3, "cloudcover": 24.0, "visibility": 15.7, "solarradiation": 291.7, "solarenergy": 11.6, "uvindex": 5.0, "sunrise": "06:54:52", "sunriseEpoch": 1578401692, "sunset": "16:51:50", "sunsetEpoch": 1578437510, "moonphase": 0.44, "conditions": "Rain", "description": "Partly cloudly with late afternoon rain.", "icon": "rain", "stations": ["KHSV", "72323003856", "72203163839", "KDCU", "72227953852", "KCMD"], "source": "obs", "hours": null}], "stations": {"KHSV": {"distance": 1500.0, "latitude": 34.65, "longitude": -86.77, "useCount": 0, "id": "KHSV", "name": "KHSV", "quality": 100, "contribution": 0.0}, "72323003856": {"distance": 1253.0, "latitude": 34.644, "longitude": -86.786, "useCount": 0, "id": "72323003856", "name": "HUNTSVILLE INTERNATIONAL AIRPORT JONES FIELD, AL US", "quality": 100, "contribution": 0.0}, "72203163839": {"distance": 41704.0, "latitude": 34.269, "longitude": -86.858, "useCount": 0, "id": "72203163839", "name": "CULLMAN FOLSOM FIELD AIRPORT, AL US", "quality": 100, "contribution": 0.0}, "KDCU": {"distance": 16081.0, "latitude": 34.65, "longitude": -86.95, "useCount": 0, "id": "KDCU", "name": "KDCU", "quality": 100, "contribution": 0.0}, "72227953852": {"distance": 15680.0, "latitude": 34.653, "longitude": -86.945, "useCount": 0, "id": "72227953852", "name": "DECATUR PRYOR FIELD, AL US", "quality": 100, "contribution": 0.0}, "KCMD": {"distance": 41451.0, "latitude": 34.27, "longitude": -86.85, "useCount": 0, "id": "KCMD", "name": "KCMD", "quality": 99, "contribution": 0.0}}}