{"queryCost": 1, "latitude": 34.637199401855, "longitude": -86.775100708008, "resolvedAddress": "34.637199401855, -86.775100708008", "address": "34.637199401855, -86.775100708008", "timezone": "America/Chicago", "tzoffset": -6.0, "days": [{"datetime": "2018-11-09", "datetimeEpoch": 1541743200, "tempmax": 13.3, "tempmin": 3.8, "temp": 9.9, "feelslikemax": 13.3, "feelslikemin": 0.7, "feelslike": 8.4, "dew": 8.3, "humidity": 90.57, "precip": 17.14, "precipprob": null, "precipcover": 50.0, "preciptype": null, "snow": 0.0, "snowdepth": 0.0, "windgust": 35.3, "windspeed": 25.9, "winddir": 290.1, "pressure": 1019.6, "cloudcover": 88.0, "visibility": 10.9, "solarradiation": 47.6, "solarenergy": 1.7, "sunrise": "06:15:06", "sunriseEpoch": 1541765706, "sunset": "16:46:19", "sunsetEpoch": 1541803579, "moonphase": 0.02, "conditions": "Rain, Overcast", "icon": "rain", "stations": ["KHSV", "72323003856", "72203163839", "KDCU", "72227953852", "KCMD"], "source": "obs", "hours": null}], "stations": {"KHSV": {"distance": 1500.0, "latitude": 34.65, "longitude": -86.77, "useCount": 0, "id": "KHSV", "name": "KHSV", "quality": 100, "contribution": 0.0}, "72323003856": {"distance": 1253.0, "latitude": 34.644, "longitude": -86.786, "useCount": 0, "id": "72323003856", "name": "HUNTSVILLE INTERNATIONAL AIRPORT JONES FIELD, AL US", "quality": 100, "contribution": 0.0}, "72203163839": {"distance": 41704.0, "latitude": 34.269, "longitude": -86.858, "useCount": 0, "id": "72203163839", "name": "CULLMAN FOLSOM FIELD AIRPORT, AL US", "quality": 100, "contribution": 0.0}, "KDCU": {"distance": 16081.0, "latitude": 34.65, "longitude": -86.95, "useCount": 0, "id": "KDCU", "name": "KDCU", "quality": 100, "contribution": 0.0}, "72227953852": {"distance": 15680.0, "latitude": 34.653, "longitude": -86.945, "useCount": 0, "id": "72227953852", "name": "DECATUR PRYOR FIELD, AL US", "quality": 100, "contribution": 0.0}, "KCMD": {"distance": 41451.0, "latitude": 34.27, "longitude": -86.85, "useCount": 0, "id": "KCMD", "name": "KCMD", "quality": 99, "contribution": 0.0}}}