{"queryCost": 1, "latitude": 34.637199401855, "longitude": -86.775100708008, "resolvedAddress": "34.637199401855, -86.775100708008", "address": "34.637199401855, -86.775100708008", "timezone": "America/Chicago", "tzoffset": -5.0, "days": [{"datetime": "2018-08-29", "datetimeEpoch": 1535518800, "tempmax": 34.3, "tempmin": 23.3, "temp": 27.5, "feelslikemax": 37.4, "feelslikemin": 23.3, "feelslike": 29.0, "dew": 21.8, "humidity": 73.19, "precip": 0.0, "precipprob": null, "precipcover": 0.0, "preciptype": null, "snow": 0.0, "snowdepth": 0.0, "windgust": null, "windspeed": 16.5, "winddir": 133.4, "pressure": 1018.9, "cloudcover": 47.7, "visibility": 16.0, "solarradiation": 316.6, "solarenergy": 16.0, "sunrise": "06:17:55", "sunriseEpoch": 1535541475, "sunset": "19:17:29", "sunsetEpoch": 1535588249, "moonphase": 0.54, "conditions": "Partially cloudy", "icon": "partly-cloudy-day", "stations": ["KHSV", "72323003856", "72203163839", "KDCU", "72227953852", "KCMD"], "source": "obs", "hours": null}], "stations": {"KHSV": {"distance": 1500.0, "latitude": 34.65, "longitude": -86.77, "useCount": 0, "id": "KHSV", "name": "KHSV", "quality": 100, "contribution": 0.0}, "72323003856": {"distance": 1253.0, "latitude": 34.644, "longitude": -86.786, "useCount": 0, "id": "72323003856", "name": "HUNTSVILLE INTERNATIONAL AIRPORT JONES FIELD, AL US", "quality": 100, "contribution": 0.0}, "72203163839": {"distance": 41704.0, "latitude": 34.269, "longitude": -86.858, "useCount": 0, "id": "72203163839", "name": "CULLMAN FOLSOM FIELD AIRPORT, AL US", "quality": 100, "contribution": 0.0}, "KDCU": {"distance": 16081.0, "latitude": 34.65, "longitude": -86.95, "useCount": 0, "id": "KDCU", "name": "KDCU", "quality": 100, "contribution": 0.0}, "72227953852": {"distance": 15680.0, "latitude": 34.653, "longitude": -86.945, "useCount": 0, "id": "72227953852", "name": "DECATUR PRYOR FIELD, AL US", "quality": 100, "contribution": 0.0}, "KCMD": {"distance": 41451.0, "latitude": 34.27, "longitude": -86.85, "useCount": 0, "id": "KCMD", "name": "KCMD", "quality": 99, "contribution": 0.0}}}