{"queryCost": 1, "latitude": 38.36669922, "longitude": -82.55799866, "resolvedAddress": "38.36669922, -82.55799866", "address": "38.36669922, -82.55799866", "timezone": "America/New_York", "tzoffset": -5.0, "days": [{"datetime": "2020-01-02", "datetimeEpoch": 1577941200, "tempmax": 12.2, "tempmin": 1.7, "temp": 7.1, "feelslikemax": 12.2, "feelslikemin": -0.6, "feelslike": 5.9, "dew": 0.4, "humidity": 64.18, "precip": 1.7, "precipprob": null, "precipcover": 20.83, "preciptype": null, "snow": 0.0, "snowdepth": 0.0, "windgust": 27.7, "windspeed": 14.8, "winddir": 194.6, "pressure": 1011.2, "cloudcover": 60.8, "visibility": 16.0, "solarradiation": 95.9, "solarenergy": 3.5, "sunrise": "07:47:32", "sunriseEpoch": 1577969252, "sunset": "17:20:53", "sunsetEpoch": 1578003653, "moonphase": 0.22, "conditions": "Rain, Partially cloudy", "icon": "rain", "stations": ["72425003860", "KDWU", "72044999999", "72070599999", "KHTS"], "source": "obs", "hours": null}], "stations": {"72425003860": {"distance": 320.0, "latitude": 38.365, "longitude": -82.555, "useCount": 0, "id": "72425003860", "name": "HUNTINGTON TRI STATE AIRPORT, WV US", "quality": 100, "contribution": 0.0}, "72070599999": {"distance": 68450.0, "latitude": 38.981, "longitude": -82.578, "useCount": 0, "id": "72070599999", "name": "JAMES A RHODES, OH US", "quality": 100, "contribution": 0.0}, "KDWU": {"distance": 26139.0, "latitude": 38.555, "longitude": -82.738, "useCount": 0, "id": "KDWU", "name": "Ashland Regional Airport, KY", "quality": 100, "contribution": 0.0}, "72044999999": {"distance": 26139.0, "latitude": 38.555, "longitude": -82.738, "useCount": 0, "id": "72044999999", "name": "ASHLAND REGIONAL, KY US", "quality": 99, "contribution": 0.0}, "KHTS": {"distance": 1022.0, "latitude": 38.36, "longitude": -82.55, "useCount": 0, "id": "KHTS", "name": "KHTS", "quality": 100, "contribution": 0.0}}}