{"queryCost": 1, "latitude": 41.26369858, "longitude": -72.88680267, "resolvedAddress": "41.26369858, -72.88680267", "address": "41.26369858, -72.88680267", "timezone": "America/New_York", "tzoffset": -5.0, "days": [{"datetime": "2020-01-07", "datetimeEpoch": 1578373200, "tempmax": 6.1, "tempmin": 1.1, "temp": 4.3, "feelslikemax": 6.1, "feelslikemin": -1.8, "feelslike": 2.1, "dew": -3.4, "humidity": 58.5, "precip": 0.8, "precipprob": null, "precipcover": 16.67, "preciptype": null, "snow": 1.88, "snowdepth": 1.87, "windgust": 35.3, "windspeed": 20.5, "winddir": 248.7, "pressure": 1015.5, "cloudcover": 37.5, "visibility": 14.5, "solarradiation": 147.1, "solarenergy": 5.3, "uvindex": 4.0, "sunrise": "07:17:22", "sunriseEpoch": 1578399442, "sunset": "16:38:14", "sunsetEpoch": 1578433094, "moonphase": 0.44, "conditions": "Snow, Partially cloudy", "description": "Partly cloudly with late afternoon rain or snow.", "icon": "snow", "stations": ["KMMK", "KHVN", "KBDR", "72504094702", "72504514758", "72502754788"], "source": "obs", "hours": null}], "stations": {"KMMK": {"distance": 27826.0, "latitude": 41.51, "longitude": -72.83, "useCount": 0, "id": "KMMK", "name": "KMMK", "quality": 98, "contribution": 0.0}, "KHVN": {"distance": 903.0, "latitude": 41.27, "longitude": -72.88, "useCount": 0, "id": "KHVN", "name": "KHVN", "quality": 100, "contribution": 0.0}, "KBDR": {"distance": 22880.0, "latitude": 41.17, "longitude": -73.13, "useCount": 0, "id": "KBDR", "name": "KBDR", "quality": 100, "contribution": 0.0}, "72504094702": {"distance": 22940.0, "latitude": 41.164, "longitude": -73.127, "useCount": 0, "id": "72504094702", "name": "IGOR I SIKORSKY MEMORIAL AIRPORT, CT US", "quality": 100, "contribution": 0.0}, "72504514758": {"distance": 40.0, "latitude": 41.264, "longitude": -72.887, "useCount": 0, "id": "72504514758", "name": "NEW HAVEN TWEED AIRPORT, CT US", "quality": 100, "contribution": 0.0}, "72502754788": {"distance": 27825.0, "latitude": 41.51, "longitude": -72.828, "useCount": 0, "id": "72502754788", "name": "MERIDEN MARKHAM MUNICIPAL AIRPORT, CT US", "quality": 100, "contribution": 0.0}}}