{"queryCost": 1, "latitude": 38.84220123, "longitude": -99.27320099, "resolvedAddress": "38.84220123, -99.27320099", "address": "38.84220123, -99.27320099", "timezone": "America/Chicago", "tzoffset": -6.0, "days": [{"datetime": "2020-01-06", "datetimeEpoch": 1578290400, "tempmax": 10.0, "tempmin": -6.1, "temp": 0.3, "feelslikemax": 6.2, "feelslikemin": -10.4, "feelslike": -3.0, "dew": -6.1, "humidity": 67.43, "precip": 0.0, "precipprob": null, "precipcover": 0.0, "preciptype": null, "snow": 0.0, "snowdepth": 0.0, "windgust": 46.4, "windspeed": 35.3, "winddir": 237.1, "pressure": 1023.9, "cloudcover": 0.0, "visibility": 16.0, "solarradiation": null, "solarenergy": null, "sunrise": "07:55:56", "sunriseEpoch": 1578318956, "sunset": "17:29:56", "sunsetEpoch": 1578353396, "moonphase": 0.4, "conditions": "Clear", "icon": "wind", "stations": ["KRSL", "KHYS", "72451713940", "72451803968", "72458593997", "KGBD"], "source": "obs", "hours": null}], "stations": {"KRSL": {"distance": 39339.0, "latitude": 38.86, "longitude": -98.82, "useCount": 0, "id": "KRSL", "name": "KRSL", "quality": 100, "contribution": 0.0}, "KHYS": {"distance": 911.0, "latitude": 38.85, "longitude": -99.27, "useCount": 0, "id": "KHYS", "name": "HAYS, KS", "quality": 100, "contribution": 0.0}, "72451713940": {"distance": 65214.0, "latitude": 38.35, "longitude": -98.867, "useCount": 0, "id": "72451713940", "name": "GREAT BEND MUNICIPAL AIRPORT, KS US", "quality": 100, "contribution": 0.0}, "72451803968": {"distance": 1035.0, "latitude": 38.85, "longitude": -99.267, "useCount": 0, "id": "72451803968", "name": "HAYS MUNICIPAL AIRPORT, KS US", "quality": 100, "contribution": 0.0}, "72458593997": {"distance": 40398.0, "latitude": 38.876, "longitude": -98.809, "useCount": 0, "id": "72458593997", "name": "RUSSELL MUNICIPAL AIRPORT, KS US", "quality": 100, "contribution": 0.0}, "KGBD": {"distance": 65059.0, "latitude": 38.35, "longitude": -98.87, "useCount": 0, "id": "KGBD", "name": "GREAT BEND, KS", "quality": 100, "contribution": 0.0}}}