{"queryCost": 1, "latitude": 38.94449997, "longitude": -77.45580292, "resolvedAddress": "38.94449997, -77.45580292", "address": "38.94449997, -77.45580292", "timezone": "America/New_York", "tzoffset": -4.0, "days": [{"datetime": "2019-09-30", "datetimeEpoch": 1569816000, "tempmax": 22.8, "tempmin": 20.0, "temp": 21.0, "feelslikemax": 22.8, "feelslikemin": 20.0, "feelslike": 21.0, "dew": 17.6, "humidity": 80.97, "precip": 1.82, "precipprob": null, "precipcover": 29.17, "preciptype": null, "snow": 0.0, "snowdepth": 0.0, "windgust": null, "windspeed": 16.5, "winddir": 108.3, "pressure": 1023.4, "cloudcover": 72.7, "visibility": 14.7, "solarradiation": 60.3, "solarenergy": 2.6, "sunrise": "07:04:33", "sunriseEpoch": 1569841473, "sunset": "18:54:32", "sunsetEpoch": 1569884072, "moonphase": 0.02, "conditions": "Rain, Partially cloudy", "icon": "rain", "stations": ["72405503714", "72403603710", "KIAD", "72403093738", "KJYO", "KHEF"], "source": "obs", "hours": null}], "stations": {"72405503714": {"distance": 17250.0, "latitude": 39.078, "longitude": -77.557, "useCount": 0, "id": "72405503714", "name": "LEESBURG EXECUTIVE AIRPORT, VA US", "quality": 98, "contribution": 0.0}, "72403603710": {"distance": 25366.0, "latitude": 38.721, "longitude": -77.515, "useCount": 0, "id": "72403603710", "name": "MANASSAS REGIONAL DAVIS FIELD AIRPORT, VA US", "quality": 100, "contribution": 0.0}, "KIAD": {"distance": 792.0, "latitude": 38.95, "longitude": -77.45, "useCount": 0, "id": "KIAD", "name": "KIAD", "quality": 100, "contribution": 0.0}, "72403093738": {"distance": 1298.0, "latitude": 38.935, "longitude": -77.447, "useCount": 0, "id": "72403093738", "name": "WASHINGTON DULLES INTERNATIONAL AIRPORT, VA US", "quality": 100, "contribution": 0.0}, "KJYO": {"distance": 17571.0, "latitude": 39.08, "longitude": -77.56, "useCount": 0, "id": "KJYO", "name": "KJYO", "quality": 98, "contribution": 0.0}, "KHEF": {"distance": 25604.0, "latitude": 38.72, "longitude": -77.52, "useCount": 0, "id": "KHEF", "name": "MANASSAS MUNI, VA", "quality": 100, "contribution": 0.0}}}