{"queryCost": 1, "latitude": 38.94449997, "longitude": -77.45580292, "resolvedAddress": "38.94449997, -77.45580292", "address": "38.94449997, -77.45580292", "timezone": "America/New_York", "tzoffset": -4.0, "days": [{"datetime": "2019-10-15", "datetimeEpoch": 1571112000, "tempmax": 22.2, "tempmin": 5.0, "temp": 13.9, "feelslikemax": 22.2, "feelslikemin": 5.0, "feelslike": 13.9, "dew": 4.2, "humidity": 55.94, "precip": 0.0, "precipprob": null, "precipcover": 0.0, "preciptype": null, "snow": 0.0, "snowdepth": 0.0, "windgust": 25.9, "windspeed": 14.8, "winddir": 153.1, "pressure": 1019.4, "cloudcover": 28.3, "visibility": 16.0, "solarradiation": 357.8, "solarenergy": 24.5, "sunrise": "07:19:00", "sunriseEpoch": 1571138340, "sunset": "18:31:39", "sunsetEpoch": 1571178699, "moonphase": 0.52, "conditions": "Partially cloudy", "icon": "partly-cloudy-day", "stations": ["72405503714", "72403603710", "KIAD", "72403093738", "KJYO", "KHEF"], "source": "obs", "hours": null}], "stations": {"72405503714": {"distance": 17250.0, "latitude": 39.078, "longitude": -77.557, "useCount": 0, "id": "72405503714", "name": "LEESBURG EXECUTIVE AIRPORT, VA US", "quality": 98, "contribution": 0.0}, "72403603710": {"distance": 25366.0, "latitude": 38.721, "longitude": -77.515, "useCount": 0, "id": "72403603710", "name": "MANASSAS REGIONAL DAVIS FIELD AIRPORT, VA US", "quality": 100, "contribution": 0.0}, "KIAD": {"distance": 792.0, "latitude": 38.95, "longitude": -77.45, "useCount": 0, "id": "KIAD", "name": "KIAD", "quality": 100, "contribution": 0.0}, "72403093738": {"distance": 1298.0, "latitude": 38.935, "longitude": -77.447, "useCount": 0, "id": "72403093738", "name": "WASHINGTON DULLES INTERNATIONAL AIRPORT, VA US", "quality": 100, "contribution": 0.0}, "KJYO": {"distance": 17571.0, "latitude": 39.08, "longitude": -77.56, "useCount": 0, "id": "KJYO", "name": "KJYO", "quality": 98, "contribution": 0.0}, "KHEF": {"distance": 25604.0, "latitude": 38.72, "longitude": -77.52, "useCount": 0, "id": "KHEF", "name": "MANASSAS MUNI, VA", "quality": 100, "contribution": 0.0}}}