{"queryCost": 1, "latitude": 38.94449997, "longitude": -77.45580292, "resolvedAddress": "38.94449997, -77.45580292", "address": "38.94449997, -77.45580292", "timezone": "America/New_York", "tzoffset": -5.0, "days": [{"datetime": "2020-01-02", "datetimeEpoch": 1577941200, "tempmax": 10.6, "tempmin": -3.9, "temp": 3.7, "feelslikemax": 10.6, "feelslikemin": -6.1, "feelslike": 2.2, "dew": -3.1, "humidity": 63.48, "precip": 0.0, "precipprob": null, "precipcover": 0.0, "preciptype": null, "snow": 0.0, "snowdepth": 0.0, "windgust": null, "windspeed": 18.3, "winddir": 189.2, "pressure": 1013.8, "cloudcover": 53.6, "visibility": 16.0, "solarradiation": 498.9, "solarenergy": 30.5, "sunrise": "07:28:46", "sunriseEpoch": 1577968126, "sunset": "16:58:49", "sunsetEpoch": 1578002329, "moonphase": 0.22, "conditions": "Partially cloudy", "icon": "partly-cloudy-day", "stations": ["72405503714", "72403603710", "KIAD", "72403093738", "KJYO", "KHEF"], "source": "obs", "hours": null}], "stations": {"72405503714": {"distance": 17250.0, "latitude": 39.078, "longitude": -77.557, "useCount": 0, "id": "72405503714", "name": "LEESBURG EXECUTIVE AIRPORT, VA US", "quality": 98, "contribution": 0.0}, "72403603710": {"distance": 25366.0, "latitude": 38.721, "longitude": -77.515, "useCount": 0, "id": "72403603710", "name": "MANASSAS REGIONAL DAVIS FIELD AIRPORT, VA US", "quality": 100, "contribution": 0.0}, "KIAD": {"distance": 792.0, "latitude": 38.95, "longitude": -77.45, "useCount": 0, "id": "KIAD", "name": "KIAD", "quality": 100, "contribution": 0.0}, "72403093738": {"distance": 1298.0, "latitude": 38.935, "longitude": -77.447, "useCount": 0, "id": "72403093738", "name": "WASHINGTON DULLES INTERNATIONAL AIRPORT, VA US", "quality": 100, "contribution": 0.0}, "KJYO": {"distance": 17571.0, "latitude": 39.08, "longitude": -77.56, "useCount": 0, "id": "KJYO", "name": "KJYO", "quality": 98, "contribution": 0.0}, "KHEF": {"distance": 25604.0, "latitude": 38.72, "longitude": -77.52, "useCount": 0, "id": "KHEF", "name": "MANASSAS MUNI, VA", "quality": 100, "contribution": 0.0}}}