{"queryCost": 1, "latitude": 38.94449997, "longitude": -77.45580292, "resolvedAddress": "38.94449997, -77.45580292", "address": "38.94449997, -77.45580292", "timezone": "America/New_York", "tzoffset": -4.0, "days": [{"datetime": "2018-05-27", "datetimeEpoch": 1527393600, "tempmax": 30.0, "tempmin": 21.2, "temp": 24.2, "feelslikemax": 31.9, "feelslikemin": 21.2, "feelslike": 24.7, "dew": 21.5, "humidity": 86.16, "precip": 0.6, "precipprob": null, "precipcover": 8.33, "preciptype": null, "snow": 0.0, "snowdepth": 0.0, "windgust": 37.1, "windspeed": 18.3, "winddir": 176.5, "pressure": 1013.0, "cloudcover": 89.8, "visibility": 16.0, "solarradiation": 332.2, "solarenergy": 20.3, "sunrise": "05:48:36", "sunriseEpoch": 1527414516, "sunset": "20:25:48", "sunsetEpoch": 1527467148, "moonphase": 0.48, "conditions": "Rain, Overcast", "icon": "rain", "stations": ["72405503714", "72403603710", "KIAD", "72403093738", "KJYO", "KHEF"], "source": "obs", "hours": null}], "stations": {"72405503714": {"distance": 17250.0, "latitude": 39.078, "longitude": -77.557, "useCount": 0, "id": "72405503714", "name": "LEESBURG EXECUTIVE AIRPORT, VA US", "quality": 98, "contribution": 0.0}, "72403603710": {"distance": 25366.0, "latitude": 38.721, "longitude": -77.515, "useCount": 0, "id": "72403603710", "name": "MANASSAS REGIONAL DAVIS FIELD AIRPORT, VA US", "quality": 100, "contribution": 0.0}, "KIAD": {"distance": 792.0, "latitude": 38.95, "longitude": -77.45, "useCount": 0, "id": "KIAD", "name": "KIAD", "quality": 100, "contribution": 0.0}, "72403093738": {"distance": 1298.0, "latitude": 38.935, "longitude": -77.447, "useCount": 0, "id": "72403093738", "name": "WASHINGTON DULLES INTERNATIONAL AIRPORT, VA US", "quality": 100, "contribution": 0.0}, "KJYO": {"distance": 17571.0, "latitude": 39.08, "longitude": -77.56, "useCount": 0, "id": "KJYO", "name": "KJYO", "quality": 98, "contribution": 0.0}, "KHEF": {"distance": 25604.0, "latitude": 38.72, "longitude": -77.52, "useCount": 0, "id": "KHEF", "name": "MANASSAS MUNI, VA", "quality": 100, "contribution": 0.0}}}