{"queryCost": 1, "latitude": 38.94449997, "longitude": -77.45580292, "resolvedAddress": "38.94449997, -77.45580292", "address": "38.94449997, -77.45580292", "timezone": "America/New_York", "tzoffset": -4.0, "days": [{"datetime": "2019-07-10", "datetimeEpoch": 1562731200, "tempmax": 31.2, "tempmin": 20.0, "temp": 25.9, "feelslikemax": 32.8, "feelslikemin": 20.0, "feelslike": 26.6, "dew": 18.9, "humidity": 66.79, "precip": 0.0, "precipprob": null, "precipcover": 0.0, "preciptype": null, "snow": 0.0, "snowdepth": 0.0, "windgust": 29.5, "windspeed": 22.3, "winddir": 181.4, "pressure": 1017.1, "cloudcover": 36.2, "visibility": 16.0, "solarradiation": 405.7, "solarenergy": 21.9, "sunrise": "05:53:05", "sunriseEpoch": 1562752385, "sunset": "20:37:01", "sunsetEpoch": 1562805421, "moonphase": 0.31, "conditions": "Partially cloudy", "icon": "partly-cloudy-day", "stations": ["72405503714", "72403603710", "KIAD", "72403093738", "KJYO"], "source": "obs", "hours": null}], "stations": {"72405503714": {"distance": 17250.0, "latitude": 39.078, "longitude": -77.557, "useCount": 0, "id": "72405503714", "name": "LEESBURG EXECUTIVE AIRPORT, VA US", "quality": 98, "contribution": 0.0}, "72403603710": {"distance": 25366.0, "latitude": 38.721, "longitude": -77.515, "useCount": 0, "id": "72403603710", "name": "MANASSAS REGIONAL DAVIS FIELD AIRPORT, VA US", "quality": 100, "contribution": 0.0}, "KIAD": {"distance": 792.0, "latitude": 38.95, "longitude": -77.45, "useCount": 0, "id": "KIAD", "name": "KIAD", "quality": 100, "contribution": 0.0}, "72403093738": {"distance": 1298.0, "latitude": 38.935, "longitude": -77.447, "useCount": 0, "id": "72403093738", "name": "WASHINGTON DULLES INTERNATIONAL AIRPORT, VA US", "quality": 100, "contribution": 0.0}, "KJYO": {"distance": 17571.0, "latitude": 39.08, "longitude": -77.56, "useCount": 0, "id": "KJYO", "name": "KJYO", "quality": 98, "contribution": 0.0}}}