{"queryCost": 1, "latitude": 29.984399795532227, "longitude": -95.34140014648438, "resolvedAddress": "29.984399795532227, -95.34140014648438", "address": "29.984399795532227, -95.34140014648438", "timezone": "America/Chicago", "tzoffset": -5.0, "days": [{"datetime": "2018-04-11", "datetimeEpoch": 1523422800, "tempmax": 26.7, "tempmin": 8.9, "temp": 18.2, "feelslikemax": 26.6, "feelslikemin": 8.9, "feelslike": 18.3, "dew": 9.8, "humidity": 61.79, "precip": 0.0, "precipprob": null, "precipcover": 0.0, "preciptype": null, "snow": 0.0, "snowdepth": 0.0, "windgust": 37.1, "windspeed": 22.2, "winddir": 128.7, "pressure": 1021.8, "cloudcover": 47.2, "visibility": 16.0, "solarradiation": null, "solarenergy": null, "sunrise": "06:58:52", "sunriseEpoch": 1523447932, "sunset": "19:46:15", "sunsetEpoch": 1523493975, "moonphase": 0.9, "conditions": "Partially cloudy", "icon": "partly-cloudy-day", "stations": ["72059400188", "72242953910", "KIAH", "KDWH", "72244012918", "72243012960"], "source": "obs", "hours": null}], "stations": {"72059400188": {"distance": 30037.0, "latitude": 29.717, "longitude": -95.383, "useCount": 0, "id": "72059400188", "name": "HOUSTON DUNN HELISTOP, TX US", "quality": 100, "contribution": 0.0}, "72242953910": {"distance": 22666.0, "latitude": 30.068, "longitude": -95.556, "useCount": 0, "id": "72242953910", "name": "HOUSTON HOOKS MEMORIAL AIRPORT, TX US", "quality": 100, "contribution": 0.0}, "KIAH": {"distance": 1805.0, "latitude": 29.97, "longitude": -95.35, "useCount": 0, "id": "KIAH", "name": "KIAH", "quality": 100, "contribution": 0.0}, "KDWH": {"distance": 22249.0, "latitude": 30.07, "longitude": -95.55, "useCount": 0, "id": "KDWH", "name": "KDWH", "quality": 100, "contribution": 0.0}, "72244012918": {"distance": 38976.0, "latitude": 29.638, "longitude": -95.282, "useCount": 0, "id": "72244012918", "name": "HOUSTON WILLIAM P HOBBY AIRPORT, TX US", "quality": 100, "contribution": 0.0}, "72243012960": {"distance": 1859.0, "latitude": 29.98, "longitude": -95.36, "useCount": 0, "id": "72243012960", "name": "HOUSTON INTERCONTINENTAL AIRPORT, TX US", "quality": 100, "contribution": 0.0}}}