{"queryCost": 1, "latitude": 29.984399795532227, "longitude": -95.34140014648438, "resolvedAddress": "29.984399795532227, -95.34140014648438", "address": "29.984399795532227, -95.34140014648438", "timezone": "America/Chicago", "tzoffset": -6.0, "days": [{"datetime": "2018-12-09", "datetimeEpoch": 1544335200, "tempmax": 8.8, "tempmin": 6.2, "temp": 7.5, "feelslikemax": 7.2, "feelslikemin": 2.1, "feelslike": 4.8, "dew": 5.3, "humidity": 86.1, "precip": 0.3, "precipprob": null, "precipcover": 4.17, "preciptype": null, "snow": 0.0, "snowdepth": 0.0, "windgust": 47.9, "windspeed": 24.1, "winddir": 325.0, "pressure": 1025.2, "cloudcover": 94.4, "visibility": 16.0, "solarradiation": null, "solarenergy": null, "sunrise": "07:05:46", "sunriseEpoch": 1544360746, "sunset": "17:21:44", "sunsetEpoch": 1544397704, "moonphase": 0.02, "conditions": "Rain, Overcast", "icon": "rain", "stations": ["72059400188", "72242953910", "KIAH", "KDWH", "72244012918", "72243012960"], "source": "obs", "hours": null}], "stations": {"72059400188": {"distance": 30037.0, "latitude": 29.717, "longitude": -95.383, "useCount": 0, "id": "72059400188", "name": "HOUSTON DUNN HELISTOP, TX US", "quality": 100, "contribution": 0.0}, "72242953910": {"distance": 22666.0, "latitude": 30.068, "longitude": -95.556, "useCount": 0, "id": "72242953910", "name": "HOUSTON HOOKS MEMORIAL AIRPORT, TX US", "quality": 100, "contribution": 0.0}, "KIAH": {"distance": 1805.0, "latitude": 29.97, "longitude": -95.35, "useCount": 0, "id": "KIAH", "name": "KIAH", "quality": 100, "contribution": 0.0}, "KDWH": {"distance": 22249.0, "latitude": 30.07, "longitude": -95.55, "useCount": 0, "id": "KDWH", "name": "KDWH", "quality": 100, "contribution": 0.0}, "72244012918": {"distance": 38976.0, "latitude": 29.638, "longitude": -95.282, "useCount": 0, "id": "72244012918", "name": "HOUSTON WILLIAM P HOBBY AIRPORT, TX US", "quality": 100, "contribution": 0.0}, "72243012960": {"distance": 1859.0, "latitude": 29.98, "longitude": -95.36, "useCount": 0, "id": "72243012960", "name": "HOUSTON INTERCONTINENTAL AIRPORT, TX US", "quality": 100, "contribution": 0.0}}}