{"queryCost": 1, "latitude": 29.984399795532227, "longitude": -95.34140014648438, "resolvedAddress": "29.984399795532227, -95.34140014648438", "address": "29.984399795532227, -95.34140014648438", "timezone": "America/Chicago", "tzoffset": -6.0, "days": [{"datetime": "2018-02-15", "datetimeEpoch": 1518674400, "tempmax": 26.7, "tempmin": 20.6, "temp": 22.7, "feelslikemax": 27.6, "feelslikemin": 20.6, "feelslike": 22.7, "dew": 18.8, "humidity": 79.9, "precip": 0.0, "precipprob": null, "precipcover": 0.0, "preciptype": null, "snow": 0.0, "snowdepth": 0.0, "windgust": 37.1, "windspeed": 24.1, "winddir": 180.0, "pressure": 1019.9, "cloudcover": 89.5, "visibility": 14.3, "solarradiation": null, "solarenergy": null, "sunrise": "07:01:06", "sunriseEpoch": 1518699666, "sunset": "18:10:14", "sunsetEpoch": 1518739814, "moonphase": 1.0, "conditions": "Overcast", "icon": "cloudy", "stations": ["72059400188", "72242953910", "KIAH", "KDWH", "72244012918", "72243012960"], "source": "obs", "hours": null}], "stations": {"72059400188": {"distance": 30037.0, "latitude": 29.717, "longitude": -95.383, "useCount": 0, "id": "72059400188", "name": "HOUSTON DUNN HELISTOP, TX US", "quality": 100, "contribution": 0.0}, "72242953910": {"distance": 22666.0, "latitude": 30.068, "longitude": -95.556, "useCount": 0, "id": "72242953910", "name": "HOUSTON HOOKS MEMORIAL AIRPORT, TX US", "quality": 100, "contribution": 0.0}, "KIAH": {"distance": 1805.0, "latitude": 29.97, "longitude": -95.35, "useCount": 0, "id": "KIAH", "name": "KIAH", "quality": 100, "contribution": 0.0}, "KDWH": {"distance": 22249.0, "latitude": 30.07, "longitude": -95.55, "useCount": 0, "id": "KDWH", "name": "KDWH", "quality": 100, "contribution": 0.0}, "72244012918": {"distance": 38976.0, "latitude": 29.638, "longitude": -95.282, "useCount": 0, "id": "72244012918", "name": "HOUSTON WILLIAM P HOBBY AIRPORT, TX US", "quality": 100, "contribution": 0.0}, "72243012960": {"distance": 1859.0, "latitude": 29.98, "longitude": -95.36, "useCount": 0, "id": "72243012960", "name": "HOUSTON INTERCONTINENTAL AIRPORT, TX US", "quality": 100, "contribution": 0.0}}}