{"queryCost": 1, "latitude": 29.984399795532227, "longitude": -95.34140014648438, "resolvedAddress": "29.984399795532227, -95.34140014648438", "address": "29.984399795532227, -95.34140014648438", "timezone": "America/Chicago", "tzoffset": -5.0, "days": [{"datetime": "2018-07-08", "datetimeEpoch": 1531026000, "tempmax": 30.0, "tempmin": 23.4, "temp": 25.4, "feelslikemax": 34.9, "feelslikemin": 23.4, "feelslike": 26.3, "dew": 23.9, "humidity": 91.73, "precip": 4.96, "precipprob": null, "precipcover": 25.0, "preciptype": null, "snow": 0.0, "snowdepth": 0.0, "windgust": null, "windspeed": 29.3, "winddir": 111.1, "pressure": 1017.6, "cloudcover": 66.2, "visibility": 15.8, "solarradiation": null, "solarenergy": null, "sunrise": "06:27:02", "sunriseEpoch": 1531049222, "sunset": "20:25:45", "sunsetEpoch": 1531099545, "moonphase": 0.87, "conditions": "Rain, Partially cloudy", "icon": "rain", "stations": ["72059400188", "72242953910", "KIAH", "KDWH", "72244012918", "72243012960"], "source": "obs", "hours": null}], "stations": {"72059400188": {"distance": 30037.0, "latitude": 29.717, "longitude": -95.383, "useCount": 0, "id": "72059400188", "name": "HOUSTON DUNN HELISTOP, TX US", "quality": 100, "contribution": 0.0}, "72242953910": {"distance": 22666.0, "latitude": 30.068, "longitude": -95.556, "useCount": 0, "id": "72242953910", "name": "HOUSTON HOOKS MEMORIAL AIRPORT, TX US", "quality": 100, "contribution": 0.0}, "KIAH": {"distance": 1805.0, "latitude": 29.97, "longitude": -95.35, "useCount": 0, "id": "KIAH", "name": "KIAH", "quality": 100, "contribution": 0.0}, "KDWH": {"distance": 22249.0, "latitude": 30.07, "longitude": -95.55, "useCount": 0, "id": "KDWH", "name": "KDWH", "quality": 100, "contribution": 0.0}, "72244012918": {"distance": 38976.0, "latitude": 29.638, "longitude": -95.282, "useCount": 0, "id": "72244012918", "name": "HOUSTON WILLIAM P HOBBY AIRPORT, TX US", "quality": 100, "contribution": 0.0}, "72243012960": {"distance": 1859.0, "latitude": 29.98, "longitude": -95.36, "useCount": 0, "id": "72243012960", "name": "HOUSTON INTERCONTINENTAL AIRPORT, TX US", "quality": 100, "contribution": 0.0}}}