{"queryCost": 1, "latitude": 29.984399795532227, "longitude": -95.34140014648438, "resolvedAddress": "29.984399795532227, -95.34140014648438", "address": "29.984399795532227, -95.34140014648438", "timezone": "America/Chicago", "tzoffset": -5.0, "days": [{"datetime": "2018-03-28", "datetimeEpoch": 1522213200, "tempmax": 25.0, "tempmin": 18.4, "temp": 21.8, "feelslikemax": 25.0, "feelslikemin": 18.4, "feelslike": 21.8, "dew": 20.0, "humidity": 89.85, "precip": 23.77, "precipprob": null, "precipcover": 41.67, "preciptype": null, "snow": 0.0, "snowdepth": 0.0, "windgust": 66.6, "windspeed": 31.6, "winddir": 133.0, "pressure": 1010.5, "cloudcover": 99.0, "visibility": 10.6, "solarradiation": null, "solarenergy": null, "sunrise": "07:15:21", "sunriseEpoch": 1522239321, "sunset": "19:37:46", "sunsetEpoch": 1522283866, "moonphase": 0.44, "conditions": "Rain, Overcast", "icon": "rain", "stations": ["72059400188", "72242953910", "KIAH", "KDWH", "72244012918", "72243012960"], "source": "obs", "hours": null}], "stations": {"72059400188": {"distance": 30037.0, "latitude": 29.717, "longitude": -95.383, "useCount": 0, "id": "72059400188", "name": "HOUSTON DUNN HELISTOP, TX US", "quality": 100, "contribution": 0.0}, "72242953910": {"distance": 22666.0, "latitude": 30.068, "longitude": -95.556, "useCount": 0, "id": "72242953910", "name": "HOUSTON HOOKS MEMORIAL AIRPORT, TX US", "quality": 100, "contribution": 0.0}, "KIAH": {"distance": 1805.0, "latitude": 29.97, "longitude": -95.35, "useCount": 0, "id": "KIAH", "name": "KIAH", "quality": 100, "contribution": 0.0}, "KDWH": {"distance": 22249.0, "latitude": 30.07, "longitude": -95.55, "useCount": 0, "id": "KDWH", "name": "KDWH", "quality": 100, "contribution": 0.0}, "72244012918": {"distance": 38976.0, "latitude": 29.638, "longitude": -95.282, "useCount": 0, "id": "72244012918", "name": "HOUSTON WILLIAM P HOBBY AIRPORT, TX US", "quality": 100, "contribution": 0.0}, "72243012960": {"distance": 1859.0, "latitude": 29.98, "longitude": -95.36, "useCount": 0, "id": "72243012960", "name": "HOUSTON INTERCONTINENTAL AIRPORT, TX US", "quality": 100, "contribution": 0.0}}}