{"queryCost": 1, "latitude": 37.649899, "longitude": -97.433098, "resolvedAddress": "37.649899, -97.433098", "address": "37.649899, -97.433098", "timezone": "America/Chicago", "tzoffset": -5.0, "days": [{"datetime": "2018-06-03", "datetimeEpoch": 1528002000, "tempmax": 30.6, "tempmin": 14.4, "temp": 23.3, "feelslikemax": 29.1, "feelslikemin": 14.4, "feelslike": 23.0, "dew": 11.7, "humidity": 51.81, "precip": 0.0, "precipprob": null, "precipcover": 0.0, "preciptype": null, "snow": 0.0, "snowdepth": 0.0, "windgust": null, "windspeed": 14.8, "winddir": 195.4, "pressure": 1019.9, "cloudcover": 11.5, "visibility": 16.0, "solarradiation": 498.7, "solarenergy": 26.9, "sunrise": "06:09:12", "sunriseEpoch": 1528024152, "sunset": "20:46:57", "sunsetEpoch": 1528076817, "moonphase": 0.61, "conditions": "Clear", "icon": "clear-day", "stations": ["72450503923", "72450403974", "KAAO", "KICT", "KIAB", "72450003928"], "source": "obs", "hours": null}], "stations": {"72450503923": {"distance": 15128.0, "latitude": 37.617, "longitude": -97.267, "useCount": 0, "id": "72450503923", "name": "WICHITA MCCONNELL AFB, KS US", "quality": 100, "contribution": 0.0}, "72450403974": {"distance": 21526.0, "latitude": 37.746, "longitude": -97.221, "useCount": 0, "id": "72450403974", "name": "WICHITA COLONEL JAMES JABARA AIRPORT, KS US", "quality": 100, "contribution": 0.0}, "KAAO": {"distance": 21828.0, "latitude": 37.75, "longitude": -97.22, "useCount": 0, "id": "KAAO", "name": "KAAO", "quality": 98, "contribution": 0.0}, "KICT": {"distance": 273.0, "latitude": 37.65, "longitude": -97.43, "useCount": 0, "id": "KICT", "name": "KICT", "quality": 100, "contribution": 0.0}, "KIAB": {"distance": 15049.0, "latitude": 37.61, "longitude": -97.27, "useCount": 0, "id": "KIAB", "name": "KIAB", "quality": 100, "contribution": 0.0}, "72450003928": {"distance": 382.0, "latitude": 37.648, "longitude": -97.43, "useCount": 0, "id": "72450003928", "name": "WICHITA DWIGHT D. EISENHOWER NATIONAL AIRPORT, KS US", "quality": 100, "contribution": 0.0}}}