{"queryCost": 1, "latitude": 43.514599, "longitude": -112.070999, "resolvedAddress": "43.514599, -112.070999", "address": "43.514599, -112.070999", "timezone": "America/Boise", "tzoffset": -7.0, "days": [{"datetime": "2020-01-03", "datetimeEpoch": 1578034800, "tempmax": -1.7, "tempmin": -9.3, "temp": -6.1, "feelslikemax": -6.7, "feelslikemin": -14.2, "feelslike": -10.9, "dew": -8.4, "humidity": 84.11, "precip": 0.0, "precipprob": null, "precipcover": 0.0, "preciptype": null, "snow": 0.0, "snowdepth": 17.33, "windgust": 48.2, "windspeed": 25.9, "winddir": 169.6, "pressure": 1029.2, "cloudcover": 72.5, "visibility": 15.9, "solarradiation": null, "solarenergy": null, "sunrise": "08:01:31", "sunriseEpoch": 1578063691, "sunset": "17:04:02", "sunsetEpoch": 1578096242, "moonphase": 0.26, "conditions": "Partially cloudy", "icon": "partly-cloudy-day", "stations": ["72681894194", "KRXE", "KPIH", "KIDA", "72578524145", "72578024156"], "source": "obs", "hours": null}], "stations": {"72681894194": {"distance": 41202.0, "latitude": 43.832, "longitude": -111.808, "useCount": 0, "id": "72681894194", "name": "REXBURG MADISON CO AIRPORT, ID US", "quality": 100, "contribution": 0.0}, "KRXE": {"distance": 40919.0, "latitude": 43.83, "longitude": -111.81, "useCount": 0, "id": "KRXE", "name": "KRXE", "quality": 100, "contribution": 0.0}, "KPIH": {"distance": 78885.0, "latitude": 42.92, "longitude": -112.6, "useCount": 0, "id": "KPIH", "name": "KPIH", "quality": 100, "contribution": 0.0}, "KIDA": {"distance": 607.0, "latitude": 43.52, "longitude": -112.07, "useCount": 0, "id": "KIDA", "name": "IDAHO FALLS/FANG, ID", "quality": 100, "contribution": 0.0}, "72578524145": {"distance": 748.0, "latitude": 43.519, "longitude": -112.064, "useCount": 0, "id": "72578524145", "name": "IDAHO FALLS FANNING FIELD, ID US", "quality": 100, "contribution": 0.0}, "72578024156": {"distance": 77611.0, "latitude": 42.92, "longitude": -112.571, "useCount": 0, "id": "72578024156", "name": "POCATELLO REGIONAL AIRPORT, ID US", "quality": 100, "contribution": 0.0}}}