{"queryCost": 1, "latitude": 43.514599, "longitude": -112.070999, "resolvedAddress": "43.514599, -112.070999", "address": "43.514599, -112.070999", "timezone": "America/Boise", "tzoffset": -7.0, "days": [{"datetime": "2020-01-05", "datetimeEpoch": 1578207600, "tempmax": -3.3, "tempmin": -13.3, "temp": -8.0, "feelslikemax": -5.6, "feelslikemin": -18.8, "feelslike": -12.4, "dew": -9.9, "humidity": 85.83, "precip": 0.86, "precipprob": null, "precipcover": 20.83, "preciptype": null, "snow": 0.84, "snowdepth": 16.06, "windgust": 44.6, "windspeed": 37.1, "winddir": 213.6, "pressure": 1032.1, "cloudcover": 64.1, "visibility": 12.8, "solarradiation": null, "solarenergy": null, "sunrise": "08:01:26", "sunriseEpoch": 1578236486, "sunset": "17:05:58", "sunsetEpoch": 1578269158, "moonphase": 0.36, "conditions": "Snow, Partially cloudy", "icon": "snow", "stations": ["72681894194", "KRXE", "KPIH", "KIDA", "72578524145", "72578024156"], "source": "obs", "hours": null}], "stations": {"72681894194": {"distance": 41202.0, "latitude": 43.832, "longitude": -111.808, "useCount": 0, "id": "72681894194", "name": "REXBURG MADISON CO AIRPORT, ID US", "quality": 100, "contribution": 0.0}, "KRXE": {"distance": 40919.0, "latitude": 43.83, "longitude": -111.81, "useCount": 0, "id": "KRXE", "name": "KRXE", "quality": 100, "contribution": 0.0}, "KPIH": {"distance": 78885.0, "latitude": 42.92, "longitude": -112.6, "useCount": 0, "id": "KPIH", "name": "KPIH", "quality": 100, "contribution": 0.0}, "KIDA": {"distance": 607.0, "latitude": 43.52, "longitude": -112.07, "useCount": 0, "id": "KIDA", "name": "IDAHO FALLS/FANG, ID", "quality": 100, "contribution": 0.0}, "72578524145": {"distance": 748.0, "latitude": 43.519, "longitude": -112.064, "useCount": 0, "id": "72578524145", "name": "IDAHO FALLS FANNING FIELD, ID US", "quality": 100, "contribution": 0.0}, "72578024156": {"distance": 77611.0, "latitude": 42.92, "longitude": -112.571, "useCount": 0, "id": "72578024156", "name": "POCATELLO REGIONAL AIRPORT, ID US", "quality": 100, "contribution": 0.0}}}