{"queryCost": 1, "latitude": 34.270599365234375, "longitude": -77.90260314941406, "resolvedAddress": "34.270599365234375, -77.90260314941406", "address": "34.270599365234375, -77.90260314941406", "timezone": "America/New_York", "tzoffset": -4.0, "days": [{"datetime": "2018-05-31", "datetimeEpoch": 1527739200, "tempmax": 30.0, "tempmin": 23.4, "temp": 26.2, "feelslikemax": 34.0, "feelslikemin": 23.4, "feelslike": 27.6, "dew": 22.3, "humidity": 79.86, "precip": 0.0, "precipprob": null, "precipcover": 4.17, "preciptype": null, "snow": 0.0, "snowdepth": 0.0, "windgust": 35.3, "windspeed": 27.7, "winddir": 194.2, "pressure": 1015.2, "cloudcover": 46.2, "visibility": 15.8, "solarradiation": null, "solarenergy": null, "sunrise": "06:01:06", "sunriseEpoch": 1527760866, "sunset": "20:17:51", "sunsetEpoch": 1527812271, "moonphase": 0.52, "conditions": "Partially cloudy", "icon": "partly-cloudy-day", "stations": ["KNCA", "KSUT", "72309693727", "KILM", "72302013748", "72219103721"], "source": "obs", "hours": null}], "stations": {"KNCA": {"distance": 65015.0, "latitude": 34.72, "longitude": -77.45, "useCount": 0, "id": "KNCA", "name": "KNCA", "quality": 100, "contribution": 0.0}, "KSUT": {"distance": 40596.0, "latitude": 33.93, "longitude": -78.06, "useCount": 0, "id": "KSUT", "name": "KSUT", "quality": 99, "contribution": 0.0}, "72309693727": {"distance": 64646.0, "latitude": 34.708, "longitude": -77.44, "useCount": 0, "id": "72309693727", "name": "NEW RIVER MCAF, NC US", "quality": 100, "contribution": 0.0}, "KILM": {"distance": 249.0, "latitude": 34.27, "longitude": -77.9, "useCount": 0, "id": "KILM", "name": "KILM", "quality": 100, "contribution": 0.0}, "72302013748": {"distance": 436.0, "latitude": 34.268, "longitude": -77.9, "useCount": 0, "id": "72302013748", "name": "WILMINGTON INTERNATIONAL AIRPORT, NC US", "quality": 100, "contribution": 0.0}, "72219103721": {"distance": 41182.0, "latitude": 33.929, "longitude": -78.075, "useCount": 0, "id": "72219103721", "name": "BRUNSWICK CO AIRPORT, NC US", "quality": 100, "contribution": 0.0}}}