{"queryCost": 1, "latitude": 39.7173, "longitude": -86.294403, "resolvedAddress": "39.7173, -86.294403", "address": "39.7173, -86.294403", "timezone": "America/Indiana/Indianapolis", "tzoffset": -4.0, "days": [{"datetime": "2019-05-02", "datetimeEpoch": 1556769600, "tempmax": 21.1, "tempmin": 13.4, "temp": 16.7, "feelslikemax": 21.1, "feelslikemin": 13.4, "feelslike": 16.7, "dew": 15.4, "humidity": 92.24, "precip": 3.03, "precipprob": null, "precipcover": 37.5, "preciptype": null, "snow": 0.0, "snowdepth": 0.0, "windgust": null, "windspeed": 20.4, "winddir": 208.5, "pressure": 1018.1, "cloudcover": 60.7, "visibility": 8.4, "solarradiation": 127.2, "solarenergy": 6.4, "sunrise": "06:44:47", "sunriseEpoch": 1556793887, "sunset": "20:40:12", "sunsetEpoch": 1556844012, "moonphase": 0.97, "conditions": "Rain, Partially cloudy", "icon": "rain", "stations": ["72435653866", "KEYE", "KIND", "72438093819", "72438453842", "72057500173"], "source": "obs", "hours": null}], "stations": {"72435653866": {"distance": 44856.0, "latitude": 39.578, "longitude": -85.803, "useCount": 0, "id": "72435653866", "name": "SHELBYVILLE MUNICIPAL AIRPORT, IN US", "quality": 100, "contribution": 0.0}, "KEYE": {"distance": 12551.0, "latitude": 39.83, "longitude": -86.29, "useCount": 0, "id": "KEYE", "name": "KEYE", "quality": 100, "contribution": 0.0}, "KIND": {"distance": 2111.0, "latitude": 39.72, "longitude": -86.27, "useCount": 0, "id": "KIND", "name": "KIND", "quality": 100, "contribution": 0.0}, "72438093819": {"distance": 1399.0, "latitude": 39.725, "longitude": -86.282, "useCount": 0, "id": "72438093819", "name": "INDIANAPOLIS INTERNATIONAL AIRPORT, IN US", "quality": 100, "contribution": 0.0}, "72438453842": {"distance": 11990.0, "latitude": 39.825, "longitude": -86.296, "useCount": 0, "id": "72438453842", "name": "INDIANAPOLIS EAGLE CREEK AIRPORT, IN US", "quality": 100, "contribution": 0.0}, "72057500173": {"distance": 35117.0, "latitude": 40.031, "longitude": -86.251, "useCount": 0, "id": "72057500173", "name": "INDIANAPOLIS EXECUTIVE AIRPORT, IN US", "quality": 100, "contribution": 0.0}}}