{"queryCost": 1, "latitude": 39.7173, "longitude": -86.294403, "resolvedAddress": "39.7173, -86.294403", "address": "39.7173, -86.294403", "timezone": "America/Indiana/Indianapolis", "tzoffset": -5.0, "days": [{"datetime": "2020-01-06", "datetimeEpoch": 1578286800, "tempmax": 6.2, "tempmin": -3.3, "temp": 1.6, "feelslikemax": 5.7, "feelslikemin": -7.5, "feelslike": -1.2, "dew": -4.5, "humidity": 65.6, "precip": 0.0, "precipprob": null, "precipcover": 0.0, "preciptype": null, "snow": 0.0, "snowdepth": 0.0, "windgust": 38.9, "windspeed": 25.9, "winddir": 237.5, "pressure": 1021.7, "cloudcover": 59.9, "visibility": 16.0, "solarradiation": 258.1, "solarenergy": 10.2, "sunrise": "08:06:30", "sunriseEpoch": 1578315990, "sunset": "17:35:30", "sunsetEpoch": 1578350130, "moonphase": 0.4, "conditions": "Partially cloudy", "icon": "partly-cloudy-day", "stations": ["KEYE", "KIND", "72438093819", "72438453842", "72057500173"], "source": "obs", "hours": null}], "stations": {"72438093819": {"distance": 1399.0, "latitude": 39.725, "longitude": -86.282, "useCount": 0, "id": "72438093819", "name": "INDIANAPOLIS INTERNATIONAL AIRPORT, IN US", "quality": 100, "contribution": 0.0}, "72438453842": {"distance": 11990.0, "latitude": 39.825, "longitude": -86.296, "useCount": 0, "id": "72438453842", "name": "INDIANAPOLIS EAGLE CREEK AIRPORT, IN US", "quality": 100, "contribution": 0.0}, "KEYE": {"distance": 12551.0, "latitude": 39.83, "longitude": -86.29, "useCount": 0, "id": "KEYE", "name": "KEYE", "quality": 100, "contribution": 0.0}, "KIND": {"distance": 2111.0, "latitude": 39.72, "longitude": -86.27, "useCount": 0, "id": "KIND", "name": "KIND", "quality": 100, "contribution": 0.0}, "72057500173": {"distance": 35117.0, "latitude": 40.031, "longitude": -86.251, "useCount": 0, "id": "72057500173", "name": "INDIANAPOLIS EXECUTIVE AIRPORT, IN US", "quality": 100, "contribution": 0.0}}}