{"queryCost": 1, "latitude": 39.7173, "longitude": -86.294403, "resolvedAddress": "39.7173, -86.294403", "address": "39.7173, -86.294403", "timezone": "America/Indiana/Indianapolis", "tzoffset": -4.0, "days": [{"datetime": "2018-06-29", "datetimeEpoch": 1530244800, "tempmax": 32.2, "tempmin": 21.7, "temp": 27.1, "feelslikemax": 38.0, "feelslikemin": 21.7, "feelslike": 29.5, "dew": 22.0, "humidity": 74.55, "precip": 0.0, "precipprob": null, "precipcover": 0.0, "preciptype": null, "snow": 0.0, "snowdepth": 0.0, "windgust": null, "windspeed": 18.4, "winddir": 157.7, "pressure": 1015.3, "cloudcover": 53.4, "visibility": 16.0, "solarradiation": 482.4, "solarenergy": 27.8, "sunrise": "06:20:08", "sunriseEpoch": 1530267608, "sunset": "21:17:07", "sunsetEpoch": 1530321427, "moonphase": 0.51, "conditions": "Partially cloudy", "icon": "partly-cloudy-day", "stations": ["72435653866", "KEYE", "KIND", "72438093819", "72438453842", "72057500173"], "source": "obs", "hours": null}], "stations": {"72435653866": {"distance": 44856.0, "latitude": 39.578, "longitude": -85.803, "useCount": 0, "id": "72435653866", "name": "SHELBYVILLE MUNICIPAL AIRPORT, IN US", "quality": 100, "contribution": 0.0}, "KEYE": {"distance": 12551.0, "latitude": 39.83, "longitude": -86.29, "useCount": 0, "id": "KEYE", "name": "KEYE", "quality": 100, "contribution": 0.0}, "KIND": {"distance": 2111.0, "latitude": 39.72, "longitude": -86.27, "useCount": 0, "id": "KIND", "name": "KIND", "quality": 100, "contribution": 0.0}, "72438093819": {"distance": 1399.0, "latitude": 39.725, "longitude": -86.282, "useCount": 0, "id": "72438093819", "name": "INDIANAPOLIS INTERNATIONAL AIRPORT, IN US", "quality": 100, "contribution": 0.0}, "72438453842": {"distance": 11990.0, "latitude": 39.825, "longitude": -86.296, "useCount": 0, "id": "72438453842", "name": "INDIANAPOLIS EAGLE CREEK AIRPORT, IN US", "quality": 100, "contribution": 0.0}, "72057500173": {"distance": 35117.0, "latitude": 40.031, "longitude": -86.251, "useCount": 0, "id": "72057500173", "name": "INDIANAPOLIS EXECUTIVE AIRPORT, IN US", "quality": 100, "contribution": 0.0}}}