{"queryCost": 1, "latitude": 39.7173, "longitude": -86.294403, "resolvedAddress": "39.7173, -86.294403", "address": "39.7173, -86.294403", "timezone": "America/Indiana/Indianapolis", "tzoffset": -5.0, "days": [{"datetime": "2020-01-03", "datetimeEpoch": 1578027600, "tempmax": 8.8, "tempmin": 5.0, "temp": 7.5, "feelslikemax": 8.8, "feelslikemin": 1.9, "feelslike": 6.2, "dew": 7.0, "humidity": 96.68, "precip": 9.57, "precipprob": null, "precipcover": 29.17, "preciptype": null, "snow": 0.0, "snowdepth": 0.0, "windgust": null, "windspeed": 18.3, "winddir": 243.1, "pressure": 1008.0, "cloudcover": 97.7, "visibility": 5.1, "solarradiation": 57.9, "solarenergy": 2.1, "sunrise": "08:06:28", "sunriseEpoch": 1578056788, "sunset": "17:32:48", "sunsetEpoch": 1578090768, "moonphase": 0.26, "conditions": "Rain, Overcast", "icon": "rain", "stations": ["KEYE", "KIND", "72438093819", "72438453842", "72057500173"], "source": "obs", "hours": null}], "stations": {"72438093819": {"distance": 1399.0, "latitude": 39.725, "longitude": -86.282, "useCount": 0, "id": "72438093819", "name": "INDIANAPOLIS INTERNATIONAL AIRPORT, IN US", "quality": 100, "contribution": 0.0}, "72438453842": {"distance": 11990.0, "latitude": 39.825, "longitude": -86.296, "useCount": 0, "id": "72438453842", "name": "INDIANAPOLIS EAGLE CREEK AIRPORT, IN US", "quality": 100, "contribution": 0.0}, "KEYE": {"distance": 12551.0, "latitude": 39.83, "longitude": -86.29, "useCount": 0, "id": "KEYE", "name": "KEYE", "quality": 100, "contribution": 0.0}, "KIND": {"distance": 2111.0, "latitude": 39.72, "longitude": -86.27, "useCount": 0, "id": "KIND", "name": "KIND", "quality": 100, "contribution": 0.0}, "72057500173": {"distance": 35117.0, "latitude": 40.031, "longitude": -86.251, "useCount": 0, "id": "72057500173", "name": "INDIANAPOLIS EXECUTIVE AIRPORT, IN US", "quality": 100, "contribution": 0.0}}}