{"queryCost": 1, "latitude": 48.566200256347656, "longitude": -93.4030990600586, "resolvedAddress": "48.566200256347656, -93.4030990600586", "address": "48.566200256347656, -93.4030990600586", "timezone": "America/Chicago", "tzoffset": -6.0, "days": [{"datetime": "2020-01-02", "datetimeEpoch": 1577944800, "tempmax": -3.3, "tempmin": -8.9, "temp": -5.5, "feelslikemax": -3.9, "feelslikemin": -15.8, "feelslike": -10.1, "dew": -7.7, "humidity": 84.49, "precip": 0.3, "precipprob": null, "precipcover": 12.5, "preciptype": null, "snow": 0.0, "snowdepth": 41.0, "windgust": 37.1, "windspeed": 24.1, "winddir": 256.0, "pressure": 996.8, "cloudcover": 98.8, "visibility": 13.0, "solarradiation": 19.2, "solarenergy": 0.4, "sunrise": "08:05:53", "sunriseEpoch": 1577973953, "sunset": "16:29:22", "sunsetEpoch": 1578004162, "moonphase": 0.22, "conditions": "Snow, Overcast", "icon": "snow", "stations": ["KORB", "72747014918", "72654404958", "KINL", "71962099999"], "source": "obs", "hours": null}], "stations": {"72747014918": {"distance": 649.0, "latitude": 48.561, "longitude": -93.398, "useCount": 0, "id": "72747014918", "name": "INTERNATIONAL FALLS INTERNATIONAL AIRPORT, MN US", "quality": 89, "contribution": 0.0}, "72654404958": {"distance": 73465.0, "latitude": 48.016, "longitude": -92.856, "useCount": 0, "id": "72654404958", "name": "ORR REGIONAL AIRPORT, MN US", "quality": 100, "contribution": 0.0}, "KORB": {"distance": 72497.0, "latitude": 48.02, "longitude": -92.87, "useCount": 0, "id": "KORB", "name": "KORB", "quality": 100, "contribution": 0.0}, "KINL": {"distance": 1753.0, "latitude": 48.57, "longitude": -93.38, "useCount": 0, "id": "KINL", "name": "KINL", "quality": 100, "contribution": 0.0}, "71962099999": {"distance": 9590.0, "latitude": 48.65, "longitude": -93.433, "useCount": 0, "id": "71962099999", "name": "FORT FRANCES RCS, CA", "quality": 99, "contribution": 0.0}}}