{"queryCost": 1, "latitude": 40.79520035, "longitude": -73.10019684, "resolvedAddress": "40.79520035, -73.10019684", "address": "40.79520035, -73.10019684", "timezone": "America/New_York", "tzoffset": -5.0, "days": [{"datetime": "2020-01-06", "datetimeEpoch": 1578286800, "tempmax": 7.8, "tempmin": -1.1, "temp": 2.5, "feelslikemax": 4.0, "feelslikemin": -4.2, "feelslike": -0.6, "dew": -2.7, "humidity": 70.46, "precip": 0.0, "precipprob": null, "precipcover": 0.0, "preciptype": null, "snow": 0.0, "snowdepth": 0.0, "windgust": 51.8, "windspeed": 31.7, "winddir": 251.6, "pressure": 1014.5, "cloudcover": 66.1, "visibility": 15.5, "solarradiation": 40.4, "solarenergy": 1.5, "sunrise": "07:16:54", "sunriseEpoch": 1578313014, "sunset": "16:39:31", "sunsetEpoch": 1578346771, "moonphase": 0.4, "conditions": "Partially cloudy", "icon": "wind", "stations": ["KFRG", "72505004781", "KISP", "72501654790", "74486454787", "KHWV"], "source": "obs", "hours": null}], "stations": {"KFRG": {"distance": 28236.0, "latitude": 40.72, "longitude": -73.42, "useCount": 0, "id": "KFRG", "name": "KFRG", "quality": 100, "contribution": 0.0}, "72505004781": {"distance": 204.0, "latitude": 40.794, "longitude": -73.102, "useCount": 0, "id": "72505004781", "name": "ISLIP LI MACARTHUR AIRPORT, NY US", "quality": 100, "contribution": 0.0}, "KISP": {"distance": 1036.0, "latitude": 40.79, "longitude": -73.09, "useCount": 0, "id": "KISP", "name": "KISP", "quality": 100, "contribution": 0.0}, "72501654790": {"distance": 19711.0, "latitude": 40.822, "longitude": -72.869, "useCount": 0, "id": "72501654790", "name": "SHIRLEY BROOKHAVEN AIRPORT, NY US", "quality": 100, "contribution": 0.0}, "74486454787": {"distance": 27552.0, "latitude": 40.734, "longitude": -73.417, "useCount": 0, "id": "74486454787", "name": "FARMINGDALE REPUBLIC AIRPORT, NY US", "quality": 100, "contribution": 0.0}, "KHWV": {"distance": 20426.0, "latitude": 40.82, "longitude": -72.86, "useCount": 0, "id": "KHWV", "name": "KHWV", "quality": 100, "contribution": 0.0}}}