{"queryCost": 1, "latitude": 43.6072998046875, "longitude": -110.73799896240234, "resolvedAddress": "43.6072998046875, -110.73799896240234", "address": "43.6072998046875, -110.73799896240234", "timezone": "America/Denver", "tzoffset": -7.0, "days": [{"datetime": "2020-01-03", "datetimeEpoch": 1578034800, "tempmax": 0.0, "tempmin": -5.7, "temp": -2.6, "feelslikemax": -4.5, "feelslikemin": -10.8, "feelslike": -8.2, "dew": -5.4, "humidity": 81.21, "precip": 0.0, "precipprob": null, "precipcover": 20.83, "preciptype": null, "snow": 0.0, "snowdepth": 54.04, "windgust": 38.9, "windspeed": 33.4, "winddir": 198.8, "pressure": 1026.3, "cloudcover": 57.5, "visibility": 12.5, "solarradiation": 138.6, "solarenergy": 4.5, "sunrise": "07:56:30", "sunriseEpoch": 1578063390, "sunset": "16:58:24", "sunsetEpoch": 1578095904, "moonphase": 0.26, "conditions": "Partially cloudy", "icon": "wind", "stations": ["KJAC", "99999904131", "72036904135", "72577624166", "KDIJ"], "source": "obs", "hours": null}], "stations": {"72577624166": {"distance": 907.0, "latitude": 43.6, "longitude": -110.733, "useCount": 0, "id": "72577624166", "name": "JACKSON HOLE AIRPORT, WY US", "quality": 100, "contribution": 0.0}, "KDIJ": {"distance": 32676.0, "latitude": 43.74, "longitude": -111.1, "useCount": 0, "id": "KDIJ", "name": "Driggs Reed Mem, ID", "quality": 100, "contribution": 0.0}, "KJAC": {"distance": 341.0, "latitude": 43.61, "longitude": -110.74, "useCount": 0, "id": "KJAC", "name": "JACKSON, WY", "quality": 100, "contribution": 0.0}, "99999904131": {"distance": 6387.0, "latitude": 43.662, "longitude": -110.712, "useCount": 0, "id": "99999904131", "name": "MOOSE 1 NNE, WY US", "quality": 100, "contribution": 0.0}, "72036904135": {"distance": 32660.0, "latitude": 43.743, "longitude": -111.098, "useCount": 0, "id": "72036904135", "name": "DRIGGS REED MEMORIAL AIRPORT, ID US", "quality": 100, "contribution": 0.0}}}