{"queryCost": 1, "latitude": 32.3111991882, "longitude": -90.0758972168, "resolvedAddress": "32.3111991882, -90.0758972168", "address": "32.3111991882, -90.0758972168", "timezone": "America/Chicago", "tzoffset": -6.0, "days": [{"datetime": "2020-01-03", "datetimeEpoch": 1578031200, "tempmax": 16.1, "tempmin": 12.2, "temp": 15.0, "feelslikemax": 16.1, "feelslikemin": 12.2, "feelslike": 15.0, "dew": 13.4, "humidity": 89.82, "precip": 7.77, "precipprob": null, "precipcover": 62.5, "preciptype": null, "snow": 0.0, "snowdepth": 0.0, "windgust": null, "windspeed": 14.7, "winddir": 174.7, "pressure": 1011.2, "cloudcover": 82.8, "visibility": 13.8, "solarradiation": null, "solarenergy": null, "sunrise": "07:02:03", "sunriseEpoch": 1578056523, "sunset": "17:07:27", "sunsetEpoch": 1578092847, "moonphase": 0.26, "conditions": "Rain, Overcast", "icon": "rain", "stations": ["72078700278", "KJVW", "72235413927", "KHKS", "72235003940", "KJAN"], "source": "obs", "hours": null}], "stations": {"72078700278": {"distance": 31539.0, "latitude": 32.304, "longitude": -90.411, "useCount": 0, "id": "72078700278", "name": "JOHN BELL WILLIAMS AIRPORT, MS US", "quality": 50, "contribution": 0.0}, "KJVW": {"distance": 31525.0, "latitude": 32.29, "longitude": -90.41, "useCount": 0, "id": "KJVW", "name": "KJVW", "quality": 45, "contribution": 0.0}, "72235413927": {"distance": 13979.0, "latitude": 32.337, "longitude": -90.221, "useCount": 0, "id": "72235413927", "name": "JACKSON HAWKINS FIELD, MS US", "quality": 100, "contribution": 0.0}, "KHKS": {"distance": 13717.0, "latitude": 32.33, "longitude": -90.22, "useCount": 0, "id": "KHKS", "name": "KHKS", "quality": 100, "contribution": 0.0}, "72235003940": {"distance": 1049.0, "latitude": 32.321, "longitude": -90.078, "useCount": 0, "id": "72235003940", "name": "JACKSON INTERNATIONAL AIRPORT, MS US", "quality": 100, "contribution": 0.0}, "KJAN": {"distance": 1053.0, "latitude": 32.32, "longitude": -90.08, "useCount": 0, "id": "KJAN", "name": "KJAN", "quality": 100, "contribution": 0.0}}}