{"queryCost": 1, "latitude": 30.49410057067871, "longitude": -81.68789672851562, "resolvedAddress": "30.49410057067871, -81.68789672851562", "address": "30.49410057067871, -81.68789672851562", "timezone": "America/New_York", "tzoffset": -5.0, "days": [{"datetime": "2019-11-23", "datetimeEpoch": 1574485200, "tempmax": 26.7, "tempmin": 10.0, "temp": 18.6, "feelslikemax": 26.7, "feelslikemin": 10.0, "feelslike": 18.6, "dew": 13.4, "humidity": 74.31, "precip": 1.3, "precipprob": null, "precipcover": 4.17, "preciptype": null, "snow": 0.0, "snowdepth": 0.0, "windgust": 42.7, "windspeed": 24.1, "winddir": 206.1, "pressure": 1014.3, "cloudcover": 57.4, "visibility": 13.4, "solarradiation": 320.5, "solarenergy": 12.7, "sunrise": "06:59:20", "sunriseEpoch": 1574510360, "sunset": "17:26:41", "sunsetEpoch": 1574548001, "moonphase": 0.94, "conditions": "Rain, Partially cloudy", "icon": "rain", "stations": ["72206013889", "KJAX", "KFHB", "72094600326", "74782053860", "KCRG"], "source": "obs", "hours": null}], "stations": {"72206013889": {"distance": 556.0, "latitude": 30.495, "longitude": -81.694, "useCount": 0, "id": "72206013889", "name": "JACKSONVILLE INTERNATIONAL AIRPORT, FL US", "quality": 100, "contribution": 0.0}, "KJAX": {"distance": 1334.0, "latitude": 30.5, "longitude": -81.7, "useCount": 0, "id": "KJAX", "name": "KJAX", "quality": 100, "contribution": 0.0}, "KFHB": {"distance": 25154.0, "latitude": 30.62, "longitude": -81.47, "useCount": 0, "id": "KFHB", "name": "KFHB", "quality": 99, "contribution": 0.0}, "72094600326": {"distance": 25211.0, "latitude": 30.617, "longitude": -81.467, "useCount": 0, "id": "72094600326", "name": "FERNANDINA BEACH MUNICIPAL AIRPORT, FL US", "quality": 100, "contribution": 0.0}, "74782053860": {"distance": 24203.0, "latitude": 30.336, "longitude": -81.515, "useCount": 0, "id": "74782053860", "name": "JACKSONVILLE CRAIG MUNICIPAL AIRPORT, FL US", "quality": 100, "contribution": 0.0}, "KCRG": {"distance": 24362.0, "latitude": 30.33, "longitude": -81.52, "useCount": 0, "id": "KCRG", "name": "KCRG", "quality": 100, "contribution": 0.0}}}