{"queryCost": 1, "latitude": 40.639801, "longitude": -73.7789, "resolvedAddress": "40.639801, -73.7789", "address": "40.639801, -73.7789", "timezone": "America/New_York", "tzoffset": -4.0, "days": [{"datetime": "2019-08-28", "datetimeEpoch": 1566964800, "tempmax": 22.8, "tempmin": 18.9, "temp": 21.0, "feelslikemax": 22.8, "feelslikemin": 18.9, "feelslike": 21.0, "dew": 20.4, "humidity": 96.43, "precip": 11.6, "precipprob": null, "precipcover": 50.0, "preciptype": null, "snow": 0.0, "snowdepth": 0.0, "windgust": 85.0, "windspeed": 16.6, "winddir": 154.7, "pressure": 1012.5, "cloudcover": 68.4, "visibility": 14.4, "solarradiation": 94.1, "solarenergy": 4.4, "sunrise": "06:18:00", "sunriseEpoch": 1566987480, "sunset": "19:34:04", "sunsetEpoch": 1567035244, "moonphase": 0.98, "conditions": "Rain, Partially cloudy", "icon": "rain", "stations": ["72055399999", "KJFK", "74486094789", "KLGA", "KJRB", "72503014732"], "source": "obs", "hours": null}], "stations": {"72055399999": {"distance": 20595.0, "latitude": 40.701, "longitude": -74.009, "useCount": 0, "id": "72055399999", "name": "PORT AUTH DOWNTN MANHATTAN WALL ST HEL, NY US", "quality": 100, "contribution": 0.0}, "KJFK": {"distance": 1139.0, "latitude": 40.65, "longitude": -73.78, "useCount": 0, "id": "KJFK", "name": "KJFK", "quality": 100, "contribution": 0.0}, "74486094789": {"distance": 1261.0, "latitude": 40.639, "longitude": -73.764, "useCount": 0, "id": "74486094789", "name": "JFK INTERNATIONAL AIRPORT, NY US", "quality": 100, "contribution": 0.0}, "KLGA": {"distance": 17734.0, "latitude": 40.77, "longitude": -73.9, "useCount": 0, "id": "KLGA", "name": "KLGA", "quality": 100, "contribution": 0.0}, "KJRB": {"distance": 20595.0, "latitude": 40.701, "longitude": -74.009, "useCount": 0, "id": "KJRB", "name": "Downtown Manhattan/wall St, New York", "quality": 100, "contribution": 0.0}, "72503014732": {"distance": 17740.0, "latitude": 40.779, "longitude": -73.88, "useCount": 0, "id": "72503014732", "name": "LAGUARDIA AIRPORT, NY US", "quality": 100, "contribution": 0.0}}}