{"queryCost": 1, "latitude": 40.639801, "longitude": -73.7789, "resolvedAddress": "40.639801, -73.7789", "address": "40.639801, -73.7789", "timezone": "America/New_York", "tzoffset": -5.0, "days": [{"datetime": "2019-01-24", "datetimeEpoch": 1548306000, "tempmax": 12.2, "tempmin": 2.2, "temp": 8.1, "feelslikemax": 12.2, "feelslikemin": -4.0, "feelslike": 4.5, "dew": 6.9, "humidity": 92.73, "precip": 32.63, "precipprob": null, "precipcover": 66.67, "preciptype": null, "snow": 0.0, "snowdepth": 0.0, "windgust": 66.5, "windspeed": 55.2, "winddir": 222.9, "pressure": 1002.7, "cloudcover": 79.4, "visibility": 8.8, "solarradiation": 26.4, "solarenergy": 1.0, "sunrise": "07:11:55", "sunriseEpoch": 1548331915, "sunset": "17:02:52", "sunsetEpoch": 1548367372, "moonphase": 0.58, "conditions": "Rain, Overcast", "icon": "rain", "stations": ["72055399999", "KJFK", "74486094789", "KLGA", "KJRB", "72503014732"], "source": "obs", "hours": null}], "stations": {"72055399999": {"distance": 20595.0, "latitude": 40.701, "longitude": -74.009, "useCount": 0, "id": "72055399999", "name": "PORT AUTH DOWNTN MANHATTAN WALL ST HEL, NY US", "quality": 100, "contribution": 0.0}, "KJFK": {"distance": 1139.0, "latitude": 40.65, "longitude": -73.78, "useCount": 0, "id": "KJFK", "name": "KJFK", "quality": 100, "contribution": 0.0}, "74486094789": {"distance": 1261.0, "latitude": 40.639, "longitude": -73.764, "useCount": 0, "id": "74486094789", "name": "JFK INTERNATIONAL AIRPORT, NY US", "quality": 100, "contribution": 0.0}, "KLGA": {"distance": 17734.0, "latitude": 40.77, "longitude": -73.9, "useCount": 0, "id": "KLGA", "name": "KLGA", "quality": 100, "contribution": 0.0}, "KJRB": {"distance": 20595.0, "latitude": 40.701, "longitude": -74.009, "useCount": 0, "id": "KJRB", "name": "Downtown Manhattan/wall St, New York", "quality": 100, "contribution": 0.0}, "72503014732": {"distance": 17740.0, "latitude": 40.779, "longitude": -73.88, "useCount": 0, "id": "72503014732", "name": "LAGUARDIA AIRPORT, NY US", "quality": 100, "contribution": 0.0}}}