{"queryCost": 1, "latitude": 40.639801, "longitude": -73.7789, "resolvedAddress": "40.639801, -73.7789", "address": "40.639801, -73.7789", "timezone": "America/New_York", "tzoffset": -4.0, "days": [{"datetime": "2019-03-11", "datetimeEpoch": 1552276800, "tempmax": 12.2, "tempmin": 5.7, "temp": 8.6, "feelslikemax": 12.2, "feelslikemin": 1.8, "feelslike": 6.2, "dew": -0.3, "humidity": 56.87, "precip": 0.0, "precipprob": null, "precipcover": 0.0, "preciptype": null, "snow": 0.0, "snowdepth": 0.0, "windgust": 52.7, "windspeed": 37.0, "winddir": 270.4, "pressure": 1016.5, "cloudcover": 58.7, "visibility": 15.5, "solarradiation": 385.1, "solarenergy": 16.6, "sunrise": "07:13:33", "sunriseEpoch": 1552302813, "sunset": "18:57:21", "sunsetEpoch": 1552345041, "moonphase": 0.1, "conditions": "Partially cloudy", "icon": "wind", "stations": ["72055399999", "KJFK", "74486094789", "KLGA", "KJRB", "72503014732"], "source": "obs", "hours": null}], "stations": {"72055399999": {"distance": 20595.0, "latitude": 40.701, "longitude": -74.009, "useCount": 0, "id": "72055399999", "name": "PORT AUTH DOWNTN MANHATTAN WALL ST HEL, NY US", "quality": 100, "contribution": 0.0}, "KJFK": {"distance": 1139.0, "latitude": 40.65, "longitude": -73.78, "useCount": 0, "id": "KJFK", "name": "KJFK", "quality": 100, "contribution": 0.0}, "74486094789": {"distance": 1261.0, "latitude": 40.639, "longitude": -73.764, "useCount": 0, "id": "74486094789", "name": "JFK INTERNATIONAL AIRPORT, NY US", "quality": 100, "contribution": 0.0}, "KLGA": {"distance": 17734.0, "latitude": 40.77, "longitude": -73.9, "useCount": 0, "id": "KLGA", "name": "KLGA", "quality": 100, "contribution": 0.0}, "KJRB": {"distance": 20595.0, "latitude": 40.701, "longitude": -74.009, "useCount": 0, "id": "KJRB", "name": "Downtown Manhattan/wall St, New York", "quality": 100, "contribution": 0.0}, "72503014732": {"distance": 17740.0, "latitude": 40.779, "longitude": -73.88, "useCount": 0, "id": "72503014732", "name": "LAGUARDIA AIRPORT, NY US", "quality": 100, "contribution": 0.0}}}