{"queryCost": 1, "latitude": 40.639801, "longitude": -73.7789, "resolvedAddress": "40.639801, -73.7789", "address": "40.639801, -73.7789", "timezone": "America/New_York", "tzoffset": -4.0, "days": [{"datetime": "2018-03-21", "datetimeEpoch": 1521604800, "tempmax": 3.4, "tempmin": 0.0, "temp": 1.0, "feelslikemax": -2.0, "feelslikemin": -7.1, "feelslike": -5.2, "dew": -3.4, "humidity": 76.28, "precip": 16.34, "precipprob": null, "precipcover": 66.67, "preciptype": null, "snow": 14.74, "snowdepth": 14.74, "windgust": 56.7, "windspeed": 39.0, "winddir": 27.1, "pressure": 1005.1, "cloudcover": 94.3, "visibility": 7.3, "solarradiation": null, "solarenergy": null, "sunrise": "06:56:45", "sunriseEpoch": 1521629805, "sunset": "19:08:21", "sunsetEpoch": 1521673701, "moonphase": 0.09, "conditions": "Snow, Overcast", "icon": "snow", "stations": ["72055399999", "KJFK", "74486094789", "KLGA", "KJRB", "72503014732"], "source": "obs", "hours": null}], "stations": {"72055399999": {"distance": 20595.0, "latitude": 40.701, "longitude": -74.009, "useCount": 0, "id": "72055399999", "name": "PORT AUTH DOWNTN MANHATTAN WALL ST HEL, NY US", "quality": 100, "contribution": 0.0}, "KJFK": {"distance": 1139.0, "latitude": 40.65, "longitude": -73.78, "useCount": 0, "id": "KJFK", "name": "KJFK", "quality": 100, "contribution": 0.0}, "74486094789": {"distance": 1261.0, "latitude": 40.639, "longitude": -73.764, "useCount": 0, "id": "74486094789", "name": "JFK INTERNATIONAL AIRPORT, NY US", "quality": 100, "contribution": 0.0}, "KLGA": {"distance": 17734.0, "latitude": 40.77, "longitude": -73.9, "useCount": 0, "id": "KLGA", "name": "KLGA", "quality": 100, "contribution": 0.0}, "KJRB": {"distance": 20595.0, "latitude": 40.701, "longitude": -74.009, "useCount": 0, "id": "KJRB", "name": "Downtown Manhattan/wall St, New York", "quality": 100, "contribution": 0.0}, "72503014732": {"distance": 17740.0, "latitude": 40.779, "longitude": -73.88, "useCount": 0, "id": "72503014732", "name": "LAGUARDIA AIRPORT, NY US", "quality": 100, "contribution": 0.0}}}