{"queryCost": 1, "latitude": 40.639801, "longitude": -73.7789, "resolvedAddress": "40.639801, -73.7789", "address": "40.639801, -73.7789", "timezone": "America/New_York", "tzoffset": -4.0, "days": [{"datetime": "2018-04-19", "datetimeEpoch": 1524110400, "tempmax": 8.9, "tempmin": 5.0, "temp": 6.7, "feelslikemax": 7.8, "feelslikemin": -0.3, "feelslike": 3.4, "dew": 2.3, "humidity": 74.78, "precip": 3.9, "precipprob": null, "precipcover": 50.0, "preciptype": null, "snow": 0.0, "snowdepth": 0.0, "windgust": 77.8, "windspeed": 40.5, "winddir": 220.5, "pressure": 1008.5, "cloudcover": 88.4, "visibility": 15.7, "solarradiation": null, "solarenergy": null, "sunrise": "06:10:24", "sunriseEpoch": 1524132624, "sunset": "19:38:41", "sunsetEpoch": 1524181121, "moonphase": 0.07, "conditions": "Rain, Overcast", "icon": "rain", "stations": ["72055399999", "KJFK", "74486094789", "KLGA", "KJRB", "72503014732"], "source": "obs", "hours": null}], "stations": {"72055399999": {"distance": 20595.0, "latitude": 40.701, "longitude": -74.009, "useCount": 0, "id": "72055399999", "name": "PORT AUTH DOWNTN MANHATTAN WALL ST HEL, NY US", "quality": 100, "contribution": 0.0}, "KJFK": {"distance": 1139.0, "latitude": 40.65, "longitude": -73.78, "useCount": 0, "id": "KJFK", "name": "KJFK", "quality": 100, "contribution": 0.0}, "74486094789": {"distance": 1261.0, "latitude": 40.639, "longitude": -73.764, "useCount": 0, "id": "74486094789", "name": "JFK INTERNATIONAL AIRPORT, NY US", "quality": 100, "contribution": 0.0}, "KLGA": {"distance": 17734.0, "latitude": 40.77, "longitude": -73.9, "useCount": 0, "id": "KLGA", "name": "KLGA", "quality": 100, "contribution": 0.0}, "KJRB": {"distance": 20595.0, "latitude": 40.701, "longitude": -74.009, "useCount": 0, "id": "KJRB", "name": "Downtown Manhattan/wall St, New York", "quality": 100, "contribution": 0.0}, "72503014732": {"distance": 17740.0, "latitude": 40.779, "longitude": -73.88, "useCount": 0, "id": "72503014732", "name": "LAGUARDIA AIRPORT, NY US", "quality": 100, "contribution": 0.0}}}