{"queryCost": 1, "latitude": 40.639801, "longitude": -73.7789, "resolvedAddress": "40.639801, -73.7789", "address": "40.639801, -73.7789", "timezone": "America/New_York", "tzoffset": -4.0, "days": [{"datetime": "2018-04-24", "datetimeEpoch": 1524542400, "tempmax": 16.2, "tempmin": 5.0, "temp": 11.2, "feelslikemax": 16.2, "feelslikemin": 3.9, "feelslike": 10.8, "dew": 6.4, "humidity": 74.77, "precip": 0.01, "precipprob": null, "precipcover": 8.33, "preciptype": null, "snow": 0.0, "snowdepth": 0.0, "windgust": 92.5, "windspeed": 33.4, "winddir": 110.5, "pressure": 1027.7, "cloudcover": 89.0, "visibility": 15.9, "solarradiation": null, "solarenergy": null, "sunrise": "06:03:13", "sunriseEpoch": 1524564193, "sunset": "19:43:55", "sunsetEpoch": 1524613435, "moonphase": 0.34, "conditions": "Rain, Overcast", "icon": "rain", "stations": ["72055399999", "KJFK", "74486094789", "KLGA", "KJRB", "72503014732"], "source": "obs", "hours": null}], "stations": {"72055399999": {"distance": 20595.0, "latitude": 40.701, "longitude": -74.009, "useCount": 0, "id": "72055399999", "name": "PORT AUTH DOWNTN MANHATTAN WALL ST HEL, NY US", "quality": 100, "contribution": 0.0}, "KJFK": {"distance": 1139.0, "latitude": 40.65, "longitude": -73.78, "useCount": 0, "id": "KJFK", "name": "KJFK", "quality": 100, "contribution": 0.0}, "74486094789": {"distance": 1261.0, "latitude": 40.639, "longitude": -73.764, "useCount": 0, "id": "74486094789", "name": "JFK INTERNATIONAL AIRPORT, NY US", "quality": 100, "contribution": 0.0}, "KLGA": {"distance": 17734.0, "latitude": 40.77, "longitude": -73.9, "useCount": 0, "id": "KLGA", "name": "KLGA", "quality": 100, "contribution": 0.0}, "KJRB": {"distance": 20595.0, "latitude": 40.701, "longitude": -74.009, "useCount": 0, "id": "KJRB", "name": "Downtown Manhattan/wall St, New York", "quality": 100, "contribution": 0.0}, "72503014732": {"distance": 17740.0, "latitude": 40.779, "longitude": -73.88, "useCount": 0, "id": "72503014732", "name": "LAGUARDIA AIRPORT, NY US", "quality": 100, "contribution": 0.0}}}