{"queryCost": 1, "latitude": 40.639801, "longitude": -73.7789, "resolvedAddress": "40.639801, -73.7789", "address": "40.639801, -73.7789", "timezone": "America/New_York", "tzoffset": -5.0, "days": [{"datetime": "2018-01-04", "datetimeEpoch": 1515042000, "tempmax": -1.6, "tempmin": -6.6, "temp": -4.3, "feelslikemax": -7.7, "feelslikemin": -17.6, "feelslike": -13.4, "dew": -7.5, "humidity": 79.87, "precip": 12.32, "precipprob": null, "precipcover": 62.5, "preciptype": null, "snow": 11.8, "snowdepth": 13.76, "windgust": 85.1, "windspeed": 57.4, "winddir": 262.1, "pressure": 998.9, "cloudcover": 88.6, "visibility": 6.8, "solarradiation": null, "solarenergy": null, "sunrise": "07:19:11", "sunriseEpoch": 1515068351, "sunset": "16:41:17", "sunsetEpoch": 1515102077, "moonphase": 0.54, "conditions": "Snow, Overcast", "icon": "snow", "stations": ["72055399999", "KJFK", "74486094789", "KLGA", "KJRB", "72503014732"], "source": "obs", "hours": null}], "stations": {"72055399999": {"distance": 20595.0, "latitude": 40.701, "longitude": -74.009, "useCount": 0, "id": "72055399999", "name": "PORT AUTH DOWNTN MANHATTAN WALL ST HEL, NY US", "quality": 100, "contribution": 0.0}, "KJFK": {"distance": 1139.0, "latitude": 40.65, "longitude": -73.78, "useCount": 0, "id": "KJFK", "name": "KJFK", "quality": 100, "contribution": 0.0}, "74486094789": {"distance": 1261.0, "latitude": 40.639, "longitude": -73.764, "useCount": 0, "id": "74486094789", "name": "JFK INTERNATIONAL AIRPORT, NY US", "quality": 100, "contribution": 0.0}, "KLGA": {"distance": 17734.0, "latitude": 40.77, "longitude": -73.9, "useCount": 0, "id": "KLGA", "name": "KLGA", "quality": 100, "contribution": 0.0}, "KJRB": {"distance": 20595.0, "latitude": 40.701, "longitude": -74.009, "useCount": 0, "id": "KJRB", "name": "Downtown Manhattan/wall St, New York", "quality": 100, "contribution": 0.0}, "72503014732": {"distance": 17740.0, "latitude": 40.779, "longitude": -73.88, "useCount": 0, "id": "72503014732", "name": "LAGUARDIA AIRPORT, NY US", "quality": 100, "contribution": 0.0}}}