{"queryCost": 1, "latitude": 40.639801, "longitude": -73.7789, "resolvedAddress": "40.639801, -73.7789", "address": "40.639801, -73.7789", "timezone": "America/New_York", "tzoffset": -5.0, "days": [{"datetime": "2019-11-23", "datetimeEpoch": 1574485200, "tempmax": 7.2, "tempmin": 1.7, "temp": 4.6, "feelslikemax": 6.1, "feelslikemin": -2.8, "feelslike": 1.4, "dew": -3.8, "humidity": 55.25, "precip": 0.63, "precipprob": null, "precipcover": 8.33, "preciptype": null, "snow": 0.0, "snowdepth": 0.0, "windgust": 77.8, "windspeed": 31.6, "winddir": 259.6, "pressure": 1014.9, "cloudcover": 60.2, "visibility": 16.0, "solarradiation": 230.0, "solarenergy": 8.3, "sunrise": "06:50:45", "sunriseEpoch": 1574509845, "sunset": "16:31:53", "sunsetEpoch": 1574544713, "moonphase": 0.94, "conditions": "Rain, Partially cloudy", "icon": "rain", "stations": ["72055399999", "KJFK", "74486094789", "KLGA", "KJRB", "72503014732"], "source": "obs", "hours": null}], "stations": {"72055399999": {"distance": 20595.0, "latitude": 40.701, "longitude": -74.009, "useCount": 0, "id": "72055399999", "name": "PORT AUTH DOWNTN MANHATTAN WALL ST HEL, NY US", "quality": 100, "contribution": 0.0}, "KJFK": {"distance": 1139.0, "latitude": 40.65, "longitude": -73.78, "useCount": 0, "id": "KJFK", "name": "KJFK", "quality": 100, "contribution": 0.0}, "74486094789": {"distance": 1261.0, "latitude": 40.639, "longitude": -73.764, "useCount": 0, "id": "74486094789", "name": "JFK INTERNATIONAL AIRPORT, NY US", "quality": 100, "contribution": 0.0}, "KLGA": {"distance": 17734.0, "latitude": 40.77, "longitude": -73.9, "useCount": 0, "id": "KLGA", "name": "KLGA", "quality": 100, "contribution": 0.0}, "KJRB": {"distance": 20595.0, "latitude": 40.701, "longitude": -74.009, "useCount": 0, "id": "KJRB", "name": "Downtown Manhattan/wall St, New York", "quality": 100, "contribution": 0.0}, "72503014732": {"distance": 17740.0, "latitude": 40.779, "longitude": -73.88, "useCount": 0, "id": "72503014732", "name": "LAGUARDIA AIRPORT, NY US", "quality": 100, "contribution": 0.0}}}