{"queryCost": 1, "latitude": 40.639801, "longitude": -73.7789, "resolvedAddress": "40.639801, -73.7789", "address": "40.639801, -73.7789", "timezone": "America/New_York", "tzoffset": -4.0, "days": [{"datetime": "2019-10-08", "datetimeEpoch": 1570507200, "tempmax": 17.2, "tempmin": 14.4, "temp": 16.0, "feelslikemax": 17.2, "feelslikemin": 14.4, "feelslike": 16.0, "dew": 11.6, "humidity": 76.3, "precip": 0.31, "precipprob": null, "precipcover": 16.67, "preciptype": null, "snow": 0.0, "snowdepth": 0.0, "windgust": 63.9, "windspeed": 27.7, "winddir": 52.9, "pressure": 1023.2, "cloudcover": 62.9, "visibility": 16.0, "solarradiation": 76.8, "solarenergy": 3.3, "sunrise": "06:58:29", "sunriseEpoch": 1570532309, "sunset": "18:26:16", "sunsetEpoch": 1570573576, "moonphase": 0.38, "conditions": "Rain, Partially cloudy", "icon": "rain", "stations": ["72055399999", "KJFK", "74486094789", "KLGA", "KJRB", "72503014732"], "source": "obs", "hours": null}], "stations": {"72055399999": {"distance": 20595.0, "latitude": 40.701, "longitude": -74.009, "useCount": 0, "id": "72055399999", "name": "PORT AUTH DOWNTN MANHATTAN WALL ST HEL, NY US", "quality": 100, "contribution": 0.0}, "KJFK": {"distance": 1139.0, "latitude": 40.65, "longitude": -73.78, "useCount": 0, "id": "KJFK", "name": "KJFK", "quality": 100, "contribution": 0.0}, "74486094789": {"distance": 1261.0, "latitude": 40.639, "longitude": -73.764, "useCount": 0, "id": "74486094789", "name": "JFK INTERNATIONAL AIRPORT, NY US", "quality": 100, "contribution": 0.0}, "KLGA": {"distance": 17734.0, "latitude": 40.77, "longitude": -73.9, "useCount": 0, "id": "KLGA", "name": "KLGA", "quality": 100, "contribution": 0.0}, "KJRB": {"distance": 20595.0, "latitude": 40.701, "longitude": -74.009, "useCount": 0, "id": "KJRB", "name": "Downtown Manhattan/wall St, New York", "quality": 100, "contribution": 0.0}, "72503014732": {"distance": 17740.0, "latitude": 40.779, "longitude": -73.88, "useCount": 0, "id": "72503014732", "name": "LAGUARDIA AIRPORT, NY US", "quality": 100, "contribution": 0.0}}}