{"queryCost": 1, "latitude": 40.639801, "longitude": -73.7789, "resolvedAddress": "40.639801, -73.7789", "address": "40.639801, -73.7789", "timezone": "America/New_York", "tzoffset": -5.0, "days": [{"datetime": "2018-11-17", "datetimeEpoch": 1542430800, "tempmax": 8.9, "tempmin": 3.4, "temp": 6.5, "feelslikemax": 5.7, "feelslikemin": -1.9, "feelslike": 2.7, "dew": 0.2, "humidity": 64.66, "precip": 0.0, "precipprob": null, "precipcover": 4.17, "preciptype": null, "snow": 4.85, "snowdepth": 5.0, "windgust": 44.6, "windspeed": 29.5, "winddir": 276.7, "pressure": 1021.2, "cloudcover": 79.2, "visibility": 16.0, "solarradiation": null, "solarenergy": null, "sunrise": "06:44:07", "sunriseEpoch": 1542455047, "sunset": "16:35:39", "sunsetEpoch": 1542490539, "moonphase": 0.34, "conditions": "Snow, Overcast", "icon": "snow", "stations": ["72055399999", "KJFK", "74486094789", "KLGA", "KJRB", "72503014732"], "source": "obs", "hours": null}], "stations": {"72055399999": {"distance": 20595.0, "latitude": 40.701, "longitude": -74.009, "useCount": 0, "id": "72055399999", "name": "PORT AUTH DOWNTN MANHATTAN WALL ST HEL, NY US", "quality": 100, "contribution": 0.0}, "KJFK": {"distance": 1139.0, "latitude": 40.65, "longitude": -73.78, "useCount": 0, "id": "KJFK", "name": "KJFK", "quality": 100, "contribution": 0.0}, "74486094789": {"distance": 1261.0, "latitude": 40.639, "longitude": -73.764, "useCount": 0, "id": "74486094789", "name": "JFK INTERNATIONAL AIRPORT, NY US", "quality": 100, "contribution": 0.0}, "KLGA": {"distance": 17734.0, "latitude": 40.77, "longitude": -73.9, "useCount": 0, "id": "KLGA", "name": "KLGA", "quality": 100, "contribution": 0.0}, "KJRB": {"distance": 20595.0, "latitude": 40.701, "longitude": -74.009, "useCount": 0, "id": "KJRB", "name": "Downtown Manhattan/wall St, New York", "quality": 100, "contribution": 0.0}, "72503014732": {"distance": 17740.0, "latitude": 40.779, "longitude": -73.88, "useCount": 0, "id": "72503014732", "name": "LAGUARDIA AIRPORT, NY US", "quality": 100, "contribution": 0.0}}}