{"queryCost": 1, "latitude": 37.151798248291016, "longitude": -94.49829864501953, "resolvedAddress": "37.151798248291016, -94.49829864501953", "address": "37.151798248291016, -94.49829864501953", "timezone": "America/Chicago", "tzoffset": -6.0, "days": [{"datetime": "2020-01-01", "datetimeEpoch": 1577858400, "tempmax": 14.3, "tempmin": -0.6, "temp": 7.0, "feelslikemax": 14.3, "feelslikemin": -5.5, "feelslike": 4.0, "dew": -3.4, "humidity": 48.48, "precip": 0.0, "precipprob": null, "precipcover": 0.0, "preciptype": null, "snow": 0.0, "snowdepth": 0.0, "windgust": 74.0, "windspeed": 50.0, "winddir": 191.3, "pressure": 1008.7, "cloudcover": 3.2, "visibility": 16.0, "solarradiation": null, "solarenergy": null, "sunrise": "07:31:46", "sunriseEpoch": 1577885506, "sunset": "17:11:15", "sunsetEpoch": 1577920275, "moonphase": 0.17, "conditions": "Clear", "icon": "wind", "stations": ["KJLN", "99999923908", "72349513987", "KPTS", "72043600142"], "source": "obs", "hours": null}], "stations": {"KJLN": {"distance": 251.0, "latitude": 37.15, "longitude": -94.5, "useCount": 0, "id": "KJLN", "name": "KJLN", "quality": 100, "contribution": 0.0}, "99999923908": {"distance": 31614.0, "latitude": 37.428, "longitude": -94.583, "useCount": 0, "id": "99999923908", "name": "JOPLIN 24 N, MO US", "quality": 100, "contribution": 0.0}, "72349513987": {"distance": 270.0, "latitude": 37.152, "longitude": -94.495, "useCount": 0, "id": "72349513987", "name": "JOPLIN REGIONAL AIRPORT, MO US", "quality": 100, "contribution": 0.0}, "KPTS": {"distance": 39024.0, "latitude": 37.45, "longitude": -94.73, "useCount": 0, "id": "KPTS", "name": "KPTS", "quality": 99, "contribution": 0.0}, "72043600142": {"distance": 39165.0, "latitude": 37.45, "longitude": -94.733, "useCount": 0, "id": "72043600142", "name": "ATKINSON MUNICIPAL AIRPORT, KS US", "quality": 100, "contribution": 0.0}}}