{"queryCost": 1, "latitude": 37.151798248291016, "longitude": -94.49829864501953, "resolvedAddress": "37.151798248291016, -94.49829864501953", "address": "37.151798248291016, -94.49829864501953", "timezone": "America/Chicago", "tzoffset": -6.0, "days": [{"datetime": "2020-01-04", "datetimeEpoch": 1578117600, "tempmax": 6.7, "tempmin": -2.1, "temp": 2.2, "feelslikemax": 4.5, "feelslikemin": -7.0, "feelslike": -1.4, "dew": -7.4, "humidity": 50.06, "precip": 0.0, "precipprob": null, "precipcover": 0.0, "preciptype": null, "snow": 0.0, "snowdepth": 0.0, "windgust": 27.7, "windspeed": 22.3, "winddir": 270.4, "pressure": 1024.2, "cloudcover": 13.2, "visibility": 16.0, "solarradiation": null, "solarenergy": null, "sunrise": "07:32:08", "sunriseEpoch": 1578144728, "sunset": "17:13:42", "sunsetEpoch": 1578179622, "moonphase": 0.31, "conditions": "Clear", "icon": "clear-day", "stations": ["KJLN", "99999923908", "72349513987", "KPTS", "72043600142"], "source": "obs", "hours": null}], "stations": {"KJLN": {"distance": 251.0, "latitude": 37.15, "longitude": -94.5, "useCount": 0, "id": "KJLN", "name": "KJLN", "quality": 100, "contribution": 0.0}, "99999923908": {"distance": 31614.0, "latitude": 37.428, "longitude": -94.583, "useCount": 0, "id": "99999923908", "name": "JOPLIN 24 N, MO US", "quality": 100, "contribution": 0.0}, "72349513987": {"distance": 270.0, "latitude": 37.152, "longitude": -94.495, "useCount": 0, "id": "72349513987", "name": "JOPLIN REGIONAL AIRPORT, MO US", "quality": 100, "contribution": 0.0}, "KPTS": {"distance": 39024.0, "latitude": 37.45, "longitude": -94.73, "useCount": 0, "id": "KPTS", "name": "KPTS", "quality": 99, "contribution": 0.0}, "72043600142": {"distance": 39165.0, "latitude": 37.45, "longitude": -94.733, "useCount": 0, "id": "72043600142", "name": "ATKINSON MUNICIPAL AIRPORT, KS US", "quality": 100, "contribution": 0.0}}}