{"queryCost": 1, "latitude": 46.92969894, "longitude": -98.67819977, "resolvedAddress": "46.92969894, -98.67819977", "address": "46.92969894, -98.67819977", "timezone": "America/Chicago", "tzoffset": -6.0, "days": [{"datetime": "2020-01-05", "datetimeEpoch": 1578204000, "tempmax": 5.0, "tempmin": -3.9, "temp": -0.5, "feelslikemax": -0.6, "feelslikemin": -9.8, "feelslike": -7.2, "dew": -5.5, "humidity": 69.31, "precip": 0.0, "precipprob": null, "precipcover": 0.0, "preciptype": null, "snow": 0.0, "snowdepth": 72.58, "windgust": 85.3, "windspeed": 63.0, "winddir": 285.4, "pressure": 1014.9, "cloudcover": 14.1, "visibility": 16.0, "solarradiation": null, "solarenergy": null, "sunrise": "08:20:03", "sunriseEpoch": 1578234003, "sunset": "17:00:12", "sunsetEpoch": 1578265212, "moonphase": 0.36, "conditions": "Clear", "icon": "wind", "stations": ["72753514919", "KJMS", "72091100301", "99999954937", "72073700266"], "source": "obs", "hours": null}], "stations": {"72091100301": {"distance": 50201.0, "latitude": 46.942, "longitude": -98.018, "useCount": 0, "id": "72091100301", "name": "BARNES CO MUNICIPAL AIRPORT, ND US", "quality": 50, "contribution": 0.0}, "72753514919": {"distance": 817.0, "latitude": 46.926, "longitude": -98.669, "useCount": 0, "id": "72753514919", "name": "JAMESTOWN MUNICIPAL AIRPORT, ND US", "quality": 100, "contribution": 0.0}, "KJMS": {"distance": 141.0, "latitude": 46.93, "longitude": -98.68, "useCount": 0, "id": "KJMS", "name": "KJMS", "quality": 100, "contribution": 0.0}, "99999954937": {"distance": 63412.0, "latitude": 46.77, "longitude": -99.478, "useCount": 0, "id": "99999954937", "name": "JAMESTOWN 38 WSW, ND US", "quality": 100, "contribution": 0.0}, "72073700266": {"distance": 68168.0, "latitude": 47.451, "longitude": -99.151, "useCount": 0, "id": "72073700266", "name": "CARRINGTON MUNICIPAL AIRPORT, ND US", "quality": 50, "contribution": 0.0}}}