{"queryCost": 1, "latitude": 58.35499954223633, "longitude": -134.5760040283203, "resolvedAddress": "58.35499954223633, -134.5760040283203", "address": "58.35499954223633, -134.5760040283203", "timezone": "America/Juneau", "tzoffset": -9.0, "days": [{"datetime": "2020-01-05", "datetimeEpoch": 1578214800, "tempmax": -2.8, "tempmin": -8.9, "temp": -5.9, "feelslikemax": -2.8, "feelslikemin": -12.3, "feelslike": -8.1, "dew": -7.6, "humidity": 88.25, "precip": 0.25, "precipprob": null, "precipcover": 4.17, "preciptype": null, "snow": 1.43, "snowdepth": 3.52, "windgust": null, "windspeed": 16.6, "winddir": 173.8, "pressure": 1007.7, "cloudcover": 58.7, "visibility": 15.2, "solarradiation": 16.4, "solarenergy": 0.4, "sunrise": "08:44:32", "sunriseEpoch": 1578246272, "sunset": "15:23:04", "sunsetEpoch": 1578270184, "moonphase": 0.36, "conditions": "Snow, Partially cloudy", "icon": "snow", "stations": ["PAJN", "70381025309", "PAGS", "70367025322", "70260725378", "PAOH"], "source": "obs", "hours": null}], "stations": {"PAJN": {"distance": 1686.0, "latitude": 58.37, "longitude": -134.58, "useCount": 0, "id": "PAJN", "name": "JUNEAU INTL ARPT, AK", "quality": 100, "contribution": 0.0}, "70381025309": {"distance": 723.0, "latitude": 58.357, "longitude": -134.564, "useCount": 0, "id": "70381025309", "name": "JUNEAU AIRPORT, AK US", "quality": 100, "contribution": 0.0}, "PAGS": {"distance": 67723.0, "latitude": 58.42, "longitude": -135.73, "useCount": 0, "id": "PAGS", "name": "GUSTAVUS, AK", "quality": 100, "contribution": 0.0}, "70367025322": {"distance": 66413.0, "latitude": 58.411, "longitude": -135.709, "useCount": 0, "id": "70367025322", "name": "GUSTAVUS, AK US", "quality": 99, "contribution": 0.0}, "70260725378": {"distance": 56694.0, "latitude": 58.096, "longitude": -135.409, "useCount": 0, "id": "70260725378", "name": "HOONAH SEAPLANE BASE, AK US", "quality": 80, "contribution": 0.0}, "PAOH": {"distance": 57509.0, "latitude": 58.12, "longitude": -135.45, "useCount": 0, "id": "PAOH", "name": "HOONAH SEAPLANE, AK", "quality": 81, "contribution": 0.0}}}