{"queryCost": 1, "latitude": 58.35499954223633, "longitude": -134.5760040283203, "resolvedAddress": "58.35499954223633, -134.5760040283203", "address": "58.35499954223633, -134.5760040283203", "timezone": "America/Juneau", "tzoffset": -9.0, "days": [{"datetime": "2019-12-17", "datetimeEpoch": 1576573200, "tempmax": 2.8, "tempmin": 0.0, "temp": 1.4, "feelslikemax": 1.1, "feelslikemin": -4.7, "feelslike": -1.6, "dew": 0.1, "humidity": 91.16, "precip": 2.75, "precipprob": null, "precipcover": 37.5, "preciptype": null, "snow": 1.68, "snowdepth": 5.14, "windgust": 35.3, "windspeed": 27.7, "winddir": 147.9, "pressure": 997.9, "cloudcover": 80.8, "visibility": 11.5, "solarradiation": 17.8, "solarenergy": 0.5, "sunrise": "08:42:55", "sunriseEpoch": 1576604575, "sunset": "15:05:55", "sunsetEpoch": 1576627555, "moonphase": 0.66, "conditions": "Snow, Overcast", "icon": "snow", "stations": ["PAJN", "70381025309", "PAGS", "70367025322", "70260725378", "PAOH"], "source": "obs", "hours": null}], "stations": {"PAJN": {"distance": 1686.0, "latitude": 58.37, "longitude": -134.58, "useCount": 0, "id": "PAJN", "name": "JUNEAU INTL ARPT, AK", "quality": 100, "contribution": 0.0}, "70381025309": {"distance": 723.0, "latitude": 58.357, "longitude": -134.564, "useCount": 0, "id": "70381025309", "name": "JUNEAU AIRPORT, AK US", "quality": 100, "contribution": 0.0}, "PAGS": {"distance": 67723.0, "latitude": 58.42, "longitude": -135.73, "useCount": 0, "id": "PAGS", "name": "GUSTAVUS, AK", "quality": 100, "contribution": 0.0}, "70367025322": {"distance": 66413.0, "latitude": 58.411, "longitude": -135.709, "useCount": 0, "id": "70367025322", "name": "GUSTAVUS, AK US", "quality": 99, "contribution": 0.0}, "70260725378": {"distance": 56694.0, "latitude": 58.096, "longitude": -135.409, "useCount": 0, "id": "70260725378", "name": "HOONAH SEAPLANE BASE, AK US", "quality": 80, "contribution": 0.0}, "PAOH": {"distance": 57509.0, "latitude": 58.12, "longitude": -135.45, "useCount": 0, "id": "PAOH", "name": "HOONAH SEAPLANE, AK", "quality": 81, "contribution": 0.0}}}