{"queryCost": 1, "latitude": 58.35499954223633, "longitude": -134.5760040283203, "resolvedAddress": "58.35499954223633, -134.5760040283203", "address": "58.35499954223633, -134.5760040283203", "timezone": "America/Juneau", "tzoffset": -9.0, "days": [{"datetime": "2020-01-01", "datetimeEpoch": 1577869200, "tempmax": 5.7, "tempmin": -1.2, "temp": 2.6, "feelslikemax": 2.2, "feelslikemin": -4.5, "feelslike": -0.5, "dew": -0.3, "humidity": 81.76, "precip": 14.78, "precipprob": null, "precipcover": 58.33, "preciptype": null, "snow": 1.96, "snowdepth": 26.04, "windgust": 53.6, "windspeed": 35.3, "winddir": 208.8, "pressure": 992.8, "cloudcover": 85.9, "visibility": 15.1, "solarradiation": 17.7, "solarenergy": 0.4, "sunrise": "08:46:36", "sunriseEpoch": 1577900796, "sunset": "15:17:15", "sunsetEpoch": 1577924235, "moonphase": 0.17, "conditions": "Snow, Overcast", "icon": "snow", "stations": ["PAJN", "70381025309", "PAGS", "70367025322", "70260725378", "PAOH"], "source": "obs", "hours": null}], "stations": {"PAJN": {"distance": 1686.0, "latitude": 58.37, "longitude": -134.58, "useCount": 0, "id": "PAJN", "name": "JUNEAU INTL ARPT, AK", "quality": 100, "contribution": 0.0}, "70381025309": {"distance": 723.0, "latitude": 58.357, "longitude": -134.564, "useCount": 0, "id": "70381025309", "name": "JUNEAU AIRPORT, AK US", "quality": 100, "contribution": 0.0}, "PAGS": {"distance": 67723.0, "latitude": 58.42, "longitude": -135.73, "useCount": 0, "id": "PAGS", "name": "GUSTAVUS, AK", "quality": 100, "contribution": 0.0}, "70367025322": {"distance": 66413.0, "latitude": 58.411, "longitude": -135.709, "useCount": 0, "id": "70367025322", "name": "GUSTAVUS, AK US", "quality": 99, "contribution": 0.0}, "70260725378": {"distance": 56694.0, "latitude": 58.096, "longitude": -135.409, "useCount": 0, "id": "70260725378", "name": "HOONAH SEAPLANE BASE, AK US", "quality": 80, "contribution": 0.0}, "PAOH": {"distance": 57509.0, "latitude": 58.12, "longitude": -135.45, "useCount": 0, "id": "PAOH", "name": "HOONAH SEAPLANE, AK", "quality": 81, "contribution": 0.0}}}