{"queryCost": 1, "latitude": 58.35499954223633, "longitude": -134.5760040283203, "resolvedAddress": "58.35499954223633, -134.5760040283203", "address": "58.35499954223633, -134.5760040283203", "timezone": "America/Juneau", "tzoffset": -9.0, "days": [{"datetime": "2020-01-06", "datetimeEpoch": 1578301200, "tempmax": -0.6, "tempmin": -2.8, "temp": -1.5, "feelslikemax": -5.5, "feelslikemin": -9.6, "feelslike": -7.4, "dew": -3.6, "humidity": 85.37, "precip": 2.8, "precipprob": null, "precipcover": 45.83, "preciptype": null, "snow": 4.58, "snowdepth": 8.12, "windgust": null, "windspeed": 33.5, "winddir": 93.7, "pressure": 1014.7, "cloudcover": 89.5, "visibility": 10.0, "solarradiation": 17.5, "solarenergy": 0.3, "sunrise": "08:43:50", "sunriseEpoch": 1578332630, "sunset": "15:24:41", "sunsetEpoch": 1578356681, "moonphase": 0.4, "conditions": "Snow, Overcast", "icon": "snow", "stations": ["PAJN", "70381025309", "PAGS", "70367025322", "70260725378", "PAOH"], "source": "obs", "hours": null}], "stations": {"PAJN": {"distance": 1686.0, "latitude": 58.37, "longitude": -134.58, "useCount": 0, "id": "PAJN", "name": "JUNEAU INTL ARPT, AK", "quality": 100, "contribution": 0.0}, "70381025309": {"distance": 723.0, "latitude": 58.357, "longitude": -134.564, "useCount": 0, "id": "70381025309", "name": "JUNEAU AIRPORT, AK US", "quality": 100, "contribution": 0.0}, "PAGS": {"distance": 67723.0, "latitude": 58.42, "longitude": -135.73, "useCount": 0, "id": "PAGS", "name": "GUSTAVUS, AK", "quality": 100, "contribution": 0.0}, "70367025322": {"distance": 66413.0, "latitude": 58.411, "longitude": -135.709, "useCount": 0, "id": "70367025322", "name": "GUSTAVUS, AK US", "quality": 99, "contribution": 0.0}, "70260725378": {"distance": 56694.0, "latitude": 58.096, "longitude": -135.409, "useCount": 0, "id": "70260725378", "name": "HOONAH SEAPLANE BASE, AK US", "quality": 80, "contribution": 0.0}, "PAOH": {"distance": 57509.0, "latitude": 58.12, "longitude": -135.45, "useCount": 0, "id": "PAOH", "name": "HOONAH SEAPLANE, AK", "quality": 81, "contribution": 0.0}}}