{"queryCost": 1, "latitude": 55.35559845, "longitude": -131.7140045, "resolvedAddress": "55.35559845, -131.7140045", "address": "55.35559845, -131.7140045", "timezone": "America/Sitka", "tzoffset": -9.0, "days": [{"datetime": "2020-01-07", "datetimeEpoch": 1578387600, "tempmax": 0.0, "tempmin": -4.0, "temp": -2.2, "feelslikemax": -2.4, "feelslikemin": -9.8, "feelslike": -5.9, "dew": -4.6, "humidity": 84.01, "precip": 0.0, "precipprob": null, "precipcover": 0.0, "preciptype": null, "snow": 3.13, "snowdepth": 26.13, "windgust": 27.7, "windspeed": 23.5, "winddir": 291.8, "pressure": 1008.9, "cloudcover": 1.0, "visibility": 15.8, "solarradiation": null, "solarenergy": null, "uvindex": 0.0, "sunrise": "08:11:31", "sunriseEpoch": 1578417091, "sunset": "15:34:56", "sunsetEpoch": 1578443696, "moonphase": 0.44, "conditions": "Clear", "description": "Clear conditions.", "icon": "snow", "stations": ["70395025325", "PAMM", "70398525377", "99825899999", "PAKT", "99999925381"], "source": "obs", "hours": null}], "stations": {"70395025325": {"distance": 4098.0, "latitude": 55.35, "longitude": -131.65, "useCount": 0, "id": "70395025325", "name": "KETCHIKAN AIRPORT, AK US", "quality": 99, "contribution": 0.0}, "PAMM": {"distance": 38413.0, "latitude": 55.08, "longitude": -131.35, "useCount": 0, "id": "PAMM", "name": "METLAKATLA, AK", "quality": 91, "contribution": 0.0}, "70398525377": {"distance": 26450.0, "latitude": 55.131, "longitude": -131.578, "useCount": 0, "id": "70398525377", "name": "METLAKATLA SEAPLANE BASE, AK US", "quality": 90, "contribution": 0.0}, "99825899999": {"distance": 6170.0, "latitude": 55.333, "longitude": -131.625, "useCount": 0, "id": "99825899999", "name": "KETCHIKAN, AK US", "quality": 49, "contribution": 0.0}, "PAKT": {"distance": 1083.0, "latitude": 55.35, "longitude": -131.7, "useCount": 0, "id": "PAKT", "name": "KETCHIKAN INTL ARPT, AK", "quality": 100, "contribution": 0.0}, "99999925381": {"distance": 35436.0, "latitude": 55.046, "longitude": -131.588, "useCount": 0, "id": "99999925381", "name": "METLAKATLA 6 S, AK US", "quality": 100, "contribution": 0.0}}}