{"queryCost": 1, "latitude": 55.35559845, "longitude": -131.7140045, "resolvedAddress": "55.35559845, -131.7140045", "address": "55.35559845, -131.7140045", "timezone": "America/Sitka", "tzoffset": -9.0, "days": [{"datetime": "2020-01-06", "datetimeEpoch": 1578301200, "tempmax": 2.9, "tempmin": -6.0, "temp": -1.9, "feelslikemax": 2.9, "feelslikemin": -9.7, "feelslike": -3.7, "dew": -2.4, "humidity": 96.5, "precip": 2.22, "precipprob": null, "precipcover": 25.0, "preciptype": null, "snow": 0.7, "snowdepth": 25.0, "windgust": 18.4, "windspeed": 16.1, "winddir": 171.3, "pressure": 1017.2, "cloudcover": 41.8, "visibility": 14.1, "solarradiation": null, "solarenergy": null, "sunrise": "08:12:06", "sunriseEpoch": 1578330726, "sunset": "15:33:29", "sunsetEpoch": 1578357209, "moonphase": 0.4, "conditions": "Snow, Partially cloudy", "icon": "snow", "stations": ["70395025325", "PAMM", "70398525377", "99825899999", "PAKT", "99999925381"], "source": "obs", "hours": null}], "stations": {"70395025325": {"distance": 4098.0, "latitude": 55.35, "longitude": -131.65, "useCount": 0, "id": "70395025325", "name": "KETCHIKAN AIRPORT, AK US", "quality": 99, "contribution": 0.0}, "PAMM": {"distance": 38413.0, "latitude": 55.08, "longitude": -131.35, "useCount": 0, "id": "PAMM", "name": "METLAKATLA, AK", "quality": 91, "contribution": 0.0}, "70398525377": {"distance": 26450.0, "latitude": 55.131, "longitude": -131.578, "useCount": 0, "id": "70398525377", "name": "METLAKATLA SEAPLANE BASE, AK US", "quality": 90, "contribution": 0.0}, "99825899999": {"distance": 6170.0, "latitude": 55.333, "longitude": -131.625, "useCount": 0, "id": "99825899999", "name": "KETCHIKAN, AK US", "quality": 49, "contribution": 0.0}, "PAKT": {"distance": 1083.0, "latitude": 55.35, "longitude": -131.7, "useCount": 0, "id": "PAKT", "name": "KETCHIKAN INTL ARPT, AK", "quality": 100, "contribution": 0.0}, "99999925381": {"distance": 35436.0, "latitude": 55.046, "longitude": -131.588, "useCount": 0, "id": "99999925381", "name": "METLAKATLA 6 S, AK US", "quality": 100, "contribution": 0.0}}}