{"queryCost": 1, "latitude": 55.35559845, "longitude": -131.7140045, "resolvedAddress": "55.35559845, -131.7140045", "address": "55.35559845, -131.7140045", "timezone": "America/Sitka", "tzoffset": -9.0, "days": [{"datetime": "2020-01-03", "datetimeEpoch": 1578042000, "tempmax": 0.7, "tempmin": -1.1, "temp": -0.2, "feelslikemax": 0.6, "feelslikemin": -6.1, "feelslike": -3.8, "dew": -2.5, "humidity": 85.31, "precip": 14.51, "precipprob": null, "precipcover": 58.33, "preciptype": null, "snow": 9.59, "snowdepth": 22.38, "windgust": 35.3, "windspeed": 25.7, "winddir": 302.0, "pressure": 986.8, "cloudcover": 66.3, "visibility": 8.0, "solarradiation": null, "solarenergy": null, "sunrise": "08:13:27", "sunriseEpoch": 1578071607, "sunset": "15:29:23", "sunsetEpoch": 1578097763, "moonphase": 0.26, "conditions": "Snow, Partially cloudy", "icon": "snow", "stations": ["70395025325", "PAMM", "70398525377", "99825899999", "PAKT", "99999925381"], "source": "obs", "hours": null}], "stations": {"70395025325": {"distance": 4098.0, "latitude": 55.35, "longitude": -131.65, "useCount": 0, "id": "70395025325", "name": "KETCHIKAN AIRPORT, AK US", "quality": 99, "contribution": 0.0}, "PAMM": {"distance": 38413.0, "latitude": 55.08, "longitude": -131.35, "useCount": 0, "id": "PAMM", "name": "METLAKATLA, AK", "quality": 91, "contribution": 0.0}, "70398525377": {"distance": 26450.0, "latitude": 55.131, "longitude": -131.578, "useCount": 0, "id": "70398525377", "name": "METLAKATLA SEAPLANE BASE, AK US", "quality": 90, "contribution": 0.0}, "99825899999": {"distance": 6170.0, "latitude": 55.333, "longitude": -131.625, "useCount": 0, "id": "99825899999", "name": "KETCHIKAN, AK US", "quality": 49, "contribution": 0.0}, "PAKT": {"distance": 1083.0, "latitude": 55.35, "longitude": -131.7, "useCount": 0, "id": "PAKT", "name": "KETCHIKAN INTL ARPT, AK", "quality": 100, "contribution": 0.0}, "99999925381": {"distance": 35436.0, "latitude": 55.046, "longitude": -131.588, "useCount": 0, "id": "99999925381", "name": "METLAKATLA 6 S, AK US", "quality": 100, "contribution": 0.0}}}