{"queryCost": 1, "latitude": 42.77870178222656, "longitude": -84.58740234375, "resolvedAddress": "42.77870178222656, -84.58740234375", "address": "42.77870178222656, -84.58740234375", "timezone": "America/Detroit", "tzoffset": -4.0, "days": [{"datetime": "2018-04-02", "datetimeEpoch": 1522641600, "tempmax": 5.7, "tempmin": -6.7, "temp": 0.0, "feelslikemax": 4.7, "feelslikemin": -6.7, "feelslike": -1.8, "dew": -8.4, "humidity": 55.38, "precip": 0.0, "precipprob": null, "precipcover": 0.0, "preciptype": null, "snow": 0.0, "snowdepth": 0.0, "windgust": 25.9, "windspeed": 18.3, "winddir": 256.3, "pressure": 1019.5, "cloudcover": 8.3, "visibility": 16.0, "solarradiation": 342.4, "solarenergy": 17.3, "sunrise": "07:18:40", "sunriseEpoch": 1522667920, "sunset": "20:05:46", "sunsetEpoch": 1522713946, "moonphase": 0.53, "conditions": "Clear", "icon": "clear-day", "stations": ["72539014836", "A0735900240", "72028404877", "KY70", "KFPK", "KLAN"], "source": "obs", "hours": null}], "stations": {"72539014836": {"distance": 1046.0, "latitude": 42.776, "longitude": -84.6, "useCount": 0, "id": "72539014836", "name": "LANSING CAPITAL CITY AIRPORT, MI US", "quality": 100, "contribution": 0.0}, "A0735900240": {"distance": 42520.0, "latitude": 42.938, "longitude": -85.061, "useCount": 0, "id": "A0735900240", "name": "IONIA CO AIRPORT, MI US", "quality": 100, "contribution": 0.0}, "72028404877": {"distance": 29211.0, "latitude": 42.574, "longitude": -84.811, "useCount": 0, "id": "72028404877", "name": "CHARLOTTE FITCH H BEACH AIRPORT, MI US", "quality": 100, "contribution": 0.0}, "KY70": {"distance": 42539.0, "latitude": 42.94, "longitude": -85.06, "useCount": 0, "id": "KY70", "name": "KY70", "quality": 100, "contribution": 0.0}, "KFPK": {"distance": 29524.0, "latitude": 42.57, "longitude": -84.81, "useCount": 0, "id": "KFPK", "name": "KFPK", "quality": 100, "contribution": 0.0}, "KLAN": {"distance": 1413.0, "latitude": 42.77, "longitude": -84.6, "useCount": 0, "id": "KLAN", "name": "KLAN", "quality": 100, "contribution": 0.0}}}