{"queryCost": 1, "latitude": 41.31209945678711, "longitude": -105.67500305175781, "resolvedAddress": "41.31209945678711, -105.67500305175781", "address": "41.31209945678711, -105.67500305175781", "timezone": "America/Denver", "tzoffset": -7.0, "days": [{"datetime": "2020-01-03", "datetimeEpoch": 1578034800, "tempmax": 0.7, "tempmin": -11.1, "temp": -4.8, "feelslikemax": -6.1, "feelslikemin": -18.3, "feelslike": -11.6, "dew": -10.8, "humidity": 62.99, "precip": 0.0, "precipprob": null, "precipcover": 0.0, "preciptype": null, "snow": 0.0, "snowdepth": 0.0, "windgust": 57.6, "windspeed": 48.2, "winddir": 264.6, "pressure": 1020.0, "cloudcover": 9.0, "visibility": 16.0, "solarradiation": null, "solarenergy": null, "sunrise": "07:28:49", "sunriseEpoch": 1578061729, "sunset": "16:45:33", "sunsetEpoch": 1578095133, "moonphase": 0.26, "conditions": "Clear", "icon": "wind", "stations": ["KLAR", "KCYS", "72061999999", "72564524022", "72564024018", "KFEW"], "source": "obs", "hours": null}], "stations": {"KLAR": {"distance": 974.0, "latitude": 41.32, "longitude": -105.67, "useCount": 0, "id": "KLAR", "name": "KLAR", "quality": 100, "contribution": 0.0}, "KCYS": {"distance": 73819.0, "latitude": 41.15, "longitude": -104.82, "useCount": 0, "id": "KCYS", "name": "KCYS", "quality": 100, "contribution": 0.0}, "72061999999": {"distance": 70520.0, "latitude": 41.133, "longitude": -104.867, "useCount": 0, "id": "72061999999", "name": "FRANCIS E WARREN AFB HELIPORT, WY US", "quality": 95, "contribution": 0.0}, "72564524022": {"distance": 842.0, "latitude": 41.317, "longitude": -105.683, "useCount": 0, "id": "72564524022", "name": "LARAMIE AIRPORT, WY US", "quality": 99, "contribution": 0.0}, "72564024018": {"distance": 74666.0, "latitude": 41.158, "longitude": -104.807, "useCount": 0, "id": "72564024018", "name": "CHEYENNE WSFO AIRPORT, WY US", "quality": 100, "contribution": 0.0}, "KFEW": {"distance": 69767.0, "latitude": 41.15, "longitude": -104.87, "useCount": 0, "id": "KFEW", "name": "KFEW", "quality": 100, "contribution": 0.0}}}