{"queryCost": 1, "latitude": 41.31209945678711, "longitude": -105.67500305175781, "resolvedAddress": "41.31209945678711, -105.67500305175781", "address": "41.31209945678711, -105.67500305175781", "timezone": "America/Denver", "tzoffset": -7.0, "days": [{"datetime": "2020-01-06", "datetimeEpoch": 1578294000, "tempmax": -2.8, "tempmin": -8.3, "temp": -5.8, "feelslikemax": -9.1, "feelslikemin": -18.4, "feelslike": -14.7, "dew": -12.6, "humidity": 58.9, "precip": 0.0, "precipprob": null, "precipcover": 0.0, "preciptype": null, "snow": 0.0, "snowdepth": 0.0, "windgust": 90.7, "windspeed": 64.8, "winddir": 263.8, "pressure": 1024.0, "cloudcover": 20.6, "visibility": 15.7, "solarradiation": null, "solarenergy": null, "sunrise": "07:28:45", "sunriseEpoch": 1578320925, "sunset": "16:48:21", "sunsetEpoch": 1578354501, "moonphase": 0.4, "conditions": "Clear", "icon": "wind", "stations": ["KLAR", "KCYS", "72061999999", "72564524022", "72564024018", "KFEW"], "source": "obs", "hours": null}], "stations": {"KLAR": {"distance": 974.0, "latitude": 41.32, "longitude": -105.67, "useCount": 0, "id": "KLAR", "name": "KLAR", "quality": 100, "contribution": 0.0}, "KCYS": {"distance": 73819.0, "latitude": 41.15, "longitude": -104.82, "useCount": 0, "id": "KCYS", "name": "KCYS", "quality": 100, "contribution": 0.0}, "72061999999": {"distance": 70520.0, "latitude": 41.133, "longitude": -104.867, "useCount": 0, "id": "72061999999", "name": "FRANCIS E WARREN AFB HELIPORT, WY US", "quality": 95, "contribution": 0.0}, "72564524022": {"distance": 842.0, "latitude": 41.317, "longitude": -105.683, "useCount": 0, "id": "72564524022", "name": "LARAMIE AIRPORT, WY US", "quality": 99, "contribution": 0.0}, "72564024018": {"distance": 74666.0, "latitude": 41.158, "longitude": -104.807, "useCount": 0, "id": "72564024018", "name": "CHEYENNE WSFO AIRPORT, WY US", "quality": 100, "contribution": 0.0}, "KFEW": {"distance": 69767.0, "latitude": 41.15, "longitude": -104.87, "useCount": 0, "id": "KFEW", "name": "KFEW", "quality": 100, "contribution": 0.0}}}