{"queryCost": 1, "latitude": 36.08010101, "longitude": -115.1520004, "resolvedAddress": "36.08010101, -115.1520004", "address": "36.08010101, -115.1520004", "timezone": "America/Los_Angeles", "tzoffset": -8.0, "days": [{"datetime": "2020-01-04", "datetimeEpoch": 1578124800, "tempmax": 14.3, "tempmin": 3.8, "temp": 9.0, "feelslikemax": 14.3, "feelslikemin": 1.1, "feelslike": 8.3, "dew": -0.7, "humidity": 52.52, "precip": 0.0, "precipprob": null, "precipcover": 0.0, "preciptype": null, "snow": 0.0, "snowdepth": 0.0, "windgust": null, "windspeed": 11.1, "winddir": 170.9, "pressure": 1027.2, "cloudcover": 87.9, "visibility": 16.0, "solarradiation": 308.5, "solarenergy": 12.2, "sunrise": "06:51:54", "sunriseEpoch": 1578149514, "sunset": "16:39:13", "sunsetEpoch": 1578184753, "moonphase": 0.31, "conditions": "Overcast", "icon": "cloudy", "stations": ["KLAS", "74614023112", "KLSV", "72386023169", "KVGT", "72484653123"], "source": "obs", "hours": null}], "stations": {"KLAS": {"distance": 1619.0, "latitude": 36.08, "longitude": -115.17, "useCount": 0, "id": "KLAS", "name": "KLAS", "quality": 100, "contribution": 0.0}, "74614023112": {"distance": 21727.0, "latitude": 36.25, "longitude": -115.033, "useCount": 0, "id": "74614023112", "name": "LAS VEGAS NELLIS AFB, NV US", "quality": 96, "contribution": 0.0}, "KLSV": {"distance": 19047.0, "latitude": 36.22, "longitude": -115.03, "useCount": 0, "id": "KLSV", "name": "KLSV", "quality": 99, "contribution": 0.0}, "72386023169": {"distance": 1346.0, "latitude": 36.072, "longitude": -115.163, "useCount": 0, "id": "72386023169", "name": "MCCARRAN INTERNATIONAL AIRPORT, NV US", "quality": 100, "contribution": 0.0}, "KVGT": {"distance": 15090.0, "latitude": 36.21, "longitude": -115.2, "useCount": 0, "id": "KVGT", "name": "KVGT", "quality": 100, "contribution": 0.0}, "72484653123": {"distance": 15174.0, "latitude": 36.212, "longitude": -115.196, "useCount": 0, "id": "72484653123", "name": "LAS VEGAS AIR TERMINAL, NV US", "quality": 100, "contribution": 0.0}}}