{"queryCost": 1, "latitude": 36.08010101, "longitude": -115.1520004, "resolvedAddress": "36.08010101, -115.1520004", "address": "36.08010101, -115.1520004", "timezone": "America/Los_Angeles", "tzoffset": -7.0, "days": [{"datetime": "2019-04-24", "datetimeEpoch": 1556089200, "tempmax": 32.8, "tempmin": 18.4, "temp": 26.4, "feelslikemax": 30.5, "feelslikemin": 18.4, "feelslike": 25.4, "dew": 1.8, "humidity": 21.31, "precip": 0.0, "precipprob": null, "precipcover": 0.0, "preciptype": null, "snow": 0.0, "snowdepth": 0.0, "windgust": 31.7, "windspeed": 12.9, "winddir": 184.4, "pressure": 1011.2, "cloudcover": 10.4, "visibility": 16.0, "solarradiation": 505.4, "solarenergy": 25.5, "sunrise": "05:56:06", "sunriseEpoch": 1556110566, "sunset": "19:21:57", "sunsetEpoch": 1556158917, "moonphase": 0.64, "conditions": "Clear", "icon": "clear-day", "stations": ["KLAS", "74614023112", "KLSV", "72386023169", "KVGT", "72484653123"], "source": "obs", "hours": null}], "stations": {"KLAS": {"distance": 1619.0, "latitude": 36.08, "longitude": -115.17, "useCount": 0, "id": "KLAS", "name": "KLAS", "quality": 100, "contribution": 0.0}, "74614023112": {"distance": 21727.0, "latitude": 36.25, "longitude": -115.033, "useCount": 0, "id": "74614023112", "name": "LAS VEGAS NELLIS AFB, NV US", "quality": 96, "contribution": 0.0}, "KLSV": {"distance": 19047.0, "latitude": 36.22, "longitude": -115.03, "useCount": 0, "id": "KLSV", "name": "KLSV", "quality": 99, "contribution": 0.0}, "72386023169": {"distance": 1346.0, "latitude": 36.072, "longitude": -115.163, "useCount": 0, "id": "72386023169", "name": "MCCARRAN INTERNATIONAL AIRPORT, NV US", "quality": 100, "contribution": 0.0}, "KVGT": {"distance": 15090.0, "latitude": 36.21, "longitude": -115.2, "useCount": 0, "id": "KVGT", "name": "KVGT", "quality": 100, "contribution": 0.0}, "72484653123": {"distance": 15174.0, "latitude": 36.212, "longitude": -115.196, "useCount": 0, "id": "72484653123", "name": "LAS VEGAS AIR TERMINAL, NV US", "quality": 100, "contribution": 0.0}}}