{"queryCost": 1, "latitude": 36.08010101, "longitude": -115.1520004, "resolvedAddress": "36.08010101, -115.1520004", "address": "36.08010101, -115.1520004", "timezone": "America/Los_Angeles", "tzoffset": -7.0, "days": [{"datetime": "2018-07-17", "datetimeEpoch": 1531810800, "tempmax": 42.8, "tempmin": 32.1, "temp": 37.8, "feelslikemax": 42.5, "feelslikemin": 31.8, "feelslike": 37.3, "dew": 13.5, "humidity": 24.26, "precip": 0.0, "precipprob": null, "precipcover": 0.0, "preciptype": null, "snow": 0.0, "snowdepth": 0.0, "windgust": 66.1, "windspeed": 53.5, "winddir": 119.3, "pressure": 1009.0, "cloudcover": 58.6, "visibility": 15.9, "solarradiation": 494.3, "solarenergy": 26.7, "sunrise": "05:36:42", "sunriseEpoch": 1531831002, "sunset": "19:56:33", "sunsetEpoch": 1531882593, "moonphase": 0.13, "conditions": "Partially cloudy", "icon": "wind", "stations": ["KLAS", "74614023112", "KLSV", "72386023169", "KVGT", "72484653123"], "source": "obs", "hours": null}], "stations": {"KLAS": {"distance": 1619.0, "latitude": 36.08, "longitude": -115.17, "useCount": 0, "id": "KLAS", "name": "KLAS", "quality": 100, "contribution": 0.0}, "74614023112": {"distance": 21727.0, "latitude": 36.25, "longitude": -115.033, "useCount": 0, "id": "74614023112", "name": "LAS VEGAS NELLIS AFB, NV US", "quality": 96, "contribution": 0.0}, "KLSV": {"distance": 19047.0, "latitude": 36.22, "longitude": -115.03, "useCount": 0, "id": "KLSV", "name": "KLSV", "quality": 99, "contribution": 0.0}, "72386023169": {"distance": 1346.0, "latitude": 36.072, "longitude": -115.163, "useCount": 0, "id": "72386023169", "name": "MCCARRAN INTERNATIONAL AIRPORT, NV US", "quality": 100, "contribution": 0.0}, "KVGT": {"distance": 15090.0, "latitude": 36.21, "longitude": -115.2, "useCount": 0, "id": "KVGT", "name": "KVGT", "quality": 100, "contribution": 0.0}, "72484653123": {"distance": 15174.0, "latitude": 36.212, "longitude": -115.196, "useCount": 0, "id": "72484653123", "name": "LAS VEGAS AIR TERMINAL, NV US", "quality": 100, "contribution": 0.0}}}