{"queryCost": 1, "latitude": 36.08010101, "longitude": -115.1520004, "resolvedAddress": "36.08010101, -115.1520004", "address": "36.08010101, -115.1520004", "timezone": "America/Los_Angeles", "tzoffset": -8.0, "days": [{"datetime": "2019-12-27", "datetimeEpoch": 1577433600, "tempmax": 11.2, "tempmin": 5.0, "temp": 8.1, "feelslikemax": 11.2, "feelslikemin": 2.5, "feelslike": 6.6, "dew": -0.5, "humidity": 59.13, "precip": 1.09, "precipprob": null, "precipcover": 12.5, "preciptype": null, "snow": 0.0, "snowdepth": 0.0, "windgust": 38.9, "windspeed": 29.4, "winddir": 223.4, "pressure": 1012.3, "cloudcover": 48.9, "visibility": 15.8, "solarradiation": 201.9, "solarenergy": 8.0, "sunrise": "06:50:12", "sunriseEpoch": 1577458212, "sunset": "16:33:14", "sunsetEpoch": 1577493194, "moonphase": 0.01, "conditions": "Rain, Partially cloudy", "icon": "rain", "stations": ["KLAS", "74614023112", "KLSV", "72386023169", "72484653123"], "source": "obs", "hours": null}], "stations": {"KLAS": {"distance": 1619.0, "latitude": 36.08, "longitude": -115.17, "useCount": 0, "id": "KLAS", "name": "KLAS", "quality": 100, "contribution": 0.0}, "72386023169": {"distance": 1346.0, "latitude": 36.072, "longitude": -115.163, "useCount": 0, "id": "72386023169", "name": "MCCARRAN INTERNATIONAL AIRPORT, NV US", "quality": 100, "contribution": 0.0}, "72484653123": {"distance": 15174.0, "latitude": 36.212, "longitude": -115.196, "useCount": 0, "id": "72484653123", "name": "LAS VEGAS AIR TERMINAL, NV US", "quality": 100, "contribution": 0.0}, "74614023112": {"distance": 21727.0, "latitude": 36.25, "longitude": -115.033, "useCount": 0, "id": "74614023112", "name": "LAS VEGAS NELLIS AFB, NV US", "quality": 96, "contribution": 0.0}, "KLSV": {"distance": 19047.0, "latitude": 36.22, "longitude": -115.03, "useCount": 0, "id": "KLSV", "name": "KLSV", "quality": 99, "contribution": 0.0}}}