{"queryCost": 1, "latitude": 34.5676994324, "longitude": -98.4166030884, "resolvedAddress": "34.5676994324, -98.4166030884", "address": "34.5676994324, -98.4166030884", "timezone": "America/Chicago", "tzoffset": -6.0, "days": [{"datetime": "2020-01-03", "datetimeEpoch": 1578031200, "tempmax": 15.6, "tempmin": 1.2, "temp": 8.1, "feelslikemax": 15.6, "feelslikemin": -1.0, "feelslike": 6.1, "dew": 0.2, "humidity": 60.42, "precip": 0.0, "precipprob": null, "precipcover": 0.0, "preciptype": null, "snow": 0.0, "snowdepth": 0.0, "windgust": 42.5, "windspeed": 31.7, "winddir": 335.8, "pressure": 1015.5, "cloudcover": 21.0, "visibility": 15.9, "solarradiation": 336.8, "solarenergy": 12.1, "sunrise": "07:40:57", "sunriseEpoch": 1578058857, "sunset": "17:35:18", "sunsetEpoch": 1578094518, "moonphase": 0.26, "conditions": "Clear", "icon": "wind", "stations": ["KFSI", "KLAW", "KDUC", "72357503950", "72355013945", "72207853938"], "source": "obs", "hours": null}], "stations": {"KFSI": {"distance": 9287.0, "latitude": 34.65, "longitude": -98.4, "useCount": 0, "id": "KFSI", "name": "KFSI", "quality": 100, "contribution": 0.0}, "KLAW": {"distance": 403.0, "latitude": 34.57, "longitude": -98.42, "useCount": 0, "id": "KLAW", "name": "KLAW", "quality": 100, "contribution": 0.0}, "KDUC": {"distance": 43269.0, "latitude": 34.47, "longitude": -97.96, "useCount": 0, "id": "KDUC", "name": "KDUC", "quality": 99, "contribution": 0.0}, "72357503950": {"distance": 1037.0, "latitude": 34.558, "longitude": -98.417, "useCount": 0, "id": "72357503950", "name": "LAWTON MUNICIPAL AIRPORT, OK US", "quality": 100, "contribution": 0.0}, "72355013945": {"distance": 9287.0, "latitude": 34.65, "longitude": -98.4, "useCount": 0, "id": "72355013945", "name": "FORT SILL POST FIELD AF, OK US", "quality": 97, "contribution": 0.0}, "72207853938": {"distance": 44064.0, "latitude": 34.471, "longitude": -97.951, "useCount": 0, "id": "72207853938", "name": "HALLIBURTON FIELD AIRPORT, OK US", "quality": 100, "contribution": 0.0}}}