{"queryCost": 1, "latitude": 33.942501, "longitude": -118.407997, "resolvedAddress": "33.942501, -118.407997", "address": "33.942501, -118.407997", "timezone": "America/Los_Angeles", "tzoffset": -8.0, "days": [{"datetime": "2019-11-17", "datetimeEpoch": 1573977600, "tempmax": 32.7, "tempmin": 13.3, "temp": 23.4, "feelslikemax": 30.3, "feelslikemin": 13.3, "feelslike": 22.7, "dew": 3.7, "humidity": 37.71, "precip": 0.0, "precipprob": null, "precipcover": 0.0, "preciptype": null, "snow": 0.0, "snowdepth": 0.0, "windgust": null, "windspeed": 15.9, "winddir": 178.5, "pressure": 1014.0, "cloudcover": 3.1, "visibility": 15.4, "solarradiation": 172.4, "solarenergy": 7.4, "sunrise": "06:27:49", "sunriseEpoch": 1574000869, "sunset": "16:49:01", "sunsetEpoch": 1574038141, "moonphase": 0.63, "conditions": "Clear", "icon": "clear-day", "stations": ["KHHR", "72288593197", "72295023174", "KSMO", "KLAX", "72295603167"], "source": "obs", "hours": null}], "stations": {"KHHR": {"distance": 7627.0, "latitude": 33.92, "longitude": -118.33, "useCount": 0, "id": "KHHR", "name": "KHHR", "quality": 100, "contribution": 0.0}, "72288593197": {"distance": 9074.0, "latitude": 34.016, "longitude": -118.451, "useCount": 0, "id": "72288593197", "name": "SANTA MONICA MUNICIPAL AIRPORT, CA US", "quality": 100, "contribution": 0.0}, "72295023174": {"distance": 1825.0, "latitude": 33.938, "longitude": -118.389, "useCount": 0, "id": "72295023174", "name": "LOS ANGELES INTERNATIONAL AIRPORT, CA US", "quality": 100, "contribution": 0.0}, "KSMO": {"distance": 9458.0, "latitude": 34.02, "longitude": -118.45, "useCount": 0, "id": "KSMO", "name": "KSMO", "quality": 97, "contribution": 0.0}, "KLAX": {"distance": 1575.0, "latitude": 33.93, "longitude": -118.4, "useCount": 0, "id": "KLAX", "name": "KLAX", "quality": 100, "contribution": 0.0}, "72295603167": {"distance": 7178.0, "latitude": 33.923, "longitude": -118.334, "useCount": 0, "id": "72295603167", "name": "HAWTHORNE MUNICIPAL AIRPORT, CA US", "quality": 100, "contribution": 0.0}}}