{"queryCost": 1, "latitude": 33.942501, "longitude": -118.407997, "resolvedAddress": "33.942501, -118.407997", "address": "33.942501, -118.407997", "timezone": "America/Los_Angeles", "tzoffset": -7.0, "days": [{"datetime": "2019-09-25", "datetimeEpoch": 1569394800, "tempmax": 28.2, "tempmin": 18.9, "temp": 23.0, "feelslikemax": 28.5, "feelslikemin": 18.9, "feelslike": 23.1, "dew": 17.2, "humidity": 70.99, "precip": 0.0, "precipprob": null, "precipcover": 0.0, "preciptype": null, "snow": 0.0, "snowdepth": 0.0, "windgust": 31.7, "windspeed": 19.6, "winddir": 133.3, "pressure": 1009.3, "cloudcover": 43.5, "visibility": 13.8, "solarradiation": 342.5, "solarenergy": 16.0, "sunrise": "06:43:40", "sunriseEpoch": 1569419020, "sunset": "18:46:27", "sunsetEpoch": 1569462387, "moonphase": 0.93, "conditions": "Partially cloudy", "icon": "partly-cloudy-day", "stations": ["KHHR", "72288593197", "72295023174", "KSMO", "KLAX", "72295603167"], "source": "obs", "hours": null}], "stations": {"KHHR": {"distance": 7627.0, "latitude": 33.92, "longitude": -118.33, "useCount": 0, "id": "KHHR", "name": "KHHR", "quality": 100, "contribution": 0.0}, "72288593197": {"distance": 9074.0, "latitude": 34.016, "longitude": -118.451, "useCount": 0, "id": "72288593197", "name": "SANTA MONICA MUNICIPAL AIRPORT, CA US", "quality": 100, "contribution": 0.0}, "72295023174": {"distance": 1825.0, "latitude": 33.938, "longitude": -118.389, "useCount": 0, "id": "72295023174", "name": "LOS ANGELES INTERNATIONAL AIRPORT, CA US", "quality": 100, "contribution": 0.0}, "KSMO": {"distance": 9458.0, "latitude": 34.02, "longitude": -118.45, "useCount": 0, "id": "KSMO", "name": "KSMO", "quality": 97, "contribution": 0.0}, "KLAX": {"distance": 1575.0, "latitude": 33.93, "longitude": -118.4, "useCount": 0, "id": "KLAX", "name": "KLAX", "quality": 100, "contribution": 0.0}, "72295603167": {"distance": 7178.0, "latitude": 33.923, "longitude": -118.334, "useCount": 0, "id": "72295603167", "name": "HAWTHORNE MUNICIPAL AIRPORT, CA US", "quality": 100, "contribution": 0.0}}}