{"queryCost": 1, "latitude": 33.942501, "longitude": -118.407997, "resolvedAddress": "33.942501, -118.407997", "address": "33.942501, -118.407997", "timezone": "America/Los_Angeles", "tzoffset": -7.0, "days": [{"datetime": "2019-04-03", "datetimeEpoch": 1554274800, "tempmax": 18.8, "tempmin": 14.4, "temp": 15.7, "feelslikemax": 18.8, "feelslikemin": 14.4, "feelslike": 15.7, "dew": 10.6, "humidity": 72.27, "precip": 0.0, "precipprob": null, "precipcover": 0.0, "preciptype": null, "snow": 0.0, "snowdepth": 0.0, "windgust": 35.3, "windspeed": 23.8, "winddir": 262.3, "pressure": 1017.3, "cloudcover": 53.3, "visibility": 15.5, "solarradiation": 462.1, "solarenergy": 21.6, "sunrise": "06:38:25", "sunriseEpoch": 1554298705, "sunset": "19:15:52", "sunsetEpoch": 1554344152, "moonphase": 0.99, "conditions": "Partially cloudy", "icon": "partly-cloudy-day", "stations": ["KHHR", "72288593197", "72295023174", "KSMO", "KLAX", "72295603167"], "source": "obs", "hours": null}], "stations": {"KHHR": {"distance": 7627.0, "latitude": 33.92, "longitude": -118.33, "useCount": 0, "id": "KHHR", "name": "KHHR", "quality": 100, "contribution": 0.0}, "72288593197": {"distance": 9074.0, "latitude": 34.016, "longitude": -118.451, "useCount": 0, "id": "72288593197", "name": "SANTA MONICA MUNICIPAL AIRPORT, CA US", "quality": 100, "contribution": 0.0}, "72295023174": {"distance": 1825.0, "latitude": 33.938, "longitude": -118.389, "useCount": 0, "id": "72295023174", "name": "LOS ANGELES INTERNATIONAL AIRPORT, CA US", "quality": 100, "contribution": 0.0}, "KSMO": {"distance": 9458.0, "latitude": 34.02, "longitude": -118.45, "useCount": 0, "id": "KSMO", "name": "KSMO", "quality": 97, "contribution": 0.0}, "KLAX": {"distance": 1575.0, "latitude": 33.93, "longitude": -118.4, "useCount": 0, "id": "KLAX", "name": "KLAX", "quality": 100, "contribution": 0.0}, "72295603167": {"distance": 7178.0, "latitude": 33.923, "longitude": -118.334, "useCount": 0, "id": "72295603167", "name": "HAWTHORNE MUNICIPAL AIRPORT, CA US", "quality": 100, "contribution": 0.0}}}