{"queryCost": 1, "latitude": 33.942501, "longitude": -118.407997, "resolvedAddress": "33.942501, -118.407997", "address": "33.942501, -118.407997", "timezone": "America/Los_Angeles", "tzoffset": -7.0, "days": [{"datetime": "2018-08-26", "datetimeEpoch": 1535266800, "tempmax": 24.4, "tempmin": 19.4, "temp": 21.8, "feelslikemax": 24.4, "feelslikemin": 19.4, "feelslike": 21.8, "dew": 16.9, "humidity": 74.2, "precip": 0.0, "precipprob": null, "precipcover": 0.0, "preciptype": null, "snow": 0.0, "snowdepth": 0.0, "windgust": 31.7, "windspeed": 27.2, "winddir": 225.5, "pressure": 1014.6, "cloudcover": 60.3, "visibility": 13.5, "solarradiation": null, "solarenergy": null, "sunrise": "06:23:07", "sunriseEpoch": 1535289787, "sunset": "19:27:04", "sunsetEpoch": 1535336824, "moonphase": 0.5, "conditions": "Partially cloudy", "icon": "partly-cloudy-day", "stations": ["KHHR", "72288593197", "72295023174", "KSMO", "KLAX", "72295603167"], "source": "obs", "hours": null}], "stations": {"KHHR": {"distance": 7627.0, "latitude": 33.92, "longitude": -118.33, "useCount": 0, "id": "KHHR", "name": "KHHR", "quality": 100, "contribution": 0.0}, "72288593197": {"distance": 9074.0, "latitude": 34.016, "longitude": -118.451, "useCount": 0, "id": "72288593197", "name": "SANTA MONICA MUNICIPAL AIRPORT, CA US", "quality": 100, "contribution": 0.0}, "72295023174": {"distance": 1825.0, "latitude": 33.938, "longitude": -118.389, "useCount": 0, "id": "72295023174", "name": "LOS ANGELES INTERNATIONAL AIRPORT, CA US", "quality": 100, "contribution": 0.0}, "KSMO": {"distance": 9458.0, "latitude": 34.02, "longitude": -118.45, "useCount": 0, "id": "KSMO", "name": "KSMO", "quality": 97, "contribution": 0.0}, "KLAX": {"distance": 1575.0, "latitude": 33.93, "longitude": -118.4, "useCount": 0, "id": "KLAX", "name": "KLAX", "quality": 100, "contribution": 0.0}, "72295603167": {"distance": 7178.0, "latitude": 33.923, "longitude": -118.334, "useCount": 0, "id": "72295603167", "name": "HAWTHORNE MUNICIPAL AIRPORT, CA US", "quality": 100, "contribution": 0.0}}}