{"queryCost": 1, "latitude": 33.81769943, "longitude": -118.1520004, "resolvedAddress": "33.81769943, -118.1520004", "address": "33.81769943, -118.1520004", "timezone": "America/Los_Angeles", "tzoffset": -8.0, "days": [{"datetime": "2018-01-14", "datetimeEpoch": 1515916800, "tempmax": 27.8, "tempmin": 14.4, "temp": 20.0, "feelslikemax": 26.6, "feelslikemin": 14.4, "feelslike": 19.9, "dew": 2.6, "humidity": 33.56, "precip": 0.0, "precipprob": null, "precipcover": 0.0, "preciptype": null, "snow": 0.0, "snowdepth": 0.0, "windgust": null, "windspeed": 11.2, "winddir": 184.9, "pressure": 1019.2, "cloudcover": 0.0, "visibility": 16.0, "solarradiation": 224.2, "solarenergy": 10.5, "sunrise": "06:57:40", "sunriseEpoch": 1515941860, "sunset": "17:06:06", "sunsetEpoch": 1515978366, "moonphase": 0.98, "conditions": "Clear", "icon": "clear-day", "stations": ["KFUL", "KHHR", "72295603167", "72297603166", "KLGB", "72297023129"], "source": "obs", "hours": null}], "stations": {"KFUL": {"distance": 16586.0, "latitude": 33.86, "longitude": -117.98, "useCount": 0, "id": "KFUL", "name": "KFUL", "quality": 100, "contribution": 0.0}, "KHHR": {"distance": 20009.0, "latitude": 33.92, "longitude": -118.33, "useCount": 0, "id": "KHHR", "name": "KHHR", "quality": 100, "contribution": 0.0}, "72295603167": {"distance": 20491.0, "latitude": 33.923, "longitude": -118.334, "useCount": 0, "id": "72295603167", "name": "HAWTHORNE MUNICIPAL AIRPORT, CA US", "quality": 100, "contribution": 0.0}, "72297603166": {"distance": 17095.0, "latitude": 33.872, "longitude": -117.979, "useCount": 0, "id": "72297603166", "name": "FULLERTON MUNICIPAL AIRPORT, CA US", "quality": 100, "contribution": 0.0}, "KLGB": {"distance": 316.0, "latitude": 33.82, "longitude": -118.15, "useCount": 0, "id": "KLGB", "name": "KLGB", "quality": 100, "contribution": 0.0}, "72297023129": {"distance": 877.0, "latitude": 33.812, "longitude": -118.146, "useCount": 0, "id": "72297023129", "name": "LONG BEACH DAUGHERTY AIRPORT, CA US", "quality": 100, "contribution": 0.0}}}