{"queryCost": 1, "latitude": 33.81769943, "longitude": -118.1520004, "resolvedAddress": "33.81769943, -118.1520004", "address": "33.81769943, -118.1520004", "timezone": "America/Los_Angeles", "tzoffset": -8.0, "days": [{"datetime": "2020-01-06", "datetimeEpoch": 1578297600, "tempmax": 25.7, "tempmin": 7.9, "temp": 15.7, "feelslikemax": 25.7, "feelslikemin": 6.2, "feelslike": 15.5, "dew": 0.0, "humidity": 42.8, "precip": 0.0, "precipprob": null, "precipcover": 0.0, "preciptype": null, "snow": 0.0, "snowdepth": 0.0, "windgust": 31.7, "windspeed": 22.3, "winddir": 225.4, "pressure": 1024.0, "cloudcover": 0.0, "visibility": 15.0, "solarradiation": 287.3, "solarenergy": 11.4, "sunrise": "06:58:20", "sunriseEpoch": 1578322700, "sunset": "16:58:35", "sunsetEpoch": 1578358715, "moonphase": 0.4, "conditions": "Clear", "icon": "clear-day", "stations": ["KFUL", "KHHR", "72295603167", "72297603166", "KLGB", "72297023129"], "source": "obs", "hours": null}], "stations": {"KFUL": {"distance": 16586.0, "latitude": 33.86, "longitude": -117.98, "useCount": 0, "id": "KFUL", "name": "KFUL", "quality": 100, "contribution": 0.0}, "KHHR": {"distance": 20009.0, "latitude": 33.92, "longitude": -118.33, "useCount": 0, "id": "KHHR", "name": "KHHR", "quality": 100, "contribution": 0.0}, "72295603167": {"distance": 20491.0, "latitude": 33.923, "longitude": -118.334, "useCount": 0, "id": "72295603167", "name": "HAWTHORNE MUNICIPAL AIRPORT, CA US", "quality": 100, "contribution": 0.0}, "72297603166": {"distance": 17095.0, "latitude": 33.872, "longitude": -117.979, "useCount": 0, "id": "72297603166", "name": "FULLERTON MUNICIPAL AIRPORT, CA US", "quality": 100, "contribution": 0.0}, "KLGB": {"distance": 316.0, "latitude": 33.82, "longitude": -118.15, "useCount": 0, "id": "KLGB", "name": "KLGB", "quality": 100, "contribution": 0.0}, "72297023129": {"distance": 877.0, "latitude": 33.812, "longitude": -118.146, "useCount": 0, "id": "72297023129", "name": "LONG BEACH DAUGHERTY AIRPORT, CA US", "quality": 100, "contribution": 0.0}}}