{"queryCost": 1, "latitude": 21.97599983215332, "longitude": -159.33900451660156, "resolvedAddress": "21.97599983215332, -159.33900451660156", "address": "21.97599983215332, -159.33900451660156", "timezone": "Pacific/Honolulu", "tzoffset": -10.0, "days": [{"datetime": "2018-12-06", "datetimeEpoch": 1544090400, "tempmax": 27.2, "tempmin": 23.8, "temp": 24.8, "feelslikemax": 27.8, "feelslikemin": 23.8, "feelslike": 24.9, "dew": 16.8, "humidity": 61.05, "precip": 0.3, "precipprob": null, "precipcover": 4.17, "preciptype": null, "snow": 0.0, "snowdepth": 0.0, "windgust": 31.7, "windspeed": 35.0, "winddir": 48.1, "pressure": 1017.7, "cloudcover": 49.0, "visibility": 16.0, "solarradiation": null, "solarenergy": null, "sunrise": "07:03:11", "sunriseEpoch": 1544115791, "sunset": "17:53:51", "sunsetEpoch": 1544154831, "moonphase": 1.0, "conditions": "Rain, Partially cloudy", "icon": "rain", "stations": ["PHLI", "91162022501", "PHBK", "99819599999", "91165022536"], "source": "obs", "hours": null}], "stations": {"PHLI": {"distance": 457.0, "latitude": 21.98, "longitude": -159.34, "useCount": 0, "id": "PHLI", "name": "LIHUE/KAUAI ISL, HI", "quality": 100, "contribution": 0.0}, "91162022501": {"distance": 46267.0, "latitude": 22.033, "longitude": -159.783, "useCount": 0, "id": "91162022501", "name": "BARKING SANDS, HI US", "quality": 97, "contribution": 0.0}, "PHBK": {"distance": 47088.0, "latitude": 22.04, "longitude": -159.79, "useCount": 0, "id": "PHBK", "name": "PHBK", "quality": 98, "contribution": 0.0}, "99819599999": {"distance": 3109.0, "latitude": 21.95, "longitude": -159.35, "useCount": 0, "id": "99819599999", "name": "NAWILIWILI, HI US", "quality": 48, "contribution": 0.0}, "91165022536": {"distance": 903.0, "latitude": 21.984, "longitude": -159.341, "useCount": 0, "id": "91165022536", "name": "LIHUE WEATHER SERVICE OFFICE AIRPORT 1020.1, HI US", "quality": 99, "contribution": 0.0}}}