{"queryCost": 1, "latitude": 21.97599983215332, "longitude": -159.33900451660156, "resolvedAddress": "21.97599983215332, -159.33900451660156", "address": "21.97599983215332, -159.33900451660156", "timezone": "Pacific/Honolulu", "tzoffset": -10.0, "days": [{"datetime": "2020-01-03", "datetimeEpoch": 1578045600, "tempmax": 26.7, "tempmin": 22.8, "temp": 24.4, "feelslikemax": 28.1, "feelslikemin": 22.8, "feelslike": 24.5, "dew": 19.6, "humidity": 74.59, "precip": 0.0, "precipprob": null, "precipcover": 0.0, "preciptype": null, "snow": 0.0, "snowdepth": 0.0, "windgust": 58.1, "windspeed": 44.4, "winddir": 52.1, "pressure": 1021.6, "cloudcover": 47.5, "visibility": 16.0, "solarradiation": null, "solarenergy": null, "sunrise": "07:16:59", "sunriseEpoch": 1578071819, "sunset": "18:06:45", "sunsetEpoch": 1578110805, "moonphase": 0.26, "conditions": "Partially cloudy", "icon": "wind", "stations": ["PHLI", "91162022501", "PHBK", "99819599999", "91165022536"], "source": "obs", "hours": null}], "stations": {"PHLI": {"distance": 457.0, "latitude": 21.98, "longitude": -159.34, "useCount": 0, "id": "PHLI", "name": "LIHUE/KAUAI ISL, HI", "quality": 100, "contribution": 0.0}, "91162022501": {"distance": 46267.0, "latitude": 22.033, "longitude": -159.783, "useCount": 0, "id": "91162022501", "name": "BARKING SANDS, HI US", "quality": 97, "contribution": 0.0}, "PHBK": {"distance": 47088.0, "latitude": 22.04, "longitude": -159.79, "useCount": 0, "id": "PHBK", "name": "PHBK", "quality": 98, "contribution": 0.0}, "99819599999": {"distance": 3109.0, "latitude": 21.95, "longitude": -159.35, "useCount": 0, "id": "99819599999", "name": "NAWILIWILI, HI US", "quality": 48, "contribution": 0.0}, "91165022536": {"distance": 903.0, "latitude": 21.984, "longitude": -159.341, "useCount": 0, "id": "91165022536", "name": "LIHUE WEATHER SERVICE OFFICE AIRPORT 1020.1, HI US", "quality": 99, "contribution": 0.0}}}