{"queryCost": 1, "latitude": 34.729400634799994, "longitude": -92.2242965698, "resolvedAddress": "34.729400634799994, -92.2242965698", "address": "34.729400634799994, -92.2242965698", "timezone": "America/Chicago", "tzoffset": -6.0, "days": [{"datetime": "2020-01-05", "datetimeEpoch": 1578204000, "tempmax": 17.9, "tempmin": -1.2, "temp": 6.8, "feelslikemax": 17.9, "feelslikemin": -3.3, "feelslike": 6.4, "dew": 0.5, "humidity": 67.96, "precip": 0.0, "precipprob": null, "precipcover": 0.0, "preciptype": null, "snow": 0.0, "snowdepth": 0.0, "windgust": null, "windspeed": 20.5, "winddir": 217.8, "pressure": 1024.6, "cloudcover": 0.0, "visibility": 16.0, "solarradiation": 290.5, "solarenergy": 11.5, "sunrise": "07:16:48", "sunriseEpoch": 1578230208, "sunset": "17:11:44", "sunsetEpoch": 1578265904, "moonphase": 0.36, "conditions": "Clear", "icon": "clear-day", "stations": ["72340503930", "72341613925", "72340313963", "KLRF", "KSGT", "KLIT"], "source": "obs", "hours": null}], "stations": {"72340503930": {"distance": 21928.0, "latitude": 34.917, "longitude": -92.15, "useCount": 0, "id": "72340503930", "name": "LITTLE ROCK AFB, AR US", "quality": 99, "contribution": 0.0}, "72341613925": {"distance": 61215.0, "latitude": 34.6, "longitude": -91.574, "useCount": 0, "id": "72341613925", "name": "STUTTGART MUNICIPAL AIRPORT, AR US", "quality": 99, "contribution": 0.0}, "72340313963": {"distance": 1356.0, "latitude": 34.727, "longitude": -92.239, "useCount": 0, "id": "72340313963", "name": "LITTLE ROCK AIRPORT ADAMS FIELD, AR US", "quality": 100, "contribution": 0.0}, "KLRF": {"distance": 22277.0, "latitude": 34.92, "longitude": -92.15, "useCount": 0, "id": "KLRF", "name": "KLRF", "quality": 100, "contribution": 0.0}, "KSGT": {"distance": 61615.0, "latitude": 34.6, "longitude": -91.57, "useCount": 0, "id": "KSGT", "name": "STUTTGART, AR", "quality": 100, "contribution": 0.0}, "KLIT": {"distance": 1169.0, "latitude": 34.72, "longitude": -92.23, "useCount": 0, "id": "KLIT", "name": "KLIT", "quality": 100, "contribution": 0.0}}}