{"queryCost": 1, "latitude": 34.729400634799994, "longitude": -92.2242965698, "resolvedAddress": "34.729400634799994, -92.2242965698", "address": "34.729400634799994, -92.2242965698", "timezone": "America/Chicago", "tzoffset": -6.0, "days": [{"datetime": "2018-02-02", "datetimeEpoch": 1517551200, "tempmax": 3.9, "tempmin": -3.8, "temp": 0.0, "feelslikemax": 1.5, "feelslikemin": -9.1, "feelslike": -4.3, "dew": -12.2, "humidity": 40.62, "precip": 0.0, "precipprob": null, "precipcover": 0.0, "preciptype": null, "snow": 0.0, "snowdepth": 0.0, "windgust": 46.4, "windspeed": 22.3, "winddir": 71.6, "pressure": 1034.9, "cloudcover": 78.4, "visibility": 16.0, "solarradiation": 341.9, "solarenergy": 13.5, "sunrise": "07:06:25", "sunriseEpoch": 1517576785, "sunset": "17:39:14", "sunsetEpoch": 1517614754, "moonphase": 0.53, "conditions": "Overcast", "icon": "cloudy", "stations": ["72340503930", "72341613925", "72340313963", "KLRF", "KSGT", "KLIT"], "source": "obs", "hours": null}], "stations": {"72340503930": {"distance": 21928.0, "latitude": 34.917, "longitude": -92.15, "useCount": 0, "id": "72340503930", "name": "LITTLE ROCK AFB, AR US", "quality": 99, "contribution": 0.0}, "72341613925": {"distance": 61215.0, "latitude": 34.6, "longitude": -91.574, "useCount": 0, "id": "72341613925", "name": "STUTTGART MUNICIPAL AIRPORT, AR US", "quality": 99, "contribution": 0.0}, "72340313963": {"distance": 1356.0, "latitude": 34.727, "longitude": -92.239, "useCount": 0, "id": "72340313963", "name": "LITTLE ROCK AIRPORT ADAMS FIELD, AR US", "quality": 100, "contribution": 0.0}, "KLRF": {"distance": 22277.0, "latitude": 34.92, "longitude": -92.15, "useCount": 0, "id": "KLRF", "name": "KLRF", "quality": 100, "contribution": 0.0}, "KSGT": {"distance": 61615.0, "latitude": 34.6, "longitude": -91.57, "useCount": 0, "id": "KSGT", "name": "STUTTGART, AR", "quality": 100, "contribution": 0.0}, "KLIT": {"distance": 1169.0, "latitude": 34.72, "longitude": -92.23, "useCount": 0, "id": "KLIT", "name": "KLIT", "quality": 100, "contribution": 0.0}}}