{"queryCost": 1, "latitude": 27.543800354003906, "longitude": -99.46160125732422, "resolvedAddress": "27.543800354003906, -99.46160125732422", "address": "27.543800354003906, -99.46160125732422", "timezone": "America/Chicago", "tzoffset": -5.0, "days": [{"datetime": "2019-06-09", "datetimeEpoch": 1560056400, "tempmax": 43.8, "tempmin": 26.1, "temp": 34.4, "feelslikemax": 45.2, "feelslikemin": 26.1, "feelslike": 38.1, "dew": 21.5, "humidity": 55.24, "precip": 0.0, "precipprob": null, "precipcover": 0.0, "preciptype": null, "snow": 0.0, "snowdepth": 0.0, "windgust": 53.6, "windspeed": 35.3, "winddir": 130.3, "pressure": 1009.4, "cloudcover": 5.8, "visibility": 15.4, "solarradiation": null, "solarenergy": null, "sunrise": "06:41:57", "sunriseEpoch": 1560080517, "sunset": "20:32:24", "sunsetEpoch": 1560130344, "moonphase": 0.21, "conditions": "Clear", "icon": "wind", "stations": ["KLRD", "KHBV", "72252012907", "72233812994", "KAPY", "72058400181"], "source": "obs", "hours": null}], "stations": {"KLRD": {"distance": 1079.0, "latitude": 27.55, "longitude": -99.47, "useCount": 0, "id": "KLRD", "name": "LAREDO INTL AIRP, TX", "quality": 100, "contribution": 0.0}, "KHBV": {"distance": 74479.0, "latitude": 27.35, "longitude": -98.74, "useCount": 0, "id": "KHBV", "name": "KHBV", "quality": 97, "contribution": 0.0}, "72252012907": {"distance": 1273.0, "latitude": 27.533, "longitude": -99.467, "useCount": 0, "id": "72252012907", "name": "LAREDO INTERNATIONAL AIRPORT, TX US", "quality": 100, "contribution": 0.0}, "72233812994": {"distance": 74792.0, "latitude": 27.349, "longitude": -98.737, "useCount": 0, "id": "72233812994", "name": "HEBBRONVILLE JIM HOGG CO AIRPORT, TX US", "quality": 100, "contribution": 0.0}, "KAPY": {"distance": 67220.0, "latitude": 26.97, "longitude": -99.25, "useCount": 0, "id": "KAPY", "name": "KAPY", "quality": 88, "contribution": 0.0}, "72058400181": {"distance": 67537.0, "latitude": 26.967, "longitude": -99.25, "useCount": 0, "id": "72058400181", "name": "ZAPATA CO AIRPORT, TX US", "quality": 100, "contribution": 0.0}}}