{"queryCost": 1, "latitude": 43.879002, "longitude": -91.256699, "resolvedAddress": "43.879002, -91.256699", "address": "43.879002, -91.256699", "timezone": "America/Chicago", "tzoffset": -6.0, "days": [{"datetime": "2020-01-05", "datetimeEpoch": 1578204000, "tempmax": 5.0, "tempmin": -2.8, "temp": 0.6, "feelslikemax": 1.3, "feelslikemin": -8.5, "feelslike": -4.3, "dew": -4.9, "humidity": 66.97, "precip": 0.0, "precipprob": null, "precipcover": 0.0, "preciptype": null, "snow": 0.0, "snowdepth": 1.04, "windgust": 54.4, "windspeed": 33.5, "winddir": 238.6, "pressure": 1013.5, "cloudcover": 43.6, "visibility": 15.9, "solarradiation": 74.7, "solarenergy": 2.7, "sunrise": "07:39:24", "sunriseEpoch": 1578231564, "sunset": "16:41:26", "sunsetEpoch": 1578264086, "moonphase": 0.36, "conditions": "Partially cloudy", "icon": "wind", "stations": ["KLSE", "KONA", "72643014920", "72643794940", "KCMY", "72658804956"], "source": "obs", "hours": null}], "stations": {"KLSE": {"distance": 287.0, "latitude": 43.88, "longitude": -91.26, "useCount": 0, "id": "KLSE", "name": "KLSE", "quality": 100, "contribution": 0.0}, "KONA": {"distance": 41972.0, "latitude": 44.08, "longitude": -91.7, "useCount": 0, "id": "KONA", "name": "KONA", "quality": 100, "contribution": 0.0}, "72643014920": {"distance": 322.0, "latitude": 43.879, "longitude": -91.253, "useCount": 0, "id": "72643014920", "name": "LA CROSSE MUNICIPAL AIRPORT, WI US", "quality": 100, "contribution": 0.0}, "72643794940": {"distance": 43087.0, "latitude": 43.967, "longitude": -90.733, "useCount": 0, "id": "72643794940", "name": "SPARTA FORT MCCOY, WI US", "quality": 100, "contribution": 0.0}, "KCMY": {"distance": 42401.0, "latitude": 43.96, "longitude": -90.74, "useCount": 0, "id": "KCMY", "name": "KCMY", "quality": 99, "contribution": 0.0}, "72658804956": {"distance": 42342.0, "latitude": 44.077, "longitude": -91.708, "useCount": 0, "id": "72658804956", "name": "WINONA MUNICIPAL MAX CONRAD FIELD AIRPORT, MN US", "quality": 100, "contribution": 0.0}}}