{"queryCost": 1, "latitude": 37.8582992554, "longitude": -80.3994979858, "resolvedAddress": "37.8582992554, -80.3994979858", "address": "37.8582992554, -80.3994979858", "timezone": "America/New_York", "tzoffset": -5.0, "days": [{"datetime": "2020-01-01", "datetimeEpoch": 1577854800, "tempmax": 5.9, "tempmin": -2.2, "temp": 2.3, "feelslikemax": 2.0, "feelslikemin": -3.3, "feelslike": -0.5, "dew": -3.2, "humidity": 67.91, "precip": 0.0, "precipprob": null, "precipcover": 0.0, "preciptype": null, "snow": 0.0, "snowdepth": 0.0, "windgust": 42.5, "windspeed": 24.1, "winddir": 295.1, "pressure": 1014.0, "cloudcover": 54.3, "visibility": 16.0, "solarradiation": null, "solarenergy": null, "sunrise": "07:37:19", "sunriseEpoch": 1577882239, "sunset": "17:12:52", "sunsetEpoch": 1577916772, "moonphase": 0.17, "conditions": "Partially cloudy", "icon": "partly-cloudy-day", "stations": ["KBKW", "KROA", "72411593757", "72412003872", "KLWB"], "source": "obs", "hours": null}], "stations": {"KBKW": {"distance": 63955.0, "latitude": 37.78, "longitude": -81.12, "useCount": 0, "id": "KBKW", "name": "KBKW", "quality": 100, "contribution": 0.0}, "KROA": {"distance": 70895.0, "latitude": 37.32, "longitude": -79.97, "useCount": 0, "id": "KROA", "name": "KROA", "quality": 100, "contribution": 0.0}, "72411593757": {"distance": 52198.0, "latitude": 37.95, "longitude": -79.817, "useCount": 0, "id": "72411593757", "name": "HOT SPRINGS INGALLS FIELD, VA US", "quality": 100, "contribution": 0.0}, "72412003872": {"distance": 64162.0, "latitude": 37.784, "longitude": -81.123, "useCount": 0, "id": "72412003872", "name": "BECKLEY RALEIGH CO AIRPORT, WV US", "quality": 100, "contribution": 0.0}, "KLWB": {"distance": 194.0, "latitude": 37.86, "longitude": -80.4, "useCount": 0, "id": "KLWB", "name": "KLWB", "quality": 100, "contribution": 0.0}}}