{"queryCost": 1, "latitude": 37.8582992554, "longitude": -80.3994979858, "resolvedAddress": "37.8582992554, -80.3994979858", "address": "37.8582992554, -80.3994979858", "timezone": "America/New_York", "tzoffset": -4.0, "days": [{"datetime": "2019-05-22", "datetimeEpoch": 1558497600, "tempmax": 25.4, "tempmin": 10.3, "temp": 17.4, "feelslikemax": 25.4, "feelslikemin": 10.3, "feelslike": 17.4, "dew": 11.7, "humidity": 71.94, "precip": 0.0, "precipprob": null, "precipcover": 0.0, "preciptype": null, "snow": 0.0, "snowdepth": 0.0, "windgust": 42.5, "windspeed": 13.0, "winddir": 70.4, "pressure": 1021.4, "cloudcover": 7.8, "visibility": 16.0, "solarradiation": null, "solarenergy": null, "sunrise": "06:06:28", "sunriseEpoch": 1558519588, "sunset": "20:30:31", "sunsetEpoch": 1558571431, "moonphase": 0.57, "conditions": "Clear", "icon": "clear-day", "stations": ["KBKW", "72411013741", "KROA", "72411593757", "72412003872", "KLWB"], "source": "obs", "hours": null}], "stations": {"KBKW": {"distance": 63955.0, "latitude": 37.78, "longitude": -81.12, "useCount": 0, "id": "KBKW", "name": "KBKW", "quality": 100, "contribution": 0.0}, "72411013741": {"distance": 70996.0, "latitude": 37.317, "longitude": -79.974, "useCount": 0, "id": "72411013741", "name": "ROANOKE INTERNATIONAL AIRPORT, VA US", "quality": 100, "contribution": 0.0}, "KROA": {"distance": 70895.0, "latitude": 37.32, "longitude": -79.97, "useCount": 0, "id": "KROA", "name": "KROA", "quality": 100, "contribution": 0.0}, "72411593757": {"distance": 52198.0, "latitude": 37.95, "longitude": -79.817, "useCount": 0, "id": "72411593757", "name": "HOT SPRINGS INGALLS FIELD, VA US", "quality": 100, "contribution": 0.0}, "72412003872": {"distance": 64162.0, "latitude": 37.784, "longitude": -81.123, "useCount": 0, "id": "72412003872", "name": "BECKLEY RALEIGH CO AIRPORT, WV US", "quality": 100, "contribution": 0.0}, "KLWB": {"distance": 194.0, "latitude": 37.86, "longitude": -80.4, "useCount": 0, "id": "KLWB", "name": "KLWB", "quality": 100, "contribution": 0.0}}}