{"queryCost": 1, "latitude": 43.532901763916016, "longitude": -84.07959747314453, "resolvedAddress": "43.532901763916016, -84.07959747314453", "address": "43.532901763916016, -84.07959747314453", "timezone": "America/Detroit", "tzoffset": -5.0, "days": [{"datetime": "2020-01-06", "datetimeEpoch": 1578286800, "tempmax": 3.9, "tempmin": -2.8, "temp": 0.7, "feelslikemax": -1.2, "feelslikemin": -8.9, "feelslike": -4.8, "dew": -5.6, "humidity": 63.23, "precip": 0.0, "precipprob": null, "precipcover": 0.0, "preciptype": null, "snow": 1.13, "snowdepth": 3.26, "windgust": 60.8, "windspeed": 40.7, "winddir": 253.3, "pressure": 1014.4, "cloudcover": 30.4, "visibility": 16.0, "solarradiation": 186.4, "solarenergy": 7.4, "sunrise": "08:09:26", "sunriseEpoch": 1578316166, "sunset": "17:14:52", "sunsetEpoch": 1578348892, "moonphase": 0.4, "conditions": "Partially cloudy", "icon": "snow", "stations": ["KMBS", "KMOP", "KFNT", "72637914845", "72637014826", "72062900216"], "source": "obs", "hours": null}], "stations": {"KMBS": {"distance": 325.0, "latitude": 43.53, "longitude": -84.08, "useCount": 0, "id": "KMBS", "name": "KMBS", "quality": 100, "contribution": 0.0}, "KMOP": {"distance": 54134.0, "latitude": 43.62, "longitude": -84.74, "useCount": 0, "id": "KMOP", "name": "KMOP", "quality": 100, "contribution": 0.0}, "KFNT": {"distance": 68122.0, "latitude": 42.97, "longitude": -83.75, "useCount": 0, "id": "KFNT", "name": "KFNT", "quality": 100, "contribution": 0.0}, "72637914845": {"distance": 24.0, "latitude": 43.533, "longitude": -84.08, "useCount": 0, "id": "72637914845", "name": "SAGINAW MBS INTERNATIONAL AIRPORT, MI US", "quality": 100, "contribution": 0.0}, "72637014826": {"distance": 68490.0, "latitude": 42.967, "longitude": -83.749, "useCount": 0, "id": "72637014826", "name": "FLINT FCWOS, MI US", "quality": 100, "contribution": 0.0}, "72062900216": {"distance": 20582.0, "latitude": 43.663, "longitude": -84.261, "useCount": 0, "id": "72062900216", "name": "JACK BARSTOW AIRPORT, MI US", "quality": 100, "contribution": 0.0}}}