{"queryCost": 1, "latitude": 39.2976, "longitude": -94.713898, "resolvedAddress": "39.2976, -94.713898", "address": "39.2976, -94.713898", "timezone": "America/Chicago", "tzoffset": -5.0, "days": [{"datetime": "2019-06-21", "datetimeEpoch": 1561093200, "tempmax": 26.2, "tempmin": 18.5, "temp": 22.6, "feelslikemax": 26.2, "feelslikemin": 18.5, "feelslike": 22.6, "dew": 19.1, "humidity": 81.25, "precip": 44.87, "precipprob": null, "precipcover": 25.0, "preciptype": null, "snow": 0.0, "snowdepth": 0.0, "windgust": 80.1, "windspeed": 51.8, "winddir": 155.8, "pressure": 1006.1, "cloudcover": 76.6, "visibility": 14.7, "solarradiation": null, "solarenergy": null, "sunrise": "05:52:30", "sunriseEpoch": 1561114350, "sunset": "20:48:49", "sunsetEpoch": 1561168129, "moonphase": 0.59, "conditions": "Rain, Overcast", "icon": "rain", "stations": ["72030653879", "72446003947", "KMKC", "KMCI", "KLXT", "72446313988"], "source": "obs", "hours": null}], "stations": {"72030653879": {"distance": 47850.0, "latitude": 38.96, "longitude": -94.371, "useCount": 0, "id": "72030653879", "name": "LEES SUMMIT MUNICIPAL AIRPORT, MO US", "quality": 100, "contribution": 0.0}, "72446003947": {"distance": 1440.0, "latitude": 39.297, "longitude": -94.731, "useCount": 0, "id": "72446003947", "name": "KANSAS CITY INTERNATIONAL AIRPORT, MO US", "quality": 100, "contribution": 0.0}, "KMKC": {"distance": 23079.0, "latitude": 39.11, "longitude": -94.6, "useCount": 0, "id": "KMKC", "name": "KMKC", "quality": 100, "contribution": 0.0}, "KMCI": {"distance": 2548.0, "latitude": 39.32, "longitude": -94.72, "useCount": 0, "id": "KMCI", "name": "KMCI", "quality": 100, "contribution": 0.0}, "KLXT": {"distance": 47898.0, "latitude": 38.96, "longitude": -94.37, "useCount": 0, "id": "KLXT", "name": "KLXT", "quality": 100, "contribution": 0.0}, "72446313988": {"distance": 22118.0, "latitude": 39.121, "longitude": -94.597, "useCount": 0, "id": "72446313988", "name": "KANSAS CITY DOWNTOWN AIRPORT, MO US", "quality": 100, "contribution": 0.0}}}