{"queryCost": 1, "latitude": 39.2976, "longitude": -94.713898, "resolvedAddress": "39.2976, -94.713898", "address": "39.2976, -94.713898", "timezone": "America/Chicago", "tzoffset": -6.0, "days": [{"datetime": "2020-01-07", "datetimeEpoch": 1578376800, "tempmax": 11.2, "tempmin": -2.1, "temp": 3.8, "feelslikemax": 11.2, "feelslikemin": -6.2, "feelslike": 0.9, "dew": -4.2, "humidity": 58.71, "precip": 0.0, "precipprob": null, "precipcover": 0.0, "preciptype": null, "snow": 0.0, "snowdepth": 0.0, "windgust": 40.7, "windspeed": 24.1, "winddir": 269.5, "pressure": 1022.4, "cloudcover": 15.9, "visibility": 16.0, "solarradiation": null, "solarenergy": null, "uvindex": 0.0, "sunrise": "07:38:55", "sunriseEpoch": 1578404335, "sunset": "17:11:20", "sunsetEpoch": 1578438680, "moonphase": 0.44, "conditions": "Clear", "description": "Partly cloudly.", "icon": "clear-day", "stations": ["72030653879", "72446003947", "KMKC", "KMCI", "KLXT", "72446313988"], "source": "obs", "hours": null}], "stations": {"72030653879": {"distance": 47850.0, "latitude": 38.96, "longitude": -94.371, "useCount": 0, "id": "72030653879", "name": "LEES SUMMIT MUNICIPAL AIRPORT, MO US", "quality": 100, "contribution": 0.0}, "72446003947": {"distance": 1440.0, "latitude": 39.297, "longitude": -94.731, "useCount": 0, "id": "72446003947", "name": "KANSAS CITY INTERNATIONAL AIRPORT, MO US", "quality": 100, "contribution": 0.0}, "KMKC": {"distance": 23079.0, "latitude": 39.11, "longitude": -94.6, "useCount": 0, "id": "KMKC", "name": "KMKC", "quality": 100, "contribution": 0.0}, "KMCI": {"distance": 2548.0, "latitude": 39.32, "longitude": -94.72, "useCount": 0, "id": "KMCI", "name": "KMCI", "quality": 100, "contribution": 0.0}, "KLXT": {"distance": 47898.0, "latitude": 38.96, "longitude": -94.37, "useCount": 0, "id": "KLXT", "name": "KLXT", "quality": 100, "contribution": 0.0}, "72446313988": {"distance": 22118.0, "latitude": 39.121, "longitude": -94.597, "useCount": 0, "id": "72446313988", "name": "KANSAS CITY DOWNTOWN AIRPORT, MO US", "quality": 100, "contribution": 0.0}}}