{"queryCost": 1, "latitude": 39.2976, "longitude": -94.713898, "resolvedAddress": "39.2976, -94.713898", "address": "39.2976, -94.713898", "timezone": "America/Chicago", "tzoffset": -5.0, "days": [{"datetime": "2018-06-19", "datetimeEpoch": 1529384400, "tempmax": 28.4, "tempmin": 20.0, "temp": 24.7, "feelslikemax": 31.0, "feelslikemin": 20.0, "feelslike": 25.5, "dew": 20.9, "humidity": 79.74, "precip": 25.28, "precipprob": null, "precipcover": 12.5, "preciptype": null, "snow": 0.0, "snowdepth": 0.0, "windgust": 53.6, "windspeed": 22.4, "winddir": 178.8, "pressure": 1012.7, "cloudcover": 64.0, "visibility": 15.4, "solarradiation": null, "solarenergy": null, "sunrise": "05:52:10", "sunriseEpoch": 1529405530, "sunset": "20:48:24", "sunsetEpoch": 1529459304, "moonphase": 0.2, "conditions": "Rain, Partially cloudy", "icon": "rain", "stations": ["72030653879", "72446003947", "KMKC", "KMCI", "KLXT", "72446313988"], "source": "obs", "hours": null}], "stations": {"72030653879": {"distance": 47850.0, "latitude": 38.96, "longitude": -94.371, "useCount": 0, "id": "72030653879", "name": "LEES SUMMIT MUNICIPAL AIRPORT, MO US", "quality": 100, "contribution": 0.0}, "72446003947": {"distance": 1440.0, "latitude": 39.297, "longitude": -94.731, "useCount": 0, "id": "72446003947", "name": "KANSAS CITY INTERNATIONAL AIRPORT, MO US", "quality": 100, "contribution": 0.0}, "KMKC": {"distance": 23079.0, "latitude": 39.11, "longitude": -94.6, "useCount": 0, "id": "KMKC", "name": "KMKC", "quality": 100, "contribution": 0.0}, "KMCI": {"distance": 2548.0, "latitude": 39.32, "longitude": -94.72, "useCount": 0, "id": "KMCI", "name": "KMCI", "quality": 100, "contribution": 0.0}, "KLXT": {"distance": 47898.0, "latitude": 38.96, "longitude": -94.37, "useCount": 0, "id": "KLXT", "name": "KLXT", "quality": 100, "contribution": 0.0}, "72446313988": {"distance": 22118.0, "latitude": 39.121, "longitude": -94.597, "useCount": 0, "id": "72446313988", "name": "KANSAS CITY DOWNTOWN AIRPORT, MO US", "quality": 100, "contribution": 0.0}}}