{"queryCost": 1, "latitude": 39.2976, "longitude": -94.713898, "resolvedAddress": "39.2976, -94.713898", "address": "39.2976, -94.713898", "timezone": "America/Chicago", "tzoffset": -5.0, "days": [{"datetime": "2019-05-05", "datetimeEpoch": 1557032400, "tempmax": 24.4, "tempmin": 8.9, "temp": 17.1, "feelslikemax": 24.4, "feelslikemin": 6.6, "feelslike": 17.0, "dew": 9.5, "humidity": 63.72, "precip": 0.0, "precipprob": null, "precipcover": 0.0, "preciptype": null, "snow": 0.0, "snowdepth": 0.0, "windgust": 44.5, "windspeed": 25.9, "winddir": 180.3, "pressure": 1011.0, "cloudcover": 46.4, "visibility": 16.0, "solarradiation": null, "solarenergy": null, "sunrise": "06:15:46", "sunriseEpoch": 1557054946, "sunset": "20:15:58", "sunsetEpoch": 1557105358, "moonphase": 0.0, "conditions": "Partially cloudy", "icon": "partly-cloudy-day", "stations": ["72030653879", "72446003947", "KMKC", "KMCI", "KLXT", "72446313988"], "source": "obs", "hours": null}], "stations": {"72030653879": {"distance": 47850.0, "latitude": 38.96, "longitude": -94.371, "useCount": 0, "id": "72030653879", "name": "LEES SUMMIT MUNICIPAL AIRPORT, MO US", "quality": 100, "contribution": 0.0}, "72446003947": {"distance": 1440.0, "latitude": 39.297, "longitude": -94.731, "useCount": 0, "id": "72446003947", "name": "KANSAS CITY INTERNATIONAL AIRPORT, MO US", "quality": 100, "contribution": 0.0}, "KMKC": {"distance": 23079.0, "latitude": 39.11, "longitude": -94.6, "useCount": 0, "id": "KMKC", "name": "KMKC", "quality": 100, "contribution": 0.0}, "KMCI": {"distance": 2548.0, "latitude": 39.32, "longitude": -94.72, "useCount": 0, "id": "KMCI", "name": "KMCI", "quality": 100, "contribution": 0.0}, "KLXT": {"distance": 47898.0, "latitude": 38.96, "longitude": -94.37, "useCount": 0, "id": "KLXT", "name": "KLXT", "quality": 100, "contribution": 0.0}, "72446313988": {"distance": 22118.0, "latitude": 39.121, "longitude": -94.597, "useCount": 0, "id": "72446313988", "name": "KANSAS CITY DOWNTOWN AIRPORT, MO US", "quality": 100, "contribution": 0.0}}}