{"queryCost": 1, "latitude": 28.429399490356445, "longitude": -81.30899810791016, "resolvedAddress": "28.429399490356445, -81.30899810791016", "address": "28.429399490356445, -81.30899810791016", "timezone": "America/New_York", "tzoffset": -4.0, "days": [{"datetime": "2018-08-25", "datetimeEpoch": 1535169600, "tempmax": 32.2, "tempmin": 24.4, "temp": 26.9, "feelslikemax": 37.0, "feelslikemin": 24.4, "feelslike": 28.9, "dew": 23.9, "humidity": 84.65, "precip": 0.6, "precipprob": null, "precipcover": 20.83, "preciptype": null, "snow": 0.0, "snowdepth": 0.0, "windgust": 47.9, "windspeed": 24.1, "winddir": 143.2, "pressure": 1018.9, "cloudcover": 81.0, "visibility": 15.9, "solarradiation": 341.9, "solarenergy": 16.0, "sunrise": "06:59:56", "sunriseEpoch": 1535194796, "sunset": "19:54:12", "sunsetEpoch": 1535241252, "moonphase": 0.5, "conditions": "Rain, Overcast", "icon": "rain", "stations": ["72205312841", "72201192813", "72205012815", "KISM", "KMCO", "KORL"], "source": "obs", "hours": null}], "stations": {"72205312841": {"distance": 13116.0, "latitude": 28.545, "longitude": -81.333, "useCount": 0, "id": "72205312841", "name": "ORLANDO EXECUTIVE AIRPORT, FL US", "quality": 100, "contribution": 0.0}, "72201192813": {"distance": 19971.0, "latitude": 28.29, "longitude": -81.437, "useCount": 0, "id": "72201192813", "name": "ORLANDO KISSIMMEE MUNICIPAL AIRPORT, FL US", "quality": 99, "contribution": 0.0}, "72205012815": {"distance": 1645.0, "latitude": 28.434, "longitude": -81.325, "useCount": 0, "id": "72205012815", "name": "ORLANDO INTERNATIONAL AIRPORT, FL US", "quality": 100, "contribution": 0.0}, "KISM": {"distance": 20137.0, "latitude": 28.29, "longitude": -81.44, "useCount": 0, "id": "KISM", "name": "KISSIMMEE AIRPORT, FL", "quality": 100, "contribution": 0.0}, "KMCO": {"distance": 119.0, "latitude": 28.43, "longitude": -81.31, "useCount": 0, "id": "KMCO", "name": "KMCO", "quality": 100, "contribution": 0.0}, "KORL": {"distance": 13582.0, "latitude": 28.55, "longitude": -81.33, "useCount": 0, "id": "KORL", "name": "KORL", "quality": 100, "contribution": 0.0}}}