{"queryCost": 1, "latitude": 28.429399490356445, "longitude": -81.30899810791016, "resolvedAddress": "28.429399490356445, -81.30899810791016", "address": "28.429399490356445, -81.30899810791016", "timezone": "America/New_York", "tzoffset": -4.0, "days": [{"datetime": "2018-07-26", "datetimeEpoch": 1532577600, "tempmax": 31.7, "tempmin": 24.4, "temp": 26.9, "feelslikemax": 37.2, "feelslikemin": 24.4, "feelslike": 28.7, "dew": 24.2, "humidity": 86.29, "precip": 4.59, "precipprob": null, "precipcover": 16.67, "preciptype": null, "snow": 0.0, "snowdepth": 0.0, "windgust": 31.7, "windspeed": 22.3, "winddir": 159.6, "pressure": 1016.0, "cloudcover": 59.0, "visibility": 15.4, "solarradiation": 327.9, "solarenergy": 16.5, "sunrise": "06:43:44", "sunriseEpoch": 1532601824, "sunset": "20:19:29", "sunsetEpoch": 1532650769, "moonphase": 0.49, "conditions": "Rain, Partially cloudy", "icon": "rain", "stations": ["72205312841", "72201192813", "72205012815", "KISM", "KMCO", "KORL"], "source": "obs", "hours": null}], "stations": {"72205312841": {"distance": 13116.0, "latitude": 28.545, "longitude": -81.333, "useCount": 0, "id": "72205312841", "name": "ORLANDO EXECUTIVE AIRPORT, FL US", "quality": 100, "contribution": 0.0}, "72201192813": {"distance": 19971.0, "latitude": 28.29, "longitude": -81.437, "useCount": 0, "id": "72201192813", "name": "ORLANDO KISSIMMEE MUNICIPAL AIRPORT, FL US", "quality": 99, "contribution": 0.0}, "72205012815": {"distance": 1645.0, "latitude": 28.434, "longitude": -81.325, "useCount": 0, "id": "72205012815", "name": "ORLANDO INTERNATIONAL AIRPORT, FL US", "quality": 100, "contribution": 0.0}, "KISM": {"distance": 20137.0, "latitude": 28.29, "longitude": -81.44, "useCount": 0, "id": "KISM", "name": "KISSIMMEE AIRPORT, FL", "quality": 100, "contribution": 0.0}, "KMCO": {"distance": 119.0, "latitude": 28.43, "longitude": -81.31, "useCount": 0, "id": "KMCO", "name": "KMCO", "quality": 100, "contribution": 0.0}, "KORL": {"distance": 13582.0, "latitude": 28.55, "longitude": -81.33, "useCount": 0, "id": "KORL", "name": "KORL", "quality": 100, "contribution": 0.0}}}