{"queryCost": 1, "latitude": 28.429399490356445, "longitude": -81.30899810791016, "resolvedAddress": "28.429399490356445, -81.30899810791016", "address": "28.429399490356445, -81.30899810791016", "timezone": "America/New_York", "tzoffset": -4.0, "days": [{"datetime": "2018-04-11", "datetimeEpoch": 1523419200, "tempmax": 24.3, "tempmin": 15.7, "temp": 19.1, "feelslikemax": 24.3, "feelslikemin": 15.7, "feelslike": 19.2, "dew": 11.9, "humidity": 67.75, "precip": 10.42, "precipprob": null, "precipcover": 25.0, "preciptype": null, "snow": 0.0, "snowdepth": 0.0, "windgust": 38.9, "windspeed": 27.7, "winddir": 164.2, "pressure": 1019.1, "cloudcover": 51.6, "visibility": 14.9, "solarradiation": 578.2, "solarenergy": 27.1, "sunrise": "07:04:03", "sunriseEpoch": 1523444643, "sunset": "19:48:48", "sunsetEpoch": 1523490528, "moonphase": 0.9, "conditions": "Rain, Partially cloudy", "icon": "rain", "stations": ["72205312841", "72201192813", "72205012815", "KISM", "KMCO", "KORL"], "source": "obs", "hours": null}], "stations": {"72205312841": {"distance": 13116.0, "latitude": 28.545, "longitude": -81.333, "useCount": 0, "id": "72205312841", "name": "ORLANDO EXECUTIVE AIRPORT, FL US", "quality": 100, "contribution": 0.0}, "72201192813": {"distance": 19971.0, "latitude": 28.29, "longitude": -81.437, "useCount": 0, "id": "72201192813", "name": "ORLANDO KISSIMMEE MUNICIPAL AIRPORT, FL US", "quality": 99, "contribution": 0.0}, "72205012815": {"distance": 1645.0, "latitude": 28.434, "longitude": -81.325, "useCount": 0, "id": "72205012815", "name": "ORLANDO INTERNATIONAL AIRPORT, FL US", "quality": 100, "contribution": 0.0}, "KISM": {"distance": 20137.0, "latitude": 28.29, "longitude": -81.44, "useCount": 0, "id": "KISM", "name": "KISSIMMEE AIRPORT, FL", "quality": 100, "contribution": 0.0}, "KMCO": {"distance": 119.0, "latitude": 28.43, "longitude": -81.31, "useCount": 0, "id": "KMCO", "name": "KMCO", "quality": 100, "contribution": 0.0}, "KORL": {"distance": 13582.0, "latitude": 28.55, "longitude": -81.33, "useCount": 0, "id": "KORL", "name": "KORL", "quality": 100, "contribution": 0.0}}}