{"queryCost": 1, "latitude": 28.429399490356445, "longitude": -81.30899810791016, "resolvedAddress": "28.429399490356445, -81.30899810791016", "address": "28.429399490356445, -81.30899810791016", "timezone": "America/New_York", "tzoffset": -4.0, "days": [{"datetime": "2018-03-17", "datetimeEpoch": 1521259200, "tempmax": 27.9, "tempmin": 11.7, "temp": 19.5, "feelslikemax": 26.7, "feelslikemin": 11.7, "feelslike": 19.3, "dew": 7.4, "humidity": 52.93, "precip": 0.0, "precipprob": null, "precipcover": 0.0, "preciptype": null, "snow": 0.0, "snowdepth": 0.0, "windgust": 27.7, "windspeed": 16.6, "winddir": 184.6, "pressure": 1017.4, "cloudcover": 17.7, "visibility": 16.0, "solarradiation": 505.4, "solarenergy": 23.7, "sunrise": "07:32:26", "sunriseEpoch": 1521286346, "sunset": "19:34:59", "sunsetEpoch": 1521329699, "moonphase": 1.0, "conditions": "Clear", "icon": "clear-day", "stations": ["72205312841", "72201192813", "72205012815", "KISM", "KMCO", "KORL"], "source": "obs", "hours": null}], "stations": {"72205312841": {"distance": 13116.0, "latitude": 28.545, "longitude": -81.333, "useCount": 0, "id": "72205312841", "name": "ORLANDO EXECUTIVE AIRPORT, FL US", "quality": 100, "contribution": 0.0}, "72201192813": {"distance": 19971.0, "latitude": 28.29, "longitude": -81.437, "useCount": 0, "id": "72201192813", "name": "ORLANDO KISSIMMEE MUNICIPAL AIRPORT, FL US", "quality": 99, "contribution": 0.0}, "72205012815": {"distance": 1645.0, "latitude": 28.434, "longitude": -81.325, "useCount": 0, "id": "72205012815", "name": "ORLANDO INTERNATIONAL AIRPORT, FL US", "quality": 100, "contribution": 0.0}, "KISM": {"distance": 20137.0, "latitude": 28.29, "longitude": -81.44, "useCount": 0, "id": "KISM", "name": "KISSIMMEE AIRPORT, FL", "quality": 100, "contribution": 0.0}, "KMCO": {"distance": 119.0, "latitude": 28.43, "longitude": -81.31, "useCount": 0, "id": "KMCO", "name": "KMCO", "quality": 100, "contribution": 0.0}, "KORL": {"distance": 13582.0, "latitude": 28.55, "longitude": -81.33, "useCount": 0, "id": "KORL", "name": "KORL", "quality": 100, "contribution": 0.0}}}