{"queryCost": 1, "latitude": 41.785999, "longitude": -87.752403, "resolvedAddress": "41.785999, -87.752403", "address": "41.785999, -87.752403", "timezone": "America/Chicago", "tzoffset": -5.0, "days": [{"datetime": "2018-03-23", "datetimeEpoch": 1521781200, "tempmax": 5.0, "tempmin": 0.0, "temp": 2.4, "feelslikemax": 1.4, "feelslikemin": -4.5, "feelslike": -1.2, "dew": -5.3, "humidity": 57.73, "precip": 0.0, "precipprob": null, "precipcover": 0.0, "preciptype": null, "snow": 0.0, "snowdepth": 0.0, "windgust": 33.5, "windspeed": 25.9, "winddir": 54.2, "pressure": 1028.1, "cloudcover": 48.3, "visibility": 16.0, "solarradiation": 432.8, "solarenergy": 20.3, "sunrise": "06:49:02", "sunriseEpoch": 1521805742, "sunset": "19:06:39", "sunsetEpoch": 1521849999, "moonphase": 0.19, "conditions": "Partially cloudy", "icon": "partly-cloudy-day", "stations": ["72534014819", "72212604879", "KORD", "KMDW", "72530094846", "KIGQ"], "source": "obs", "hours": null}], "stations": {"72534014819": {"distance": 20.0, "latitude": 41.786, "longitude": -87.752, "useCount": 0, "id": "72534014819", "name": "CHICAGO MIDWAY AIRPORT, IL US", "quality": 100, "contribution": 0.0}, "72212604879": {"distance": 32985.0, "latitude": 41.54, "longitude": -87.532, "useCount": 0, "id": "72212604879", "name": "CHICAGO LANSING MUNICIPAL AIRPORT, IL US", "quality": 100, "contribution": 0.0}, "KORD": {"distance": 24820.0, "latitude": 41.98, "longitude": -87.9, "useCount": 0, "id": "KORD", "name": "KORD", "quality": 100, "contribution": 0.0}, "KMDW": {"distance": 697.0, "latitude": 41.78, "longitude": -87.75, "useCount": 0, "id": "KMDW", "name": "KMDW", "quality": 100, "contribution": 0.0}, "72530094846": {"distance": 24427.0, "latitude": 41.96, "longitude": -87.932, "useCount": 0, "id": "72530094846", "name": "CHICAGO OHARE INTERNATIONAL AIRPORT, IL US", "quality": 100, "contribution": 0.0}, "KIGQ": {"distance": 33045.0, "latitude": 41.54, "longitude": -87.53, "useCount": 0, "id": "KIGQ", "name": "KIGQ", "quality": 100, "contribution": 0.0}}}