{"queryCost": 1, "latitude": 41.785999, "longitude": -87.752403, "resolvedAddress": "41.785999, -87.752403", "address": "41.785999, -87.752403", "timezone": "America/Chicago", "tzoffset": -5.0, "days": [{"datetime": "2019-06-28", "datetimeEpoch": 1561698000, "tempmax": 32.2, "tempmin": 22.8, "temp": 26.6, "feelslikemax": 35.0, "feelslikemin": 22.8, "feelslike": 27.5, "dew": 20.0, "humidity": 67.81, "precip": 11.5, "precipprob": null, "precipcover": 12.5, "preciptype": null, "snow": 0.0, "snowdepth": 0.0, "windgust": 50.0, "windspeed": 24.1, "winddir": 189.6, "pressure": 1018.1, "cloudcover": 82.0, "visibility": 15.3, "solarradiation": 165.2, "solarenergy": 8.9, "sunrise": "05:18:33", "sunriseEpoch": 1561717113, "sunset": "20:29:53", "sunsetEpoch": 1561771793, "moonphase": 0.9, "conditions": "Rain, Overcast", "icon": "rain", "stations": ["72534014819", "72212604879", "KORD", "KMDW", "72530094846", "KIGQ"], "source": "obs", "hours": null}], "stations": {"72534014819": {"distance": 20.0, "latitude": 41.786, "longitude": -87.752, "useCount": 0, "id": "72534014819", "name": "CHICAGO MIDWAY AIRPORT, IL US", "quality": 100, "contribution": 0.0}, "72212604879": {"distance": 32985.0, "latitude": 41.54, "longitude": -87.532, "useCount": 0, "id": "72212604879", "name": "CHICAGO LANSING MUNICIPAL AIRPORT, IL US", "quality": 100, "contribution": 0.0}, "KORD": {"distance": 24820.0, "latitude": 41.98, "longitude": -87.9, "useCount": 0, "id": "KORD", "name": "KORD", "quality": 100, "contribution": 0.0}, "KMDW": {"distance": 697.0, "latitude": 41.78, "longitude": -87.75, "useCount": 0, "id": "KMDW", "name": "KMDW", "quality": 100, "contribution": 0.0}, "72530094846": {"distance": 24427.0, "latitude": 41.96, "longitude": -87.932, "useCount": 0, "id": "72530094846", "name": "CHICAGO OHARE INTERNATIONAL AIRPORT, IL US", "quality": 100, "contribution": 0.0}, "KIGQ": {"distance": 33045.0, "latitude": 41.54, "longitude": -87.53, "useCount": 0, "id": "KIGQ", "name": "KIGQ", "quality": 100, "contribution": 0.0}}}