{"queryCost": 1, "latitude": 41.785999, "longitude": -87.752403, "resolvedAddress": "41.785999, -87.752403", "address": "41.785999, -87.752403", "timezone": "America/Chicago", "tzoffset": -5.0, "days": [{"datetime": "2018-09-20", "datetimeEpoch": 1537419600, "tempmax": 35.0, "tempmin": 20.6, "temp": 27.3, "feelslikemax": 38.8, "feelslikemin": 20.6, "feelslike": 28.5, "dew": 19.7, "humidity": 66.37, "precip": 0.0, "precipprob": null, "precipcover": 0.0, "preciptype": null, "snow": 0.0, "snowdepth": 0.0, "windgust": 51.8, "windspeed": 31.7, "winddir": 216.1, "pressure": 1011.6, "cloudcover": 57.5, "visibility": 13.4, "solarradiation": 389.0, "solarenergy": 16.8, "sunrise": "06:36:18", "sunriseEpoch": 1537443378, "sunset": "18:51:45", "sunsetEpoch": 1537487505, "moonphase": 0.41, "conditions": "Partially cloudy", "icon": "wind", "stations": ["72534014819", "72212604879", "KORD", "72530094846", "KMDW", "KIGQ"], "source": "obs", "hours": null}], "stations": {"72534014819": {"distance": 20.0, "latitude": 41.786, "longitude": -87.752, "useCount": 0, "id": "72534014819", "name": "CHICAGO MIDWAY AIRPORT, IL US", "quality": 100, "contribution": 0.0}, "72212604879": {"distance": 32985.0, "latitude": 41.54, "longitude": -87.532, "useCount": 0, "id": "72212604879", "name": "CHICAGO LANSING MUNICIPAL AIRPORT, IL US", "quality": 100, "contribution": 0.0}, "KORD": {"distance": 24820.0, "latitude": 41.98, "longitude": -87.9, "useCount": 0, "id": "KORD", "name": "KORD", "quality": 100, "contribution": 0.0}, "72530094846": {"distance": 24427.0, "latitude": 41.96, "longitude": -87.932, "useCount": 0, "id": "72530094846", "name": "CHICAGO OHARE INTERNATIONAL AIRPORT, IL US", "quality": 100, "contribution": 0.0}, "KMDW": {"distance": 697.0, "latitude": 41.78, "longitude": -87.75, "useCount": 0, "id": "KMDW", "name": "KMDW", "quality": 100, "contribution": 0.0}, "KIGQ": {"distance": 33045.0, "latitude": 41.54, "longitude": -87.53, "useCount": 0, "id": "KIGQ", "name": "KIGQ", "quality": 100, "contribution": 0.0}}}