{"queryCost": 1, "latitude": 41.785999, "longitude": -87.752403, "resolvedAddress": "41.785999, -87.752403", "address": "41.785999, -87.752403", "timezone": "America/Chicago", "tzoffset": -6.0, "days": [{"datetime": "2019-11-13", "datetimeEpoch": 1573624800, "tempmax": -2.8, "tempmin": -10.7, "temp": -6.6, "feelslikemax": -7.0, "feelslikemin": -18.5, "feelslike": -13.4, "dew": -13.8, "humidity": 57.11, "precip": 0.0, "precipprob": null, "precipcover": 0.0, "preciptype": null, "snow": 0.0, "snowdepth": 4.54, "windgust": 64.8, "windspeed": 31.7, "winddir": 196.7, "pressure": 1024.3, "cloudcover": 98.3, "visibility": 15.8, "solarradiation": 121.4, "solarenergy": 4.4, "sunrise": "06:37:43", "sunriseEpoch": 1573648663, "sunset": "16:32:20", "sunsetEpoch": 1573684340, "moonphase": 0.51, "conditions": "Overcast", "icon": "wind", "stations": ["72534014819", "72212604879", "KORD", "KMDW", "72530094846", "KIGQ"], "source": "obs", "hours": null}], "stations": {"72534014819": {"distance": 20.0, "latitude": 41.786, "longitude": -87.752, "useCount": 0, "id": "72534014819", "name": "CHICAGO MIDWAY AIRPORT, IL US", "quality": 100, "contribution": 0.0}, "72212604879": {"distance": 32985.0, "latitude": 41.54, "longitude": -87.532, "useCount": 0, "id": "72212604879", "name": "CHICAGO LANSING MUNICIPAL AIRPORT, IL US", "quality": 100, "contribution": 0.0}, "KORD": {"distance": 24820.0, "latitude": 41.98, "longitude": -87.9, "useCount": 0, "id": "KORD", "name": "KORD", "quality": 100, "contribution": 0.0}, "KMDW": {"distance": 697.0, "latitude": 41.78, "longitude": -87.75, "useCount": 0, "id": "KMDW", "name": "KMDW", "quality": 100, "contribution": 0.0}, "72530094846": {"distance": 24427.0, "latitude": 41.96, "longitude": -87.932, "useCount": 0, "id": "72530094846", "name": "CHICAGO OHARE INTERNATIONAL AIRPORT, IL US", "quality": 100, "contribution": 0.0}, "KIGQ": {"distance": 33045.0, "latitude": 41.54, "longitude": -87.53, "useCount": 0, "id": "KIGQ", "name": "KIGQ", "quality": 100, "contribution": 0.0}}}