{"queryCost": 1, "latitude": 41.785999, "longitude": -87.752403, "resolvedAddress": "41.785999, -87.752403", "address": "41.785999, -87.752403", "timezone": "America/Chicago", "tzoffset": -5.0, "days": [{"datetime": "2018-08-17", "datetimeEpoch": 1534482000, "tempmax": 27.8, "tempmin": 21.1, "temp": 24.0, "feelslikemax": 29.8, "feelslikemin": 21.1, "feelslike": 24.2, "dew": 20.6, "humidity": 82.06, "precip": 5.3, "precipprob": null, "precipcover": 20.83, "preciptype": null, "snow": 0.0, "snowdepth": 0.0, "windgust": 40.7, "windspeed": 24.1, "winddir": 175.5, "pressure": 1013.1, "cloudcover": 87.1, "visibility": 14.2, "solarradiation": 292.1, "solarenergy": 15.8, "sunrise": "06:01:20", "sunriseEpoch": 1534503680, "sunset": "19:48:01", "sunsetEpoch": 1534553281, "moonphase": 0.21, "conditions": "Rain, Overcast", "icon": "rain", "stations": ["72534014819", "72212604879", "KORD", "KMDW", "72530094846", "KIGQ"], "source": "obs", "hours": null}], "stations": {"72534014819": {"distance": 20.0, "latitude": 41.786, "longitude": -87.752, "useCount": 0, "id": "72534014819", "name": "CHICAGO MIDWAY AIRPORT, IL US", "quality": 100, "contribution": 0.0}, "72212604879": {"distance": 32985.0, "latitude": 41.54, "longitude": -87.532, "useCount": 0, "id": "72212604879", "name": "CHICAGO LANSING MUNICIPAL AIRPORT, IL US", "quality": 100, "contribution": 0.0}, "KORD": {"distance": 24820.0, "latitude": 41.98, "longitude": -87.9, "useCount": 0, "id": "KORD", "name": "KORD", "quality": 100, "contribution": 0.0}, "KMDW": {"distance": 697.0, "latitude": 41.78, "longitude": -87.75, "useCount": 0, "id": "KMDW", "name": "KMDW", "quality": 100, "contribution": 0.0}, "72530094846": {"distance": 24427.0, "latitude": 41.96, "longitude": -87.932, "useCount": 0, "id": "72530094846", "name": "CHICAGO OHARE INTERNATIONAL AIRPORT, IL US", "quality": 100, "contribution": 0.0}, "KIGQ": {"distance": 33045.0, "latitude": 41.54, "longitude": -87.53, "useCount": 0, "id": "KIGQ", "name": "KIGQ", "quality": 100, "contribution": 0.0}}}