{"queryCost": 1, "latitude": 35.04240036010742, "longitude": -89.97669982910156, "resolvedAddress": "35.04240036010742, -89.97669982910156", "address": "35.04240036010742, -89.97669982910156", "timezone": "America/Chicago", "tzoffset": -6.0, "days": [{"datetime": "2020-01-01", "datetimeEpoch": 1577858400, "tempmax": 12.8, "tempmin": 0.7, "temp": 7.2, "feelslikemax": 12.8, "feelslikemin": -2.3, "feelslike": 6.3, "dew": -2.7, "humidity": 52.32, "precip": 0.0, "precipprob": null, "precipcover": 0.0, "preciptype": null, "snow": 0.0, "snowdepth": 0.0, "windgust": 31.7, "windspeed": 22.3, "winddir": 167.1, "pressure": 1015.6, "cloudcover": 80.4, "visibility": 16.0, "solarradiation": 180.7, "solarenergy": 7.2, "sunrise": "07:08:04", "sunriseEpoch": 1577884084, "sunset": "16:58:46", "sunsetEpoch": 1577919526, "moonphase": 0.17, "conditions": "Overcast", "icon": "cloudy", "stations": ["KNQA", "72334013893", "KMEM", "KOLV", "72205453959", "KAWM"], "source": "obs", "hours": null}], "stations": {"KNQA": {"distance": 35591.0, "latitude": 35.35, "longitude": -89.87, "useCount": 0, "id": "KNQA", "name": "KNQA", "quality": 99, "contribution": 0.0}, "72334013893": {"distance": 1796.0, "latitude": 35.056, "longitude": -89.986, "useCount": 0, "id": "72334013893", "name": "MEMPHIS INTERNATIONAL AIRPORT, TN US", "quality": 100, "contribution": 0.0}, "KMEM": {"distance": 2140.0, "latitude": 35.04, "longitude": -90.0, "useCount": 0, "id": "KMEM", "name": "KMEM", "quality": 100, "contribution": 0.0}, "KOLV": {"distance": 18835.0, "latitude": 34.97, "longitude": -89.79, "useCount": 0, "id": "KOLV", "name": "KOLV", "quality": 100, "contribution": 0.0}, "72205453959": {"distance": 25637.0, "latitude": 35.135, "longitude": -90.234, "useCount": 0, "id": "72205453959", "name": "WEST MEMPHIS MUNICIPAL AIRPORT, AR US", "quality": 100, "contribution": 0.0}, "KAWM": {"distance": 25502.0, "latitude": 35.14, "longitude": -90.23, "useCount": 0, "id": "KAWM", "name": "WEST MEMPHIS MUN, AR", "quality": 100, "contribution": 0.0}}}