{"queryCost": 1, "latitude": 35.04240036010742, "longitude": -89.97669982910156, "resolvedAddress": "35.04240036010742, -89.97669982910156", "address": "35.04240036010742, -89.97669982910156", "timezone": "America/Chicago", "tzoffset": -6.0, "days": [{"datetime": "2019-02-06", "datetimeEpoch": 1549432800, "tempmax": 22.2, "tempmin": 16.7, "temp": 19.9, "feelslikemax": 22.2, "feelslikemin": 16.7, "feelslike": 19.9, "dew": 18.5, "humidity": 92.02, "precip": 2.71, "precipprob": null, "precipcover": 37.5, "preciptype": null, "snow": 0.0, "snowdepth": 0.0, "windgust": 40.7, "windspeed": 27.7, "winddir": 183.5, "pressure": 1012.5, "cloudcover": 91.9, "visibility": 14.2, "solarradiation": 49.2, "solarenergy": 1.8, "sunrise": "06:54:52", "sunriseEpoch": 1549457692, "sunset": "17:33:31", "sunsetEpoch": 1549496011, "moonphase": 0.01, "conditions": "Rain, Overcast", "icon": "rain", "stations": ["KNQA", "72334013893", "KMEM", "KOLV", "72205453959", "KAWM"], "source": "obs", "hours": null}], "stations": {"KNQA": {"distance": 35591.0, "latitude": 35.35, "longitude": -89.87, "useCount": 0, "id": "KNQA", "name": "KNQA", "quality": 99, "contribution": 0.0}, "72334013893": {"distance": 1796.0, "latitude": 35.056, "longitude": -89.986, "useCount": 0, "id": "72334013893", "name": "MEMPHIS INTERNATIONAL AIRPORT, TN US", "quality": 100, "contribution": 0.0}, "KMEM": {"distance": 2140.0, "latitude": 35.04, "longitude": -90.0, "useCount": 0, "id": "KMEM", "name": "KMEM", "quality": 100, "contribution": 0.0}, "KOLV": {"distance": 18835.0, "latitude": 34.97, "longitude": -89.79, "useCount": 0, "id": "KOLV", "name": "KOLV", "quality": 100, "contribution": 0.0}, "72205453959": {"distance": 25637.0, "latitude": 35.135, "longitude": -90.234, "useCount": 0, "id": "72205453959", "name": "WEST MEMPHIS MUNICIPAL AIRPORT, AR US", "quality": 100, "contribution": 0.0}, "KAWM": {"distance": 25502.0, "latitude": 35.14, "longitude": -90.23, "useCount": 0, "id": "KAWM", "name": "WEST MEMPHIS MUN, AR", "quality": 100, "contribution": 0.0}}}