{"queryCost": 1, "latitude": 26.17580032, "longitude": -98.23860168, "resolvedAddress": "26.17580032, -98.23860168", "address": "26.17580032, -98.23860168", "timezone": "America/Chicago", "tzoffset": -6.0, "days": [{"datetime": "2020-01-03", "datetimeEpoch": 1578031200, "tempmax": 23.8, "tempmin": 15.6, "temp": 18.8, "feelslikemax": 23.8, "feelslikemin": 15.6, "feelslike": 18.7, "dew": 7.6, "humidity": 53.47, "precip": 0.0, "precipprob": null, "precipcover": 0.0, "preciptype": null, "snow": 0.0, "snowdepth": 0.0, "windgust": 59.3, "windspeed": 38.9, "winddir": 310.4, "pressure": 1015.1, "cloudcover": 0.0, "visibility": 14.5, "solarradiation": 344.2, "solarenergy": 14.9, "sunrise": "07:21:01", "sunriseEpoch": 1578057661, "sunset": "17:53:46", "sunsetEpoch": 1578095626, "moonphase": 0.26, "conditions": "Clear", "icon": "wind", "stations": ["KMFE", "72027612983", "72215912980", "72250612959", "KEBG"], "source": "obs", "hours": null}], "stations": {"72215912980": {"distance": 26525.0, "latitude": 26.178, "longitude": -97.973, "useCount": 0, "id": "72215912980", "name": "WESLACO MID VALLEY AIRPORT, TX US", "quality": 100, "contribution": 0.0}, "72250612959": {"distance": 1774.0, "latitude": 26.184, "longitude": -98.254, "useCount": 0, "id": "72250612959", "name": "MCALLEN MILLER INTERNATIONAL AIRPORT, TX US", "quality": 100, "contribution": 0.0}, "KMFE": {"distance": 978.0, "latitude": 26.18, "longitude": -98.23, "useCount": 0, "id": "KMFE", "name": "KMFE", "quality": 100, "contribution": 0.0}, "KEBG": {"distance": 30673.0, "latitude": 26.43, "longitude": -98.12, "useCount": 0, "id": "KEBG", "name": "KEBG", "quality": 98, "contribution": 0.0}, "72027612983": {"distance": 31563.0, "latitude": 26.442, "longitude": -98.129, "useCount": 0, "id": "72027612983", "name": "EDINBURG INTERNATIONAL AIRPORT, TX US", "quality": 100, "contribution": 0.0}}}