{"queryCost": 1, "latitude": 42.37419891357422, "longitude": -122.87300109863281, "resolvedAddress": "42.37419891357422, -122.87300109863281", "address": "42.37419891357422, -122.87300109863281", "timezone": "America/Los_Angeles", "tzoffset": -7.0, "days": [{"datetime": "2018-04-12", "datetimeEpoch": 1523516400, "tempmax": 11.1, "tempmin": 3.3, "temp": 6.4, "feelslikemax": 11.1, "feelslikemin": 0.2, "feelslike": 4.9, "dew": 0.0, "humidity": 65.33, "precip": 0.0, "precipprob": null, "precipcover": 37.5, "preciptype": null, "snow": 0.0, "snowdepth": 0.0, "windgust": 42.5, "windspeed": 27.7, "winddir": 235.5, "pressure": 1021.4, "cloudcover": 75.5, "visibility": 16.0, "solarradiation": 323.3, "solarenergy": 16.3, "sunrise": "06:35:07", "sunriseEpoch": 1523540107, "sunset": "19:50:00", "sunsetEpoch": 1523587800, "moonphase": 0.94, "conditions": "Overcast", "icon": "cloudy", "stations": ["KSXT", "72595524259", "72597024225", "KSIY", "72597524235", "KMFR"], "source": "obs", "hours": null}], "stations": {"KSXT": {"distance": 49119.0, "latitude": 42.62, "longitude": -123.37, "useCount": 0, "id": "KSXT", "name": "KSXT", "quality": 98, "contribution": 0.0}, "72595524259": {"distance": 73990.0, "latitude": 41.781, "longitude": -122.468, "useCount": 0, "id": "72595524259", "name": "MONTAGUE SISKIYOU AIRPORT, CA US", "quality": 100, "contribution": 0.0}, "72597024225": {"distance": 341.0, "latitude": 42.375, "longitude": -122.877, "useCount": 0, "id": "72597024225", "name": "MEDFORD INTERNATIONAL AIRPORT, OR US", "quality": 100, "contribution": 0.0}, "KSIY": {"distance": 74054.0, "latitude": 41.78, "longitude": -122.47, "useCount": 0, "id": "KSIY", "name": "KSIY", "quality": 100, "contribution": 0.0}, "72597524235": {"distance": 47519.0, "latitude": 42.6, "longitude": -123.364, "useCount": 0, "id": "72597524235", "name": "SEXTON SUMMIT, OR US", "quality": 100, "contribution": 0.0}, "KMFR": {"distance": 529.0, "latitude": 42.37, "longitude": -122.87, "useCount": 0, "id": "KMFR", "name": "KMFR", "quality": 100, "contribution": 0.0}}}