{"queryCost": 1, "latitude": 42.37419891357422, "longitude": -122.87300109863281, "resolvedAddress": "42.37419891357422, -122.87300109863281", "address": "42.37419891357422, -122.87300109863281", "timezone": "America/Los_Angeles", "tzoffset": -8.0, "days": [{"datetime": "2020-01-06", "datetimeEpoch": 1578297600, "tempmax": 9.3, "tempmin": 1.1, "temp": 4.5, "feelslikemax": 9.3, "feelslikemin": -0.6, "feelslike": 3.9, "dew": 1.6, "humidity": 82.08, "precip": 0.0, "precipprob": null, "precipcover": 0.0, "preciptype": null, "snow": 0.0, "snowdepth": 0.0, "windgust": 35.3, "windspeed": 11.2, "winddir": 187.1, "pressure": 1033.9, "cloudcover": 55.8, "visibility": 15.2, "solarradiation": 169.8, "solarenergy": 6.1, "sunrise": "07:40:51", "sunriseEpoch": 1578325251, "sunset": "16:53:54", "sunsetEpoch": 1578358434, "moonphase": 0.4, "conditions": "Partially cloudy", "icon": "partly-cloudy-day", "stations": ["KSXT", "72595524259", "72597024225", "KSIY", "72597524235", "KMFR"], "source": "obs", "hours": null}], "stations": {"KSXT": {"distance": 49119.0, "latitude": 42.62, "longitude": -123.37, "useCount": 0, "id": "KSXT", "name": "KSXT", "quality": 98, "contribution": 0.0}, "72595524259": {"distance": 73990.0, "latitude": 41.781, "longitude": -122.468, "useCount": 0, "id": "72595524259", "name": "MONTAGUE SISKIYOU AIRPORT, CA US", "quality": 100, "contribution": 0.0}, "72597024225": {"distance": 341.0, "latitude": 42.375, "longitude": -122.877, "useCount": 0, "id": "72597024225", "name": "MEDFORD INTERNATIONAL AIRPORT, OR US", "quality": 100, "contribution": 0.0}, "KSIY": {"distance": 74054.0, "latitude": 41.78, "longitude": -122.47, "useCount": 0, "id": "KSIY", "name": "KSIY", "quality": 100, "contribution": 0.0}, "72597524235": {"distance": 47519.0, "latitude": 42.6, "longitude": -123.364, "useCount": 0, "id": "72597524235", "name": "SEXTON SUMMIT, OR US", "quality": 100, "contribution": 0.0}, "KMFR": {"distance": 529.0, "latitude": 42.37, "longitude": -122.87, "useCount": 0, "id": "KMFR", "name": "KMFR", "quality": 100, "contribution": 0.0}}}