{"queryCost": 1, "latitude": 42.37419891357422, "longitude": -122.87300109863281, "resolvedAddress": "42.37419891357422, -122.87300109863281", "address": "42.37419891357422, -122.87300109863281", "timezone": "America/Los_Angeles", "tzoffset": -8.0, "days": [{"datetime": "2020-01-03", "datetimeEpoch": 1578038400, "tempmax": 7.2, "tempmin": 0.7, "temp": 2.9, "feelslikemax": 6.4, "feelslikemin": -1.0, "feelslike": 2.4, "dew": 1.2, "humidity": 89.04, "precip": 0.0, "precipprob": null, "precipcover": 0.0, "preciptype": null, "snow": 0.0, "snowdepth": 0.0, "windgust": 61.9, "windspeed": 7.6, "winddir": 155.3, "pressure": 1021.3, "cloudcover": 33.0, "visibility": 9.2, "solarradiation": 120.4, "solarenergy": 4.3, "sunrise": "07:40:58", "sunriseEpoch": 1578066058, "sunset": "16:51:02", "sunsetEpoch": 1578099062, "moonphase": 0.26, "conditions": "Partially cloudy", "icon": "partly-cloudy-day", "stations": ["KSXT", "72595524259", "72597024225", "KSIY", "72597524235", "KMFR"], "source": "obs", "hours": null}], "stations": {"KSXT": {"distance": 49119.0, "latitude": 42.62, "longitude": -123.37, "useCount": 0, "id": "KSXT", "name": "KSXT", "quality": 98, "contribution": 0.0}, "72595524259": {"distance": 73990.0, "latitude": 41.781, "longitude": -122.468, "useCount": 0, "id": "72595524259", "name": "MONTAGUE SISKIYOU AIRPORT, CA US", "quality": 100, "contribution": 0.0}, "72597024225": {"distance": 341.0, "latitude": 42.375, "longitude": -122.877, "useCount": 0, "id": "72597024225", "name": "MEDFORD INTERNATIONAL AIRPORT, OR US", "quality": 100, "contribution": 0.0}, "KSIY": {"distance": 74054.0, "latitude": 41.78, "longitude": -122.47, "useCount": 0, "id": "KSIY", "name": "KSIY", "quality": 100, "contribution": 0.0}, "72597524235": {"distance": 47519.0, "latitude": 42.6, "longitude": -123.364, "useCount": 0, "id": "72597524235", "name": "SEXTON SUMMIT, OR US", "quality": 100, "contribution": 0.0}, "KMFR": {"distance": 529.0, "latitude": 42.37, "longitude": -122.87, "useCount": 0, "id": "KMFR", "name": "KMFR", "quality": 100, "contribution": 0.0}}}