{"queryCost": 1, "latitude": 42.37419891357422, "longitude": -122.87300109863281, "resolvedAddress": "42.37419891357422, -122.87300109863281", "address": "42.37419891357422, -122.87300109863281", "timezone": "America/Los_Angeles", "tzoffset": -8.0, "days": [{"datetime": "2020-01-01", "datetimeEpoch": 1577865600, "tempmax": 12.8, "tempmin": 5.0, "temp": 7.6, "feelslikemax": 12.8, "feelslikemin": 4.0, "feelslike": 7.2, "dew": 4.7, "humidity": 82.97, "precip": 1.9, "precipprob": null, "precipcover": 29.17, "preciptype": null, "snow": 0.0, "snowdepth": 0.0, "windgust": 50.1, "windspeed": 14.8, "winddir": 250.8, "pressure": 1020.1, "cloudcover": 70.6, "visibility": 10.5, "solarradiation": 96.4, "solarenergy": 3.5, "sunrise": "07:40:52", "sunriseEpoch": 1577893252, "sunset": "16:49:15", "sunsetEpoch": 1577926155, "moonphase": 0.17, "conditions": "Rain, Partially cloudy", "icon": "rain", "stations": ["KSXT", "72595524259", "72597024225", "KSIY", "72597524235", "KMFR"], "source": "obs", "hours": null}], "stations": {"KSXT": {"distance": 49119.0, "latitude": 42.62, "longitude": -123.37, "useCount": 0, "id": "KSXT", "name": "KSXT", "quality": 98, "contribution": 0.0}, "72595524259": {"distance": 73990.0, "latitude": 41.781, "longitude": -122.468, "useCount": 0, "id": "72595524259", "name": "MONTAGUE SISKIYOU AIRPORT, CA US", "quality": 100, "contribution": 0.0}, "72597024225": {"distance": 341.0, "latitude": 42.375, "longitude": -122.877, "useCount": 0, "id": "72597024225", "name": "MEDFORD INTERNATIONAL AIRPORT, OR US", "quality": 100, "contribution": 0.0}, "KSIY": {"distance": 74054.0, "latitude": 41.78, "longitude": -122.47, "useCount": 0, "id": "KSIY", "name": "KSIY", "quality": 100, "contribution": 0.0}, "72597524235": {"distance": 47519.0, "latitude": 42.6, "longitude": -123.364, "useCount": 0, "id": "72597524235", "name": "SEXTON SUMMIT, OR US", "quality": 100, "contribution": 0.0}, "KMFR": {"distance": 529.0, "latitude": 42.37, "longitude": -122.87, "useCount": 0, "id": "KMFR", "name": "KMFR", "quality": 100, "contribution": 0.0}}}