{"queryCost": 1, "latitude": 32.30059814, "longitude": -86.39399719, "resolvedAddress": "32.30059814, -86.39399719", "address": "32.30059814, -86.39399719", "timezone": "America/Chicago", "tzoffset": -6.0, "days": [{"datetime": "2020-01-07", "datetimeEpoch": 1578376800, "tempmax": 16.7, "tempmin": 5.0, "temp": 12.2, "feelslikemax": 16.7, "feelslikemin": 2.8, "feelslike": 11.8, "dew": 2.2, "humidity": 53.49, "precip": 0.0, "precipprob": null, "precipcover": 0.0, "preciptype": null, "snow": 0.0, "snowdepth": 0.0, "windgust": 38.9, "windspeed": 29.3, "winddir": 271.4, "pressure": 1022.9, "cloudcover": 12.3, "visibility": 16.0, "solarradiation": 347.1, "solarenergy": 13.7, "uvindex": 6.0, "sunrise": "06:47:44", "sunriseEpoch": 1578401264, "sunset": "16:55:54", "sunsetEpoch": 1578437754, "moonphase": 0.44, "conditions": "Clear", "description": "Partly cloudly.", "icon": "clear-day", "stations": ["KMXF", "72226513821", "99999963897", "72226013895", "KMGM", "K1A9"], "source": "obs", "hours": null}], "stations": {"KMXF": {"distance": 9123.0, "latitude": 32.38, "longitude": -86.37, "useCount": 0, "id": "KMXF", "name": "KMXF", "quality": 100, "contribution": 0.0}, "72226513821": {"distance": 10094.0, "latitude": 32.383, "longitude": -86.35, "useCount": 0, "id": "72226513821", "name": "MAXWELL AFB, AL US", "quality": 100, "contribution": 0.0}, "99999963897": {"distance": 55139.0, "latitude": 32.335, "longitude": -86.979, "useCount": 0, "id": "99999963897", "name": "SELMA 6 SSE, AL US", "quality": 100, "contribution": 0.0}, "72226013895": {"distance": 1274.0, "latitude": 32.3, "longitude": -86.407, "useCount": 0, "id": "72226013895", "name": "MONTGOMERY AIRPORT, AL US", "quality": 100, "contribution": 0.0}, "KMGM": {"distance": 1308.0, "latitude": 32.29, "longitude": -86.4, "useCount": 0, "id": "KMGM", "name": "KMGM", "quality": 100, "contribution": 0.0}, "K1A9": {"distance": 18069.0, "latitude": 32.43, "longitude": -86.51, "useCount": 0, "id": "K1A9", "name": "K1A9", "quality": 98, "contribution": 0.0}}}