{"queryCost": 1, "latitude": 42.932598, "longitude": -71.435699, "resolvedAddress": "42.932598, -71.435699", "address": "42.932598, -71.435699", "timezone": "America/New_York", "tzoffset": -4.0, "days": [{"datetime": "2019-04-14", "datetimeEpoch": 1555214400, "tempmax": 21.7, "tempmin": 8.4, "temp": 14.5, "feelslikemax": 21.7, "feelslikemin": 6.8, "feelslike": 14.4, "dew": 3.0, "humidity": 51.94, "precip": 2.07, "precipprob": null, "precipcover": 8.33, "preciptype": null, "snow": 0.0, "snowdepth": 0.0, "windgust": 33.5, "windspeed": 18.4, "winddir": 144.7, "pressure": 1012.8, "cloudcover": 73.2, "visibility": 15.8, "solarradiation": 283.3, "solarenergy": 14.3, "sunrise": "06:06:01", "sunriseEpoch": 1555236361, "sunset": "19:26:50", "sunsetEpoch": 1555284410, "moonphase": 0.35, "conditions": "Rain, Partially cloudy", "icon": "rain", "stations": ["KCON", "72605014745", "KASH", "74394514710", "KMHT", "74394654754"], "source": "obs", "hours": null}], "stations": {"KCON": {"distance": 30223.0, "latitude": 43.2, "longitude": -71.5, "useCount": 0, "id": "KCON", "name": "KCON", "quality": 100, "contribution": 0.0}, "72605014745": {"distance": 30798.0, "latitude": 43.205, "longitude": -71.503, "useCount": 0, "id": "72605014745", "name": "CONCORD ASOS, NH US", "quality": 100, "contribution": 0.0}, "KASH": {"distance": 18327.0, "latitude": 42.78, "longitude": -71.52, "useCount": 0, "id": "KASH", "name": "NASHUA/BOIRE FIE, NH", "quality": 100, "contribution": 0.0}, "74394514710": {"distance": 334.0, "latitude": 42.93, "longitude": -71.436, "useCount": 0, "id": "74394514710", "name": "MANCHESTER AIRPORT, NH US", "quality": 100, "contribution": 0.0}, "KMHT": {"distance": 547.0, "latitude": 42.93, "longitude": -71.43, "useCount": 0, "id": "KMHT", "name": "KMHT", "quality": 100, "contribution": 0.0}, "74394654754": {"distance": 17886.0, "latitude": 42.783, "longitude": -71.517, "useCount": 0, "id": "74394654754", "name": "NASHUA BOIRE FIELD, NH US", "quality": 100, "contribution": 0.0}}}