{"queryCost": 1, "latitude": 42.947200775146484, "longitude": -87.89659881591797, "resolvedAddress": "42.947200775146484, -87.89659881591797", "address": "42.947200775146484, -87.89659881591797", "timezone": "America/Chicago", "tzoffset": -5.0, "days": [{"datetime": "2018-06-04", "datetimeEpoch": 1528088400, "tempmax": 27.2, "tempmin": 13.3, "temp": 20.7, "feelslikemax": 26.7, "feelslikemin": 13.3, "feelslike": 20.6, "dew": 8.7, "humidity": 48.25, "precip": 0.0, "precipprob": null, "precipcover": 0.0, "preciptype": null, "snow": 0.0, "snowdepth": 0.0, "windgust": 68.4, "windspeed": 37.1, "winddir": 282.9, "pressure": 1013.0, "cloudcover": 32.6, "visibility": 16.0, "solarradiation": 460.9, "solarenergy": 26.6, "sunrise": "05:14:08", "sunriseEpoch": 1528107248, "sunset": "20:26:08", "sunsetEpoch": 1528161968, "moonphase": 0.65, "conditions": "Partially cloudy", "icon": "wind", "stations": ["KENW", "72640014839", "72650504845", "KRAC", "KMKE", "72642494818"], "source": "obs", "hours": null}], "stations": {"KENW": {"distance": 38746.0, "latitude": 42.6, "longitude": -87.93, "useCount": 0, "id": "KENW", "name": "KENW", "quality": 100, "contribution": 0.0}, "72640014839": {"distance": 1076.0, "latitude": 42.955, "longitude": -87.904, "useCount": 0, "id": "72640014839", "name": "MILWAUKEE MITCHELL INTERNATIONAL AIRPORT, WI US", "quality": 100, "contribution": 0.0}, "72650504845": {"distance": 39353.0, "latitude": 42.595, "longitude": -87.938, "useCount": 0, "id": "72650504845", "name": "KENOSHA REGIONAL AIRPORT, WI US", "quality": 100, "contribution": 0.0}, "KRAC": {"distance": 22005.0, "latitude": 42.76, "longitude": -87.81, "useCount": 0, "id": "KRAC", "name": "KRAC", "quality": 100, "contribution": 0.0}, "KMKE": {"distance": 417.0, "latitude": 42.95, "longitude": -87.9, "useCount": 0, "id": "KMKE", "name": "KMKE", "quality": 100, "contribution": 0.0}, "72642494818": {"distance": 21796.0, "latitude": 42.761, "longitude": -87.814, "useCount": 0, "id": "72642494818", "name": "RACINE BATTEN AIRPORT, WI US", "quality": 100, "contribution": 0.0}}}