{"queryCost": 1, "latitude": 42.947200775146484, "longitude": -87.89659881591797, "resolvedAddress": "42.947200775146484, -87.89659881591797", "address": "42.947200775146484, -87.89659881591797", "timezone": "America/Chicago", "tzoffset": -6.0, "days": [{"datetime": "2020-01-06", "datetimeEpoch": 1578290400, "tempmax": 6.7, "tempmin": -2.2, "temp": 2.1, "feelslikemax": 3.9, "feelslikemin": -7.6, "feelslike": -2.1, "dew": -6.5, "humidity": 53.96, "precip": 0.0, "precipprob": null, "precipcover": 0.0, "preciptype": null, "snow": 0.0, "snowdepth": 0.0, "windgust": 43.1, "windspeed": 22.3, "winddir": 259.2, "pressure": 1018.1, "cloudcover": 38.9, "visibility": 16.0, "solarradiation": 159.2, "solarenergy": 5.7, "sunrise": "07:22:47", "sunriseEpoch": 1578316967, "sunset": "16:32:04", "sunsetEpoch": 1578349924, "moonphase": 0.4, "conditions": "Partially cloudy", "icon": "partly-cloudy-day", "stations": ["KENW", "72640014839", "72650504845", "KRAC", "KMKE", "72642494818"], "source": "obs", "hours": null}], "stations": {"KENW": {"distance": 38746.0, "latitude": 42.6, "longitude": -87.93, "useCount": 0, "id": "KENW", "name": "KENW", "quality": 100, "contribution": 0.0}, "72640014839": {"distance": 1076.0, "latitude": 42.955, "longitude": -87.904, "useCount": 0, "id": "72640014839", "name": "MILWAUKEE MITCHELL INTERNATIONAL AIRPORT, WI US", "quality": 100, "contribution": 0.0}, "72650504845": {"distance": 39353.0, "latitude": 42.595, "longitude": -87.938, "useCount": 0, "id": "72650504845", "name": "KENOSHA REGIONAL AIRPORT, WI US", "quality": 100, "contribution": 0.0}, "KRAC": {"distance": 22005.0, "latitude": 42.76, "longitude": -87.81, "useCount": 0, "id": "KRAC", "name": "KRAC", "quality": 100, "contribution": 0.0}, "KMKE": {"distance": 417.0, "latitude": 42.95, "longitude": -87.9, "useCount": 0, "id": "KMKE", "name": "KMKE", "quality": 100, "contribution": 0.0}, "72642494818": {"distance": 21796.0, "latitude": 42.761, "longitude": -87.814, "useCount": 0, "id": "72642494818", "name": "RACINE BATTEN AIRPORT, WI US", "quality": 100, "contribution": 0.0}}}