{"queryCost": 1, "latitude": 42.947200775146484, "longitude": -87.89659881591797, "resolvedAddress": "42.947200775146484, -87.89659881591797", "address": "42.947200775146484, -87.89659881591797", "timezone": "America/Chicago", "tzoffset": -6.0, "days": [{"datetime": "2020-01-01", "datetimeEpoch": 1577858400, "tempmax": 5.7, "tempmin": -8.3, "temp": -1.5, "feelslikemax": 1.5, "feelslikemin": -14.9, "feelslike": -6.1, "dew": -6.6, "humidity": 69.14, "precip": 0.0, "precipprob": null, "precipcover": 0.0, "preciptype": null, "snow": 0.0, "snowdepth": 3.77, "windgust": 51.8, "windspeed": 31.7, "winddir": 215.8, "pressure": 1004.9, "cloudcover": 44.6, "visibility": 16.0, "solarradiation": 148.4, "solarenergy": 5.3, "sunrise": "07:22:50", "sunriseEpoch": 1577884970, "sunset": "16:27:23", "sunsetEpoch": 1577917643, "moonphase": 0.17, "conditions": "Partially cloudy", "icon": "wind", "stations": ["KENW", "72640014839", "72650504845", "KRAC", "KMKE", "72642494818"], "source": "obs", "hours": null}], "stations": {"KENW": {"distance": 38746.0, "latitude": 42.6, "longitude": -87.93, "useCount": 0, "id": "KENW", "name": "KENW", "quality": 100, "contribution": 0.0}, "72640014839": {"distance": 1076.0, "latitude": 42.955, "longitude": -87.904, "useCount": 0, "id": "72640014839", "name": "MILWAUKEE MITCHELL INTERNATIONAL AIRPORT, WI US", "quality": 100, "contribution": 0.0}, "72650504845": {"distance": 39353.0, "latitude": 42.595, "longitude": -87.938, "useCount": 0, "id": "72650504845", "name": "KENOSHA REGIONAL AIRPORT, WI US", "quality": 100, "contribution": 0.0}, "KRAC": {"distance": 22005.0, "latitude": 42.76, "longitude": -87.81, "useCount": 0, "id": "KRAC", "name": "KRAC", "quality": 100, "contribution": 0.0}, "KMKE": {"distance": 417.0, "latitude": 42.95, "longitude": -87.9, "useCount": 0, "id": "KMKE", "name": "KMKE", "quality": 100, "contribution": 0.0}, "72642494818": {"distance": 21796.0, "latitude": 42.761, "longitude": -87.814, "useCount": 0, "id": "72642494818", "name": "RACINE BATTEN AIRPORT, WI US", "quality": 100, "contribution": 0.0}}}