{"queryCost": 1, "latitude": 42.947200775146484, "longitude": -87.89659881591797, "resolvedAddress": "42.947200775146484, -87.89659881591797", "address": "42.947200775146484, -87.89659881591797", "timezone": "America/Chicago", "tzoffset": -6.0, "days": [{"datetime": "2018-02-11", "datetimeEpoch": 1518328800, "tempmax": -3.9, "tempmin": -8.9, "temp": -7.3, "feelslikemax": -9.5, "feelslikemin": -15.3, "feelslike": -13.3, "dew": -12.1, "humidity": 70.01, "precip": 8.36, "precipprob": null, "precipcover": 41.67, "preciptype": null, "snow": 3.45, "snowdepth": 22.07, "windgust": 33.5, "windspeed": 20.5, "winddir": 294.2, "pressure": 1018.5, "cloudcover": 75.1, "visibility": 9.3, "solarradiation": 83.3, "solarenergy": 3.3, "sunrise": "06:54:24", "sunriseEpoch": 1518353664, "sunset": "17:17:48", "sunsetEpoch": 1518391068, "moonphase": 0.92, "conditions": "Snow, Overcast", "icon": "snow", "stations": ["KENW", "72640014839", "72650504845", "KRAC", "KMKE", "72642494818"], "source": "obs", "hours": null}], "stations": {"KENW": {"distance": 38746.0, "latitude": 42.6, "longitude": -87.93, "useCount": 0, "id": "KENW", "name": "KENW", "quality": 100, "contribution": 0.0}, "72640014839": {"distance": 1076.0, "latitude": 42.955, "longitude": -87.904, "useCount": 0, "id": "72640014839", "name": "MILWAUKEE MITCHELL INTERNATIONAL AIRPORT, WI US", "quality": 100, "contribution": 0.0}, "72650504845": {"distance": 39353.0, "latitude": 42.595, "longitude": -87.938, "useCount": 0, "id": "72650504845", "name": "KENOSHA REGIONAL AIRPORT, WI US", "quality": 100, "contribution": 0.0}, "KRAC": {"distance": 22005.0, "latitude": 42.76, "longitude": -87.81, "useCount": 0, "id": "KRAC", "name": "KRAC", "quality": 100, "contribution": 0.0}, "KMKE": {"distance": 417.0, "latitude": 42.95, "longitude": -87.9, "useCount": 0, "id": "KMKE", "name": "KMKE", "quality": 100, "contribution": 0.0}, "72642494818": {"distance": 21796.0, "latitude": 42.761, "longitude": -87.814, "useCount": 0, "id": "72642494818", "name": "RACINE BATTEN AIRPORT, WI US", "quality": 100, "contribution": 0.0}}}