{"queryCost": 1, "latitude": 43.169498, "longitude": -86.238197, "resolvedAddress": "43.169498, -86.238197", "address": "43.169498, -86.238197", "timezone": "America/Detroit", "tzoffset": -5.0, "days": [{"datetime": "2020-01-04", "datetimeEpoch": 1578114000, "tempmax": 1.1, "tempmin": -0.7, "temp": 0.3, "feelslikemax": -0.4, "feelslikemin": -6.4, "feelslike": -3.5, "dew": -4.9, "humidity": 68.49, "precip": 0.3, "precipprob": null, "precipcover": 4.17, "preciptype": null, "snow": 0.0, "snowdepth": 0.0, "windgust": 38.9, "windspeed": 25.9, "winddir": 257.9, "pressure": 1014.4, "cloudcover": 99.5, "visibility": 15.9, "solarradiation": 58.9, "solarenergy": 1.9, "sunrise": "08:17:01", "sunriseEpoch": 1578143821, "sunset": "17:22:44", "sunsetEpoch": 1578176564, "moonphase": 0.31, "conditions": "Rain, Overcast", "icon": "rain", "stations": ["72635094860", "72636014840", "KBIV", "72539404839", "KMKG", "KGRR"], "source": "obs", "hours": null}], "stations": {"72635094860": {"distance": 66330.0, "latitude": 42.883, "longitude": -85.524, "useCount": 0, "id": "72635094860", "name": "GRAND RAPIDS GERALD R FORD INTERNATIONAL AIRPORT, MI US", "quality": 100, "contribution": 0.0}, "72636014840": {"distance": 216.0, "latitude": 43.171, "longitude": -86.237, "useCount": 0, "id": "72636014840", "name": "MUSKEGON CO AIRPORT, MI US", "quality": 100, "contribution": 0.0}, "KBIV": {"distance": 48036.0, "latitude": 42.75, "longitude": -86.1, "useCount": 0, "id": "KBIV", "name": "KBIV", "quality": 100, "contribution": 0.0}, "72539404839": {"distance": 48522.0, "latitude": 42.746, "longitude": -86.097, "useCount": 0, "id": "72539404839", "name": "HOLLAND TULIP CITY AIRPORT, MI US", "quality": 100, "contribution": 0.0}, "KMKG": {"distance": 960.0, "latitude": 43.17, "longitude": -86.25, "useCount": 0, "id": "KMKG", "name": "KMKG", "quality": 100, "contribution": 0.0}, "KGRR": {"distance": 66743.0, "latitude": 42.88, "longitude": -85.52, "useCount": 0, "id": "KGRR", "name": "KGRR", "quality": 100, "contribution": 0.0}}}