{"queryCost": 1, "latitude": 28.102800369262695, "longitude": -80.64530181884766, "resolvedAddress": "28.102800369262695, -80.64530181884766", "address": "28.102800369262695, -80.64530181884766", "timezone": "America/New_York", "tzoffset": -5.0, "days": [{"datetime": "2020-01-05", "datetimeEpoch": 1578200400, "tempmax": 16.2, "tempmin": 8.4, "temp": 12.4, "feelslikemax": 16.2, "feelslikemin": 6.5, "feelslike": 12.0, "dew": 5.3, "humidity": 63.12, "precip": 0.0, "precipprob": null, "precipcover": 0.0, "preciptype": null, "snow": 0.0, "snowdepth": 0.0, "windgust": 48.2, "windspeed": 25.9, "winddir": 269.2, "pressure": 1024.5, "cloudcover": 0.0, "visibility": 16.0, "solarradiation": 342.1, "solarenergy": 14.8, "sunrise": "07:15:08", "sunriseEpoch": 1578226508, "sunset": "17:40:42", "sunsetEpoch": 1578264042, "moonphase": 0.36, "conditions": "Clear", "icon": "clear-day", "stations": ["72204012838", "KXMR", "74794012868", "KMLB", "KCOF", "74795012867"], "source": "obs", "hours": null}], "stations": {"72204012838": {"distance": 234.0, "latitude": 28.101, "longitude": -80.644, "useCount": 0, "id": "72204012838", "name": "MELBOURNE INTERNATIONAL AIRPORT, FL US", "quality": 100, "contribution": 0.0}, "KXMR": {"distance": 41723.0, "latitude": 28.47, "longitude": -80.56, "useCount": 0, "id": "KXMR", "name": "KXMR", "quality": 100, "contribution": 0.0}, "74794012868": {"distance": 43052.0, "latitude": 28.483, "longitude": -80.567, "useCount": 0, "id": "74794012868", "name": "COCOA BEACH CAPE KENNEDY AFS, FL US", "quality": 98, "contribution": 0.0}, "KMLB": {"distance": 557.0, "latitude": 28.1, "longitude": -80.65, "useCount": 0, "id": "KMLB", "name": "KMLB", "quality": 100, "contribution": 0.0}, "KCOF": {"distance": 15164.0, "latitude": 28.23, "longitude": -80.59, "useCount": 0, "id": "KCOF", "name": "KCOF", "quality": 100, "contribution": 0.0}, "74795012867": {"distance": 15192.0, "latitude": 28.233, "longitude": -80.6, "useCount": 0, "id": "74795012867", "name": "COCOA BEACH PATRICK AFB, FL US", "quality": 99, "contribution": 0.0}}}