{"queryCost": 1, "latitude": 41.44850158691406, "longitude": -90.50749969482422, "resolvedAddress": "41.44850158691406, -90.50749969482422", "address": "41.44850158691406, -90.50749969482422", "timezone": "America/Chicago", "tzoffset": -6.0, "days": [{"datetime": "2020-01-03", "datetimeEpoch": 1578031200, "tempmax": 3.3, "tempmin": 0.0, "temp": 1.2, "feelslikemax": 1.7, "feelslikemin": -4.0, "feelslike": -0.9, "dew": -1.7, "humidity": 81.16, "precip": 1.33, "precipprob": null, "precipcover": 20.83, "preciptype": null, "snow": 2.69, "snowdepth": 3.0, "windgust": null, "windspeed": 18.3, "winddir": 309.1, "pressure": 1010.8, "cloudcover": 93.7, "visibility": 12.5, "solarradiation": null, "solarenergy": null, "sunrise": "07:28:34", "sunriseEpoch": 1578058114, "sunset": "16:44:25", "sunsetEpoch": 1578091465, "moonphase": 0.26, "conditions": "Snow, Overcast", "icon": "snow", "stations": ["KDVN", "72547394979", "KCWI", "72544014923", "KMLI", "74455094982"], "source": "obs", "hours": null}], "stations": {"KDVN": {"distance": 18966.0, "latitude": 41.61, "longitude": -90.58, "useCount": 0, "id": "KDVN", "name": "KDVN", "quality": 100, "contribution": 0.0}, "72547394979": {"distance": 45221.0, "latitude": 41.833, "longitude": -90.333, "useCount": 0, "id": "72547394979", "name": "CLINTON MUNICIPAL AIRPORT, IA US", "quality": 99, "contribution": 0.0}, "KCWI": {"distance": 44962.0, "latitude": 41.83, "longitude": -90.33, "useCount": 0, "id": "KCWI", "name": "CLINTON MUNI, IA", "quality": 100, "contribution": 0.0}, "72544014923": {"distance": 2288.0, "latitude": 41.465, "longitude": -90.523, "useCount": 0, "id": "72544014923", "name": "MOLINE QUAD CITY INTERNATIONAL AIRPORT, IL US", "quality": 100, "contribution": 0.0}, "KMLI": {"distance": 1056.0, "latitude": 41.45, "longitude": -90.52, "useCount": 0, "id": "KMLI", "name": "KMLI", "quality": 100, "contribution": 0.0}, "74455094982": {"distance": 19695.0, "latitude": 41.614, "longitude": -90.591, "useCount": 0, "id": "74455094982", "name": "DAVENPORT MUNICIPAL AIRPORT, IA US", "quality": 100, "contribution": 0.0}}}