{"queryCost": 1, "latitude": 41.44850158691406, "longitude": -90.50749969482422, "resolvedAddress": "41.44850158691406, -90.50749969482422", "address": "41.44850158691406, -90.50749969482422", "timezone": "America/Chicago", "tzoffset": -6.0, "days": [{"datetime": "2020-01-07", "datetimeEpoch": 1578376800, "tempmax": 3.8, "tempmin": -4.3, "temp": 0.0, "feelslikemax": -0.2, "feelslikemin": -7.7, "feelslike": -3.3, "dew": -5.0, "humidity": 70.33, "precip": 0.0, "precipprob": null, "precipcover": 0.0, "preciptype": null, "snow": 0.0, "snowdepth": 0.0, "windgust": 40.7, "windspeed": 25.9, "winddir": 294.8, "pressure": 1018.5, "cloudcover": 50.2, "visibility": 16.0, "solarradiation": null, "solarenergy": null, "uvindex": 0.0, "sunrise": "07:28:24", "sunriseEpoch": 1578403704, "sunset": "16:48:12", "sunsetEpoch": 1578437292, "moonphase": 0.44, "conditions": "Partially cloudy", "description": "Partly cloudly.", "icon": "partly-cloudy-day", "stations": ["KDVN", "72547394979", "KCWI", "72544014923", "KMLI", "74455094982"], "source": "obs", "hours": null}], "stations": {"KDVN": {"distance": 18966.0, "latitude": 41.61, "longitude": -90.58, "useCount": 0, "id": "KDVN", "name": "KDVN", "quality": 100, "contribution": 0.0}, "72547394979": {"distance": 45221.0, "latitude": 41.833, "longitude": -90.333, "useCount": 0, "id": "72547394979", "name": "CLINTON MUNICIPAL AIRPORT, IA US", "quality": 99, "contribution": 0.0}, "KCWI": {"distance": 44962.0, "latitude": 41.83, "longitude": -90.33, "useCount": 0, "id": "KCWI", "name": "CLINTON MUNI, IA", "quality": 100, "contribution": 0.0}, "72544014923": {"distance": 2288.0, "latitude": 41.465, "longitude": -90.523, "useCount": 0, "id": "72544014923", "name": "MOLINE QUAD CITY INTERNATIONAL AIRPORT, IL US", "quality": 100, "contribution": 0.0}, "KMLI": {"distance": 1056.0, "latitude": 41.45, "longitude": -90.52, "useCount": 0, "id": "KMLI", "name": "KMLI", "quality": 100, "contribution": 0.0}, "74455094982": {"distance": 19695.0, "latitude": 41.614, "longitude": -90.591, "useCount": 0, "id": "74455094982", "name": "DAVENPORT MUNICIPAL AIRPORT, IA US", "quality": 100, "contribution": 0.0}}}