{"queryCost": 1, "latitude": 32.51089859008789, "longitude": -92.0376968383789, "resolvedAddress": "32.51089859008789, -92.0376968383789", "address": "32.51089859008789, -92.0376968383789", "timezone": "America/Chicago", "tzoffset": -6.0, "days": [{"datetime": "2020-01-03", "datetimeEpoch": 1578031200, "tempmax": 18.3, "tempmin": 14.0, "temp": 15.7, "feelslikemax": 18.3, "feelslikemin": 14.0, "feelslike": 15.7, "dew": 13.5, "humidity": 87.08, "precip": 5.6, "precipprob": null, "precipcover": 20.83, "preciptype": null, "snow": 0.0, "snowdepth": 0.0, "windgust": 27.7, "windspeed": 20.5, "winddir": 216.6, "pressure": 1010.6, "cloudcover": 82.6, "visibility": 15.2, "solarradiation": 87.2, "solarenergy": 3.1, "sunrise": "07:10:22", "sunriseEpoch": 1578057022, "sunset": "17:14:49", "sunsetEpoch": 1578093289, "moonphase": 0.26, "conditions": "Rain, Overcast", "icon": "rain", "stations": ["KBQP", "99999953961", "72248613942", "KMLU", "72225153958", "72225353992"], "source": "obs", "hours": null}], "stations": {"KBQP": {"distance": 31424.0, "latitude": 32.76, "longitude": -91.88, "useCount": 0, "id": "KBQP", "name": "KBQP", "quality": 99, "contribution": 0.0}, "99999953961": {"distance": 42108.0, "latitude": 32.883, "longitude": -92.116, "useCount": 0, "id": "99999953961", "name": "MONROE 26 N, LA US", "quality": 100, "contribution": 0.0}, "72248613942": {"distance": 576.0, "latitude": 32.516, "longitude": -92.04, "useCount": 0, "id": "72248613942", "name": "MONROE REGIONAL AIRPORT, LA US", "quality": 100, "contribution": 0.0}, "KMLU": {"distance": 1244.0, "latitude": 32.52, "longitude": -92.03, "useCount": 0, "id": "KMLU", "name": "KMLU", "quality": 100, "contribution": 0.0}, "72225153958": {"distance": 51688.0, "latitude": 32.514, "longitude": -92.588, "useCount": 0, "id": "72225153958", "name": "RUSTON REGIONAL AIRPORT, LA US", "quality": 100, "contribution": 0.0}, "72225353992": {"distance": 31015.0, "latitude": 32.756, "longitude": -91.881, "useCount": 0, "id": "72225353992", "name": "BASTROP MOREHOUSE MEMORIAL AIRPORT, LA US", "quality": 99, "contribution": 0.0}}}