{"queryCost": 1, "latitude": 30.691200256348, "longitude": -88.242797851562, "resolvedAddress": "30.691200256348, -88.242797851562", "address": "30.691200256348, -88.242797851562", "timezone": "America/Chicago", "tzoffset": -6.0, "days": [{"datetime": "2020-01-05", "datetimeEpoch": 1578204000, "tempmax": 15.6, "tempmin": 1.2, "temp": 8.0, "feelslikemax": 15.6, "feelslikemin": -0.2, "feelslike": 6.9, "dew": 1.2, "humidity": 66.35, "precip": 0.0, "precipprob": null, "precipcover": 0.0, "preciptype": null, "snow": 0.0, "snowdepth": 0.0, "windgust": null, "windspeed": 14.8, "winddir": 173.0, "pressure": 1028.4, "cloudcover": 0.0, "visibility": 16.0, "solarradiation": 334.6, "solarenergy": 13.3, "sunrise": "06:51:15", "sunriseEpoch": 1578228675, "sunset": "17:05:24", "sunsetEpoch": 1578265524, "moonphase": 0.36, "conditions": "Clear", "icon": "clear-day", "stations": ["72223513838", "KPQL", "KMOB", "72223013894", "KBFM", "74768853858"], "source": "obs", "hours": null}], "stations": {"72223513838": {"distance": 18218.0, "latitude": 30.626, "longitude": -88.068, "useCount": 0, "id": "72223513838", "name": "MOBILE DOWNTOWN AIRPORT, AL US", "quality": 100, "contribution": 0.0}, "KPQL": {"distance": 37684.0, "latitude": 30.46, "longitude": -88.53, "useCount": 0, "id": "KPQL", "name": "KPQL", "quality": 100, "contribution": 0.0}, "KMOB": {"distance": 1425.0, "latitude": 30.68, "longitude": -88.25, "useCount": 0, "id": "KMOB", "name": "KMOB", "quality": 100, "contribution": 0.0}, "72223013894": {"distance": 420.0, "latitude": 30.688, "longitude": -88.246, "useCount": 0, "id": "72223013894", "name": "MOBILE REGIONAL AIRPORT, AL US", "quality": 100, "contribution": 0.0}, "KBFM": {"distance": 17894.0, "latitude": 30.63, "longitude": -88.07, "useCount": 0, "id": "KBFM", "name": "KBFM", "quality": 100, "contribution": 0.0}, "74768853858": {"distance": 37545.0, "latitude": 30.464, "longitude": -88.532, "useCount": 0, "id": "74768853858", "name": "PASCAGOULA LOTT INTERNATIONAL AIRPORT, MS US", "quality": 100, "contribution": 0.0}}}