{"queryCost": 1, "latitude": 48.2593994140625, "longitude": -101.27999877929688, "resolvedAddress": "48.2593994140625, -101.27999877929688", "address": "48.2593994140625, -101.27999877929688", "timezone": "America/Chicago", "tzoffset": -6.0, "days": [{"datetime": "2020-01-03", "datetimeEpoch": 1578031200, "tempmax": -1.7, "tempmin": -10.6, "temp": -4.9, "feelslikemax": -5.1, "feelslikemin": -16.6, "feelslike": -11.1, "dew": -8.7, "humidity": 75.01, "precip": 0.0, "precipprob": null, "precipcover": 8.33, "preciptype": null, "snow": 0.0, "snowdepth": 0.0, "windgust": 46.4, "windspeed": 33.5, "winddir": 259.6, "pressure": 1014.7, "cloudcover": 32.9, "visibility": 13.8, "solarradiation": null, "solarenergy": null, "sunrise": "08:36:02", "sunriseEpoch": 1578062162, "sunset": "17:03:12", "sunsetEpoch": 1578092592, "moonphase": 0.26, "conditions": "Partially cloudy", "icon": "wind", "stations": ["K1DN", "72767624013", "KMOT", "KMIB", "72101499999", "72767594011"], "source": "obs", "hours": null}], "stations": {"K1DN": {"distance": 51162.0, "latitude": 47.8, "longitude": -101.3, "useCount": 0, "id": "K1DN", "name": "K1DN", "quality": 98, "contribution": 0.0}, "72767624013": {"distance": 698.0, "latitude": 48.255, "longitude": -101.273, "useCount": 0, "id": "72767624013", "name": "MINOT INTERNATIONAL AIRPORT, ND US", "quality": 100, "contribution": 0.0}, "KMOT": {"distance": 1180.0, "latitude": 48.27, "longitude": -101.28, "useCount": 0, "id": "KMOT", "name": "KMOT", "quality": 100, "contribution": 0.0}, "KMIB": {"distance": 18613.0, "latitude": 48.42, "longitude": -101.35, "useCount": 0, "id": "KMIB", "name": "KMIB", "quality": 100, "contribution": 0.0}, "72101499999": {"distance": 51705.0, "latitude": 47.795, "longitude": -101.299, "useCount": 0, "id": "72101499999", "name": "DELTA MAX, ND US", "quality": 99, "contribution": 0.0}, "72767594011": {"distance": 18261.0, "latitude": 48.417, "longitude": -101.35, "useCount": 0, "id": "72767594011", "name": "MINOT AFB, ND US", "quality": 98, "contribution": 0.0}}}