{"queryCost": 1, "latitude": 44.882, "longitude": -93.221802, "resolvedAddress": "44.882, -93.221802", "address": "44.882, -93.221802", "timezone": "America/Chicago", "tzoffset": -5.0, "days": [{"datetime": "2019-10-13", "datetimeEpoch": 1570942800, "tempmax": 6.1, "tempmin": 1.7, "temp": 3.5, "feelslikemax": 1.9, "feelslikemin": -3.1, "feelslike": -0.7, "dew": 0.0, "humidity": 78.0, "precip": 0.8, "precipprob": null, "precipcover": 29.17, "preciptype": null, "snow": 0.0, "snowdepth": 0.0, "windgust": 53.6, "windspeed": 27.7, "winddir": 271.3, "pressure": 1008.6, "cloudcover": 64.0, "visibility": 14.8, "solarradiation": 79.5, "solarenergy": 3.4, "sunrise": "07:25:36", "sunriseEpoch": 1570969536, "sunset": "18:31:58", "sunsetEpoch": 1571009518, "moonphase": 0.5, "conditions": "Rain, Partially cloudy", "icon": "rain", "stations": ["KSTP", "KSGS", "72658414927", "KMSP", "72658014922", "72660304974"], "source": "obs", "hours": null}], "stations": {"KSTP": {"distance": 14160.0, "latitude": 44.95, "longitude": -93.07, "useCount": 0, "id": "KSTP", "name": "KSTP", "quality": 100, "contribution": 0.0}, "KSGS": {"distance": 15189.0, "latitude": 44.87, "longitude": -93.03, "useCount": 0, "id": "KSGS", "name": "KSGS", "quality": 100, "contribution": 0.0}, "72658414927": {"distance": 14231.0, "latitude": 44.932, "longitude": -93.056, "useCount": 0, "id": "72658414927", "name": "ST. PAUL DOWNTOWN AIRPORT, MN US", "quality": 100, "contribution": 0.0}, "KMSP": {"distance": 264.0, "latitude": 44.88, "longitude": -93.22, "useCount": 0, "id": "KMSP", "name": "KMSP", "quality": 100, "contribution": 0.0}, "72658014922": {"distance": 573.0, "latitude": 44.883, "longitude": -93.229, "useCount": 0, "id": "72658014922", "name": "MINNEAPOLIS ST. PAUL INTERNATIONAL AIRPORT, MN US", "quality": 100, "contribution": 0.0}, "72660304974": {"distance": 15171.0, "latitude": 44.857, "longitude": -93.033, "useCount": 0, "id": "72660304974", "name": "SOUTH ST PAUL MUNICIPAL RICHARD E FLEMING FIELD AIRPORT, MN US", "quality": 99, "contribution": 0.0}}}