{"queryCost": 1, "latitude": 44.882, "longitude": -93.221802, "resolvedAddress": "44.882, -93.221802", "address": "44.882, -93.221802", "timezone": "America/Chicago", "tzoffset": -5.0, "days": [{"datetime": "2019-10-16", "datetimeEpoch": 1571202000, "tempmax": 8.8, "tempmin": 5.6, "temp": 6.7, "feelslikemax": 6.2, "feelslikemin": 1.8, "feelslike": 4.0, "dew": 2.4, "humidity": 74.2, "precip": 0.3, "precipprob": null, "precipcover": 4.17, "preciptype": null, "snow": 0.0, "snowdepth": 0.0, "windgust": 38.9, "windspeed": 27.7, "winddir": 289.9, "pressure": 1019.3, "cloudcover": 84.8, "visibility": 16.0, "solarradiation": 108.9, "solarenergy": 4.7, "sunrise": "07:29:28", "sunriseEpoch": 1571228968, "sunset": "18:26:44", "sunsetEpoch": 1571268404, "moonphase": 0.53, "conditions": "Rain, Overcast", "icon": "rain", "stations": ["KSTP", "KSGS", "72658414927", "KMSP", "72658014922", "72660304974"], "source": "obs", "hours": null}], "stations": {"KSTP": {"distance": 14160.0, "latitude": 44.95, "longitude": -93.07, "useCount": 0, "id": "KSTP", "name": "KSTP", "quality": 100, "contribution": 0.0}, "KSGS": {"distance": 15189.0, "latitude": 44.87, "longitude": -93.03, "useCount": 0, "id": "KSGS", "name": "KSGS", "quality": 100, "contribution": 0.0}, "72658414927": {"distance": 14231.0, "latitude": 44.932, "longitude": -93.056, "useCount": 0, "id": "72658414927", "name": "ST. PAUL DOWNTOWN AIRPORT, MN US", "quality": 100, "contribution": 0.0}, "KMSP": {"distance": 264.0, "latitude": 44.88, "longitude": -93.22, "useCount": 0, "id": "KMSP", "name": "KMSP", "quality": 100, "contribution": 0.0}, "72658014922": {"distance": 573.0, "latitude": 44.883, "longitude": -93.229, "useCount": 0, "id": "72658014922", "name": "MINNEAPOLIS ST. PAUL INTERNATIONAL AIRPORT, MN US", "quality": 100, "contribution": 0.0}, "72660304974": {"distance": 15171.0, "latitude": 44.857, "longitude": -93.033, "useCount": 0, "id": "72660304974", "name": "SOUTH ST PAUL MUNICIPAL RICHARD E FLEMING FIELD AIRPORT, MN US", "quality": 99, "contribution": 0.0}}}