{"queryCost": 1, "latitude": 44.882, "longitude": -93.221802, "resolvedAddress": "44.882, -93.221802", "address": "44.882, -93.221802", "timezone": "America/Chicago", "tzoffset": -5.0, "days": [{"datetime": "2018-05-12", "datetimeEpoch": 1526101200, "tempmax": 16.2, "tempmin": 8.3, "temp": 12.1, "feelslikemax": 16.2, "feelslikemin": 5.5, "feelslike": 11.6, "dew": 4.1, "humidity": 59.89, "precip": 0.3, "precipprob": null, "precipcover": 4.17, "preciptype": null, "snow": 0.0, "snowdepth": 0.0, "windgust": 27.7, "windspeed": 25.9, "winddir": 87.5, "pressure": 1019.6, "cloudcover": 92.4, "visibility": 16.0, "solarradiation": 136.9, "solarenergy": 7.4, "sunrise": "05:47:37", "sunriseEpoch": 1526122057, "sunset": "20:31:35", "sunsetEpoch": 1526175095, "moonphase": 0.95, "conditions": "Rain, Overcast", "icon": "rain", "stations": ["KSTP", "KSGS", "72658414927", "KMSP", "72658014922", "72660304974"], "source": "obs", "hours": null}], "stations": {"KSTP": {"distance": 14160.0, "latitude": 44.95, "longitude": -93.07, "useCount": 0, "id": "KSTP", "name": "KSTP", "quality": 100, "contribution": 0.0}, "KSGS": {"distance": 15189.0, "latitude": 44.87, "longitude": -93.03, "useCount": 0, "id": "KSGS", "name": "KSGS", "quality": 100, "contribution": 0.0}, "72658414927": {"distance": 14231.0, "latitude": 44.932, "longitude": -93.056, "useCount": 0, "id": "72658414927", "name": "ST. PAUL DOWNTOWN AIRPORT, MN US", "quality": 100, "contribution": 0.0}, "KMSP": {"distance": 264.0, "latitude": 44.88, "longitude": -93.22, "useCount": 0, "id": "KMSP", "name": "KMSP", "quality": 100, "contribution": 0.0}, "72658014922": {"distance": 573.0, "latitude": 44.883, "longitude": -93.229, "useCount": 0, "id": "72658014922", "name": "MINNEAPOLIS ST. PAUL INTERNATIONAL AIRPORT, MN US", "quality": 100, "contribution": 0.0}, "72660304974": {"distance": 15171.0, "latitude": 44.857, "longitude": -93.033, "useCount": 0, "id": "72660304974", "name": "SOUTH ST PAUL MUNICIPAL RICHARD E FLEMING FIELD AIRPORT, MN US", "quality": 99, "contribution": 0.0}}}