{"queryCost": 1, "latitude": 44.882, "longitude": -93.221802, "resolvedAddress": "44.882, -93.221802", "address": "44.882, -93.221802", "timezone": "America/Chicago", "tzoffset": -6.0, "days": [{"datetime": "2019-12-11", "datetimeEpoch": 1576044000, "tempmax": -13.3, "tempmin": -20.5, "temp": -16.5, "feelslikemax": -14.4, "feelslikemin": -28.4, "feelslike": -22.1, "dew": -22.2, "humidity": 62.45, "precip": 0.0, "precipprob": null, "precipcover": 0.0, "preciptype": null, "snow": 0.02, "snowdepth": 17.99, "windgust": 25.9, "windspeed": 16.6, "winddir": 211.6, "pressure": 1031.1, "cloudcover": 30.2, "visibility": 16.0, "solarradiation": 114.2, "solarenergy": 4.1, "sunrise": "07:40:33", "sunriseEpoch": 1576071633, "sunset": "16:31:35", "sunsetEpoch": 1576103495, "moonphase": 0.5, "conditions": "Partially cloudy", "icon": "snow", "stations": ["KSTP", "KSGS", "72658414927", "KMSP", "72658014922", "72660304974"], "source": "obs", "hours": null}], "stations": {"KSTP": {"distance": 14160.0, "latitude": 44.95, "longitude": -93.07, "useCount": 0, "id": "KSTP", "name": "KSTP", "quality": 100, "contribution": 0.0}, "KSGS": {"distance": 15189.0, "latitude": 44.87, "longitude": -93.03, "useCount": 0, "id": "KSGS", "name": "KSGS", "quality": 100, "contribution": 0.0}, "72658414927": {"distance": 14231.0, "latitude": 44.932, "longitude": -93.056, "useCount": 0, "id": "72658414927", "name": "ST. PAUL DOWNTOWN AIRPORT, MN US", "quality": 100, "contribution": 0.0}, "KMSP": {"distance": 264.0, "latitude": 44.88, "longitude": -93.22, "useCount": 0, "id": "KMSP", "name": "KMSP", "quality": 100, "contribution": 0.0}, "72658014922": {"distance": 573.0, "latitude": 44.883, "longitude": -93.229, "useCount": 0, "id": "72658014922", "name": "MINNEAPOLIS ST. PAUL INTERNATIONAL AIRPORT, MN US", "quality": 100, "contribution": 0.0}, "72660304974": {"distance": 15171.0, "latitude": 44.857, "longitude": -93.033, "useCount": 0, "id": "72660304974", "name": "SOUTH ST PAUL MUNICIPAL RICHARD E FLEMING FIELD AIRPORT, MN US", "quality": 99, "contribution": 0.0}}}