{"queryCost": 1, "latitude": 44.882, "longitude": -93.221802, "resolvedAddress": "44.882, -93.221802", "address": "44.882, -93.221802", "timezone": "America/Chicago", "tzoffset": -5.0, "days": [{"datetime": "2019-09-11", "datetimeEpoch": 1568178000, "tempmax": 19.3, "tempmin": 15.0, "temp": 17.6, "feelslikemax": 19.3, "feelslikemin": 15.0, "feelslike": 17.6, "dew": 15.7, "humidity": 88.74, "precip": 30.06, "precipprob": null, "precipcover": 45.83, "preciptype": null, "snow": 0.0, "snowdepth": 0.0, "windgust": 45.2, "windspeed": 25.9, "winddir": 50.0, "pressure": 1017.0, "cloudcover": 90.9, "visibility": 14.1, "solarradiation": 70.3, "solarenergy": 3.3, "sunrise": "06:46:35", "sunriseEpoch": 1568202395, "sunset": "19:31:42", "sunsetEpoch": 1568248302, "moonphase": 0.47, "conditions": "Rain, Overcast", "icon": "rain", "stations": ["KSTP", "KSGS", "72658414927", "KMSP", "72658014922", "72660304974"], "source": "obs", "hours": null}], "stations": {"KSTP": {"distance": 14160.0, "latitude": 44.95, "longitude": -93.07, "useCount": 0, "id": "KSTP", "name": "KSTP", "quality": 100, "contribution": 0.0}, "KSGS": {"distance": 15189.0, "latitude": 44.87, "longitude": -93.03, "useCount": 0, "id": "KSGS", "name": "KSGS", "quality": 100, "contribution": 0.0}, "72658414927": {"distance": 14231.0, "latitude": 44.932, "longitude": -93.056, "useCount": 0, "id": "72658414927", "name": "ST. PAUL DOWNTOWN AIRPORT, MN US", "quality": 100, "contribution": 0.0}, "KMSP": {"distance": 264.0, "latitude": 44.88, "longitude": -93.22, "useCount": 0, "id": "KMSP", "name": "KMSP", "quality": 100, "contribution": 0.0}, "72658014922": {"distance": 573.0, "latitude": 44.883, "longitude": -93.229, "useCount": 0, "id": "72658014922", "name": "MINNEAPOLIS ST. PAUL INTERNATIONAL AIRPORT, MN US", "quality": 100, "contribution": 0.0}, "72660304974": {"distance": 15171.0, "latitude": 44.857, "longitude": -93.033, "useCount": 0, "id": "72660304974", "name": "SOUTH ST PAUL MUNICIPAL RICHARD E FLEMING FIELD AIRPORT, MN US", "quality": 99, "contribution": 0.0}}}