{"queryCost": 1, "latitude": 29.99340057373047, "longitude": -90.25800323486328, "resolvedAddress": "29.99340057373047, -90.25800323486328", "address": "29.99340057373047, -90.25800323486328", "timezone": "America/Chicago", "tzoffset": -6.0, "days": [{"datetime": "2019-11-11", "datetimeEpoch": 1573452000, "tempmax": 27.2, "tempmin": 14.3, "temp": 20.7, "feelslikemax": 28.4, "feelslikemin": 14.3, "feelslike": 20.8, "dew": 15.9, "humidity": 74.71, "precip": 0.31, "precipprob": null, "precipcover": 8.33, "preciptype": null, "snow": 0.0, "snowdepth": 0.0, "windgust": null, "windspeed": 16.5, "winddir": 140.0, "pressure": 1017.3, "cloudcover": 56.6, "visibility": 15.9, "solarradiation": 146.7, "solarenergy": 6.3, "sunrise": "06:22:39", "sunriseEpoch": 1573474959, "sunset": "17:07:04", "sunsetEpoch": 1573513624, "moonphase": 0.49, "conditions": "Rain, Partially cloudy", "icon": "rain", "stations": ["KASD", "72231012916", "KMSY", "KNBG", "72233053865", "72231612958"], "source": "obs", "hours": null}], "stations": {"KASD": {"distance": 57902.0, "latitude": 30.35, "longitude": -89.82, "useCount": 0, "id": "KASD", "name": "KASD", "quality": 100, "contribution": 0.0}, "72231012916": {"distance": 1920.0, "latitude": 29.997, "longitude": -90.277, "useCount": 0, "id": "72231012916", "name": "NEW ORLEANS AIRPORT, LA US", "quality": 100, "contribution": 0.0}, "KMSY": {"distance": 1680.0, "latitude": 29.98, "longitude": -90.25, "useCount": 0, "id": "KMSY", "name": "KMSY", "quality": 100, "contribution": 0.0}, "KNBG": {"distance": 28546.0, "latitude": 29.83, "longitude": -90.03, "useCount": 0, "id": "KNBG", "name": "KNBG", "quality": 97, "contribution": 0.0}, "72233053865": {"distance": 57239.0, "latitude": 30.343, "longitude": -89.822, "useCount": 0, "id": "72233053865", "name": "SLIDELL AIRPORT, LA US", "quality": 100, "contribution": 0.0}, "72231612958": {"distance": 30481.0, "latitude": 29.817, "longitude": -90.017, "useCount": 0, "id": "72231612958", "name": "NEW ORLEANS ALVIN CALLENDER FIELD, LA US", "quality": 96, "contribution": 0.0}}}