{"queryCost": 1, "latitude": 29.99340057373047, "longitude": -90.25800323486328, "resolvedAddress": "29.99340057373047, -90.25800323486328", "address": "29.99340057373047, -90.25800323486328", "timezone": "America/Chicago", "tzoffset": -5.0, "days": [{"datetime": "2018-05-17", "datetimeEpoch": 1526533200, "tempmax": 33.8, "tempmin": 23.3, "temp": 28.7, "feelslikemax": 35.5, "feelslikemin": 23.3, "feelslike": 29.9, "dew": 20.7, "humidity": 64.54, "precip": 0.0, "precipprob": null, "precipcover": 0.0, "preciptype": null, "snow": 0.0, "snowdepth": 0.0, "windgust": 34.6, "windspeed": 22.3, "winddir": 262.1, "pressure": 1010.6, "cloudcover": 37.4, "visibility": 15.6, "solarradiation": 234.5, "solarenergy": 12.7, "sunrise": "06:06:26", "sunriseEpoch": 1526555186, "sunset": "19:48:47", "sunsetEpoch": 1526604527, "moonphase": 0.03, "conditions": "Partially cloudy", "icon": "partly-cloudy-day", "stations": ["KASD", "72231012916", "KMSY", "KNBG", "72233053865", "72231612958"], "source": "obs", "hours": null}], "stations": {"KASD": {"distance": 57902.0, "latitude": 30.35, "longitude": -89.82, "useCount": 0, "id": "KASD", "name": "KASD", "quality": 100, "contribution": 0.0}, "72231012916": {"distance": 1920.0, "latitude": 29.997, "longitude": -90.277, "useCount": 0, "id": "72231012916", "name": "NEW ORLEANS AIRPORT, LA US", "quality": 100, "contribution": 0.0}, "KMSY": {"distance": 1680.0, "latitude": 29.98, "longitude": -90.25, "useCount": 0, "id": "KMSY", "name": "KMSY", "quality": 100, "contribution": 0.0}, "KNBG": {"distance": 28546.0, "latitude": 29.83, "longitude": -90.03, "useCount": 0, "id": "KNBG", "name": "KNBG", "quality": 97, "contribution": 0.0}, "72233053865": {"distance": 57239.0, "latitude": 30.343, "longitude": -89.822, "useCount": 0, "id": "72233053865", "name": "SLIDELL AIRPORT, LA US", "quality": 100, "contribution": 0.0}, "72231612958": {"distance": 30481.0, "latitude": 29.817, "longitude": -90.017, "useCount": 0, "id": "72231612958", "name": "NEW ORLEANS ALVIN CALLENDER FIELD, LA US", "quality": 96, "contribution": 0.0}}}