{"queryCost": 1, "latitude": 29.99340057373047, "longitude": -90.25800323486328, "resolvedAddress": "29.99340057373047, -90.25800323486328", "address": "29.99340057373047, -90.25800323486328", "timezone": "America/Chicago", "tzoffset": -6.0, "days": [{"datetime": "2020-01-03", "datetimeEpoch": 1578031200, "tempmax": 22.2, "tempmin": 15.6, "temp": 16.7, "feelslikemax": 22.2, "feelslikemin": 15.6, "feelslike": 16.7, "dew": 14.7, "humidity": 87.83, "precip": 46.86, "precipprob": null, "precipcover": 75.0, "preciptype": null, "snow": 0.0, "snowdepth": 0.0, "windgust": 29.5, "windspeed": 25.9, "winddir": 163.8, "pressure": 1012.2, "cloudcover": 71.0, "visibility": 11.5, "solarradiation": 40.0, "solarenergy": 1.6, "sunrise": "06:57:24", "sunriseEpoch": 1578056244, "sunset": "17:13:33", "sunsetEpoch": 1578093213, "moonphase": 0.26, "conditions": "Rain, Partially cloudy", "icon": "rain", "stations": ["KASD", "72231012916", "KMSY", "KNBG", "72233053865", "72231612958"], "source": "obs", "hours": null}], "stations": {"KASD": {"distance": 57902.0, "latitude": 30.35, "longitude": -89.82, "useCount": 0, "id": "KASD", "name": "KASD", "quality": 100, "contribution": 0.0}, "72231012916": {"distance": 1920.0, "latitude": 29.997, "longitude": -90.277, "useCount": 0, "id": "72231012916", "name": "NEW ORLEANS AIRPORT, LA US", "quality": 100, "contribution": 0.0}, "KMSY": {"distance": 1680.0, "latitude": 29.98, "longitude": -90.25, "useCount": 0, "id": "KMSY", "name": "KMSY", "quality": 100, "contribution": 0.0}, "KNBG": {"distance": 28546.0, "latitude": 29.83, "longitude": -90.03, "useCount": 0, "id": "KNBG", "name": "KNBG", "quality": 97, "contribution": 0.0}, "72233053865": {"distance": 57239.0, "latitude": 30.343, "longitude": -89.822, "useCount": 0, "id": "72233053865", "name": "SLIDELL AIRPORT, LA US", "quality": 100, "contribution": 0.0}, "72231612958": {"distance": 30481.0, "latitude": 29.817, "longitude": -90.017, "useCount": 0, "id": "72231612958", "name": "NEW ORLEANS ALVIN CALLENDER FIELD, LA US", "quality": 96, "contribution": 0.0}}}