{"queryCost": 1, "latitude": 33.6796989441, "longitude": -78.9282989502, "resolvedAddress": "33.6796989441, -78.9282989502", "address": "33.6796989441, -78.9282989502", "timezone": "America/New_York", "tzoffset": -4.0, "days": [{"datetime": "2018-08-26", "datetimeEpoch": 1535256000, "tempmax": 30.0, "tempmin": 22.8, "temp": 26.5, "feelslikemax": 34.4, "feelslikemin": 22.8, "feelslike": 28.0, "dew": 22.9, "humidity": 81.31, "precip": 0.0, "precipprob": null, "precipcover": 0.0, "preciptype": null, "snow": 0.0, "snowdepth": 0.0, "windgust": null, "windspeed": 22.3, "winddir": 170.0, "pressure": 1022.7, "cloudcover": 19.4, "visibility": 16.0, "solarradiation": 344.9, "solarenergy": 17.4, "sunrise": "06:45:25", "sunriseEpoch": 1535280325, "sunset": "19:49:00", "sunsetEpoch": 1535327340, "moonphase": 0.5, "conditions": "Clear", "icon": "clear-day", "stations": ["74791593718", "72061300204", "74791013717", "KMYR", "KHYW", "KCRE"], "source": "obs", "hours": null}], "stations": {"74791593718": {"distance": 24512.0, "latitude": 33.816, "longitude": -78.72, "useCount": 0, "id": "74791593718", "name": "NORTH MYRTLE BEACH, SC US", "quality": 100, "contribution": 0.0}, "72061300204": {"distance": 24371.0, "latitude": 33.828, "longitude": -79.122, "useCount": 0, "id": "72061300204", "name": "CONWAY HORRY CO AIRPORT, SC US", "quality": 100, "contribution": 0.0}, "74791013717": {"distance": 613.0, "latitude": 33.683, "longitude": -78.933, "useCount": 0, "id": "74791013717", "name": "MYRTLE BEACH AFB, SC US", "quality": 100, "contribution": 0.0}, "KMYR": {"distance": 161.0, "latitude": 33.68, "longitude": -78.93, "useCount": 0, "id": "KMYR", "name": "KMYR", "quality": 100, "contribution": 0.0}, "KHYW": {"distance": 24387.0, "latitude": 33.83, "longitude": -79.12, "useCount": 0, "id": "KHYW", "name": "KHYW", "quality": 99, "contribution": 0.0}, "KCRE": {"distance": 24812.0, "latitude": 33.82, "longitude": -78.72, "useCount": 0, "id": "KCRE", "name": "KCRE", "quality": 100, "contribution": 0.0}}}