{"queryCost": 1, "latitude": 34.8292007446, "longitude": -77.61209869380001, "resolvedAddress": "34.8292007446, -77.61209869380001", "address": "34.8292007446, -77.61209869380001", "timezone": "America/New_York", "tzoffset": -5.0, "days": [{"datetime": "2020-01-07", "datetimeEpoch": 1578373200, "tempmax": 19.3, "tempmin": -1.1, "temp": 8.0, "feelslikemax": 19.3, "feelslikemin": -3.3, "feelslike": 7.6, "dew": 2.4, "humidity": 71.68, "precip": 0.0, "precipprob": null, "precipcover": 0.0, "preciptype": null, "snow": 0.0, "snowdepth": 0.0, "windgust": 53.6, "windspeed": 31.7, "winddir": 167.8, "pressure": 1018.0, "cloudcover": 15.3, "visibility": 16.0, "solarradiation": null, "solarenergy": null, "uvindex": 0.0, "sunrise": "07:18:41", "sunriseEpoch": 1578399521, "sunset": "17:14:41", "sunsetEpoch": 1578435281, "moonphase": 0.44, "conditions": "Clear", "description": "Partly cloudly.", "icon": "wind", "stations": ["KNCA", "72309693727", "72306993753", "74692903702", "KOAJ"], "source": "obs", "hours": null}], "stations": {"KNCA": {"distance": 19169.0, "latitude": 34.72, "longitude": -77.45, "useCount": 0, "id": "KNCA", "name": "KNCA", "quality": 100, "contribution": 0.0}, "72309693727": {"distance": 20721.0, "latitude": 34.708, "longitude": -77.44, "useCount": 0, "id": "72309693727", "name": "NEW RIVER MCAF, NC US", "quality": 100, "contribution": 0.0}, "72306993753": {"distance": 620.0, "latitude": 34.833, "longitude": -77.617, "useCount": 0, "id": "72306993753", "name": "JACKSONVILLE ALBERT ELLIS AIRPORT, NC US", "quality": 100, "contribution": 0.0}, "KOAJ": {"distance": 727.0, "latitude": 34.83, "longitude": -77.62, "useCount": 0, "id": "KOAJ", "name": "JACKSNVLLE/ELLIS, NC", "quality": 100, "contribution": 0.0}, "74692903702": {"distance": 38727.0, "latitude": 35.0, "longitude": -77.982, "useCount": 0, "id": "74692903702", "name": "KENANSVILLE DUPLIN CO AIRPORT, NC US", "quality": 100, "contribution": 0.0}}}