{"queryCost": 1, "latitude": 37.721298, "longitude": -122.221001, "resolvedAddress": "37.721298, -122.221001", "address": "37.721298, -122.221001", "timezone": "America/Los_Angeles", "tzoffset": -7.0, "days": [{"datetime": "2019-07-03", "datetimeEpoch": 1562137200, "tempmax": 21.1, "tempmin": 13.8, "temp": 16.9, "feelslikemax": 21.1, "feelslikemin": 13.8, "feelslike": 16.9, "dew": 11.2, "humidity": 69.52, "precip": 0.0, "precipprob": null, "precipcover": 0.0, "preciptype": null, "snow": 0.0, "snowdepth": 0.0, "windgust": 53.6, "windspeed": 25.9, "winddir": 237.4, "pressure": 1013.4, "cloudcover": 63.7, "visibility": 15.2, "solarradiation": 501.0, "solarenergy": 27.1, "sunrise": "05:51:48", "sunriseEpoch": 1562158308, "sunset": "20:34:18", "sunsetEpoch": 1562211258, "moonphase": 0.0, "conditions": "Partially cloudy", "icon": "partly-cloudy-day", "stations": ["72585093228", "KSFO", "72493023230", "KHWD", "KOAK", "72494023234"], "source": "obs", "hours": null}], "stations": {"72585093228": {"distance": 11958.0, "latitude": 37.654, "longitude": -122.115, "useCount": 0, "id": "72585093228", "name": "HAYWARD AIR TERMINAL, CA US", "quality": 100, "contribution": 0.0}, "KSFO": {"distance": 18703.0, "latitude": 37.61, "longitude": -122.38, "useCount": 0, "id": "KSFO", "name": "KSFO", "quality": 100, "contribution": 0.0}, "72493023230": {"distance": 11.0, "latitude": 37.721, "longitude": -122.221, "useCount": 0, "id": "72493023230", "name": "OAKLAND METROPOLITAN, CA US", "quality": 100, "contribution": 0.0}, "KHWD": {"distance": 10572.0, "latitude": 37.67, "longitude": -122.12, "useCount": 0, "id": "KHWD", "name": "KHWD", "quality": 100, "contribution": 0.0}, "KOAK": {"distance": 169.0, "latitude": 37.72, "longitude": -122.22, "useCount": 0, "id": "KOAK", "name": "KOAK", "quality": 100, "contribution": 0.0}, "72494023234": {"distance": 16997.0, "latitude": 37.62, "longitude": -122.365, "useCount": 0, "id": "72494023234", "name": "SAN FRANCISCO INTERNATIONAL AIRPORT, CA US", "quality": 100, "contribution": 0.0}}}