{"queryCost": 1, "latitude": 37.721298, "longitude": -122.221001, "resolvedAddress": "37.721298, -122.221001", "address": "37.721298, -122.221001", "timezone": "America/Los_Angeles", "tzoffset": -7.0, "days": [{"datetime": "2018-10-12", "datetimeEpoch": 1539327600, "tempmax": 25.0, "tempmin": 11.2, "temp": 17.1, "feelslikemax": 25.0, "feelslikemin": 11.2, "feelslike": 17.1, "dew": 9.9, "humidity": 67.4, "precip": 0.0, "precipprob": null, "precipcover": 0.0, "preciptype": null, "snow": 0.0, "snowdepth": 0.0, "windgust": null, "windspeed": 18.4, "winddir": 188.3, "pressure": 1011.4, "cloudcover": 1.2, "visibility": 16.0, "solarradiation": 169.6, "solarenergy": 7.3, "sunrise": "07:14:27", "sunriseEpoch": 1539353667, "sunset": "18:35:34", "sunsetEpoch": 1539394534, "moonphase": 0.06, "conditions": "Clear", "icon": "clear-day", "stations": ["72585093228", "KSFO", "72493023230", "KHWD", "KOAK", "72494023234"], "source": "obs", "hours": null}], "stations": {"72585093228": {"distance": 11958.0, "latitude": 37.654, "longitude": -122.115, "useCount": 0, "id": "72585093228", "name": "HAYWARD AIR TERMINAL, CA US", "quality": 100, "contribution": 0.0}, "KSFO": {"distance": 18703.0, "latitude": 37.61, "longitude": -122.38, "useCount": 0, "id": "KSFO", "name": "KSFO", "quality": 100, "contribution": 0.0}, "72493023230": {"distance": 11.0, "latitude": 37.721, "longitude": -122.221, "useCount": 0, "id": "72493023230", "name": "OAKLAND METROPOLITAN, CA US", "quality": 100, "contribution": 0.0}, "KHWD": {"distance": 10572.0, "latitude": 37.67, "longitude": -122.12, "useCount": 0, "id": "KHWD", "name": "KHWD", "quality": 100, "contribution": 0.0}, "KOAK": {"distance": 169.0, "latitude": 37.72, "longitude": -122.22, "useCount": 0, "id": "KOAK", "name": "KOAK", "quality": 100, "contribution": 0.0}, "72494023234": {"distance": 16997.0, "latitude": 37.62, "longitude": -122.365, "useCount": 0, "id": "72494023234", "name": "SAN FRANCISCO INTERNATIONAL AIRPORT, CA US", "quality": 100, "contribution": 0.0}}}