{"queryCost": 1, "latitude": 37.721298, "longitude": -122.221001, "resolvedAddress": "37.721298, -122.221001", "address": "37.721298, -122.221001", "timezone": "America/Los_Angeles", "tzoffset": -7.0, "days": [{"datetime": "2018-05-15", "datetimeEpoch": 1526367600, "tempmax": 17.9, "tempmin": 12.9, "temp": 14.4, "feelslikemax": 17.9, "feelslikemin": 12.9, "feelslike": 14.5, "dew": 8.9, "humidity": 69.78, "precip": 0.0, "precipprob": null, "precipcover": 0.0, "preciptype": null, "snow": 0.0, "snowdepth": 0.0, "windgust": 44.6, "windspeed": 27.7, "winddir": 260.0, "pressure": 1017.1, "cloudcover": 84.6, "visibility": 15.7, "solarradiation": 246.4, "solarenergy": 13.3, "sunrise": "05:59:05", "sunriseEpoch": 1526389145, "sunset": "20:11:54", "sunsetEpoch": 1526440314, "moonphase": 0.0, "conditions": "Overcast", "icon": "cloudy", "stations": ["72585093228", "KSFO", "72493023230", "KHWD", "KOAK", "72494023234"], "source": "obs", "hours": null}], "stations": {"72585093228": {"distance": 11958.0, "latitude": 37.654, "longitude": -122.115, "useCount": 0, "id": "72585093228", "name": "HAYWARD AIR TERMINAL, CA US", "quality": 100, "contribution": 0.0}, "KSFO": {"distance": 18703.0, "latitude": 37.61, "longitude": -122.38, "useCount": 0, "id": "KSFO", "name": "KSFO", "quality": 100, "contribution": 0.0}, "72493023230": {"distance": 11.0, "latitude": 37.721, "longitude": -122.221, "useCount": 0, "id": "72493023230", "name": "OAKLAND METROPOLITAN, CA US", "quality": 100, "contribution": 0.0}, "KHWD": {"distance": 10572.0, "latitude": 37.67, "longitude": -122.12, "useCount": 0, "id": "KHWD", "name": "KHWD", "quality": 100, "contribution": 0.0}, "KOAK": {"distance": 169.0, "latitude": 37.72, "longitude": -122.22, "useCount": 0, "id": "KOAK", "name": "KOAK", "quality": 100, "contribution": 0.0}, "72494023234": {"distance": 16997.0, "latitude": 37.62, "longitude": -122.365, "useCount": 0, "id": "72494023234", "name": "SAN FRANCISCO INTERNATIONAL AIRPORT, CA US", "quality": 100, "contribution": 0.0}}}