{"queryCost": 1, "latitude": 37.721298, "longitude": -122.221001, "resolvedAddress": "37.721298, -122.221001", "address": "37.721298, -122.221001", "timezone": "America/Los_Angeles", "tzoffset": -7.0, "days": [{"datetime": "2019-06-21", "datetimeEpoch": 1561100400, "tempmax": 21.2, "tempmin": 13.4, "temp": 17.1, "feelslikemax": 21.2, "feelslikemin": 13.4, "feelslike": 17.1, "dew": 11.2, "humidity": 68.98, "precip": 0.0, "precipprob": null, "precipcover": 0.0, "preciptype": null, "snow": 0.0, "snowdepth": 0.0, "windgust": null, "windspeed": 29.5, "winddir": 201.6, "pressure": 1012.4, "cloudcover": 38.7, "visibility": 15.1, "solarradiation": 479.9, "solarenergy": 25.9, "sunrise": "05:47:27", "sunriseEpoch": 1561121247, "sunset": "20:33:57", "sunsetEpoch": 1561174437, "moonphase": 0.59, "conditions": "Partially cloudy", "icon": "partly-cloudy-day", "stations": ["72585093228", "KSFO", "72493023230", "KHWD", "KOAK", "72494023234"], "source": "obs", "hours": null}], "stations": {"72585093228": {"distance": 11958.0, "latitude": 37.654, "longitude": -122.115, "useCount": 0, "id": "72585093228", "name": "HAYWARD AIR TERMINAL, CA US", "quality": 100, "contribution": 0.0}, "KSFO": {"distance": 18703.0, "latitude": 37.61, "longitude": -122.38, "useCount": 0, "id": "KSFO", "name": "KSFO", "quality": 100, "contribution": 0.0}, "72493023230": {"distance": 11.0, "latitude": 37.721, "longitude": -122.221, "useCount": 0, "id": "72493023230", "name": "OAKLAND METROPOLITAN, CA US", "quality": 100, "contribution": 0.0}, "KHWD": {"distance": 10572.0, "latitude": 37.67, "longitude": -122.12, "useCount": 0, "id": "KHWD", "name": "KHWD", "quality": 100, "contribution": 0.0}, "KOAK": {"distance": 169.0, "latitude": 37.72, "longitude": -122.22, "useCount": 0, "id": "KOAK", "name": "KOAK", "quality": 100, "contribution": 0.0}, "72494023234": {"distance": 16997.0, "latitude": 37.62, "longitude": -122.365, "useCount": 0, "id": "72494023234", "name": "SAN FRANCISCO INTERNATIONAL AIRPORT, CA US", "quality": 100, "contribution": 0.0}}}