{"queryCost": 1, "latitude": 37.721298, "longitude": -122.221001, "resolvedAddress": "37.721298, -122.221001", "address": "37.721298, -122.221001", "timezone": "America/Los_Angeles", "tzoffset": -8.0, "days": [{"datetime": "2018-01-10", "datetimeEpoch": 1515571200, "tempmax": 13.4, "tempmin": 6.7, "temp": 11.0, "feelslikemax": 13.4, "feelslikemin": 5.2, "feelslike": 10.8, "dew": 9.6, "humidity": 91.28, "precip": 0.0, "precipprob": null, "precipcover": 0.0, "preciptype": null, "snow": 0.0, "snowdepth": 0.0, "windgust": 53.6, "windspeed": 16.6, "winddir": 217.1, "pressure": 1020.4, "cloudcover": 82.1, "visibility": 14.4, "solarradiation": 64.7, "solarenergy": 2.6, "sunrise": "07:24:13", "sunriseEpoch": 1515597853, "sunset": "17:09:04", "sunsetEpoch": 1515632944, "moonphase": 0.83, "conditions": "Overcast", "icon": "cloudy", "stations": ["72585093228", "KSFO", "72493023230", "KHWD", "KOAK", "72494023234"], "source": "obs", "hours": null}], "stations": {"72585093228": {"distance": 11958.0, "latitude": 37.654, "longitude": -122.115, "useCount": 0, "id": "72585093228", "name": "HAYWARD AIR TERMINAL, CA US", "quality": 100, "contribution": 0.0}, "KSFO": {"distance": 18703.0, "latitude": 37.61, "longitude": -122.38, "useCount": 0, "id": "KSFO", "name": "KSFO", "quality": 100, "contribution": 0.0}, "72493023230": {"distance": 11.0, "latitude": 37.721, "longitude": -122.221, "useCount": 0, "id": "72493023230", "name": "OAKLAND METROPOLITAN, CA US", "quality": 100, "contribution": 0.0}, "KHWD": {"distance": 10572.0, "latitude": 37.67, "longitude": -122.12, "useCount": 0, "id": "KHWD", "name": "KHWD", "quality": 100, "contribution": 0.0}, "KOAK": {"distance": 169.0, "latitude": 37.72, "longitude": -122.22, "useCount": 0, "id": "KOAK", "name": "KOAK", "quality": 100, "contribution": 0.0}, "72494023234": {"distance": 16997.0, "latitude": 37.62, "longitude": -122.365, "useCount": 0, "id": "72494023234", "name": "SAN FRANCISCO INTERNATIONAL AIRPORT, CA US", "quality": 100, "contribution": 0.0}}}