{"queryCost": 1, "latitude": 35.39310073852539, "longitude": -97.60070037841797, "resolvedAddress": "35.39310073852539, -97.60070037841797", "address": "35.39310073852539, -97.60070037841797", "timezone": "America/Chicago", "tzoffset": -6.0, "days": [{"datetime": "2020-01-01", "datetimeEpoch": 1577858400, "tempmax": 12.2, "tempmin": -1.1, "temp": 6.5, "feelslikemax": 12.2, "feelslikemin": -6.4, "feelslike": 4.0, "dew": -0.6, "humidity": 61.72, "precip": 0.0, "precipprob": null, "precipcover": 0.0, "preciptype": null, "snow": 0.0, "snowdepth": 0.0, "windgust": 66.6, "windspeed": 51.8, "winddir": 185.0, "pressure": 1007.9, "cloudcover": 51.5, "visibility": 16.0, "solarradiation": 271.2, "solarenergy": 9.8, "sunrise": "07:39:29", "sunriseEpoch": 1577885969, "sunset": "17:28:22", "sunsetEpoch": 1577921302, "moonphase": 0.17, "conditions": "Partially cloudy", "icon": "wind", "stations": ["72354013919", "72353013967", "KTIK", "KPWA", "KOKC", "72354403954"], "source": "obs", "hours": null}], "stations": {"72354013919": {"distance": 19900.0, "latitude": 35.417, "longitude": -97.383, "useCount": 0, "id": "72354013919", "name": "OKLAHOMA CITY TINKER AFB, OK US", "quality": 99, "contribution": 0.0}, "72353013967": {"distance": 468.0, "latitude": 35.389, "longitude": -97.601, "useCount": 0, "id": "72353013967", "name": "OKLAHOMA CITY WILL ROGERS WORLD AIRPORT, OK US", "quality": 100, "contribution": 0.0}, "KTIK": {"distance": 20247.0, "latitude": 35.42, "longitude": -97.38, "useCount": 0, "id": "KTIK", "name": "KTIK", "quality": 100, "contribution": 0.0}, "KPWA": {"distance": 15882.0, "latitude": 35.53, "longitude": -97.65, "useCount": 0, "id": "KPWA", "name": "KPWA", "quality": 100, "contribution": 0.0}, "KOKC": {"distance": 771.0, "latitude": 35.4, "longitude": -97.6, "useCount": 0, "id": "KOKC", "name": "KOKC", "quality": 100, "contribution": 0.0}, "72354403954": {"distance": 16256.0, "latitude": 35.534, "longitude": -97.647, "useCount": 0, "id": "72354403954", "name": "OKLAHOMA CITY WILEY POST AIRPORT, OK US", "quality": 100, "contribution": 0.0}}}