{"queryCost": 1, "latitude": 35.39310073852539, "longitude": -97.60070037841797, "resolvedAddress": "35.39310073852539, -97.60070037841797", "address": "35.39310073852539, -97.60070037841797", "timezone": "America/Chicago", "tzoffset": -5.0, "days": [{"datetime": "2018-10-06", "datetimeEpoch": 1538802000, "tempmax": 23.4, "tempmin": 14.3, "temp": 18.6, "feelslikemax": 23.4, "feelslikemin": 14.3, "feelslike": 18.7, "dew": 15.6, "humidity": 82.99, "precip": 15.47, "precipprob": null, "precipcover": 16.67, "preciptype": null, "snow": 0.0, "snowdepth": 0.0, "windgust": 51.8, "windspeed": 29.5, "winddir": 247.5, "pressure": 1012.9, "cloudcover": 93.0, "visibility": 15.1, "solarradiation": 205.6, "solarenergy": 8.9, "sunrise": "07:29:13", "sunriseEpoch": 1538828953, "sunset": "19:07:10", "sunsetEpoch": 1538870830, "moonphase": 0.96, "conditions": "Rain, Overcast", "icon": "rain", "stations": ["72354013919", "72353013967", "KTIK", "KPWA", "KOKC", "72354403954"], "source": "obs", "hours": null}], "stations": {"72354013919": {"distance": 19900.0, "latitude": 35.417, "longitude": -97.383, "useCount": 0, "id": "72354013919", "name": "OKLAHOMA CITY TINKER AFB, OK US", "quality": 99, "contribution": 0.0}, "72353013967": {"distance": 468.0, "latitude": 35.389, "longitude": -97.601, "useCount": 0, "id": "72353013967", "name": "OKLAHOMA CITY WILL ROGERS WORLD AIRPORT, OK US", "quality": 100, "contribution": 0.0}, "KTIK": {"distance": 20247.0, "latitude": 35.42, "longitude": -97.38, "useCount": 0, "id": "KTIK", "name": "KTIK", "quality": 100, "contribution": 0.0}, "KPWA": {"distance": 15882.0, "latitude": 35.53, "longitude": -97.65, "useCount": 0, "id": "KPWA", "name": "KPWA", "quality": 100, "contribution": 0.0}, "KOKC": {"distance": 771.0, "latitude": 35.4, "longitude": -97.6, "useCount": 0, "id": "KOKC", "name": "KOKC", "quality": 100, "contribution": 0.0}, "72354403954": {"distance": 16256.0, "latitude": 35.534, "longitude": -97.647, "useCount": 0, "id": "72354403954", "name": "OKLAHOMA CITY WILEY POST AIRPORT, OK US", "quality": 100, "contribution": 0.0}}}