{"queryCost": 1, "latitude": 35.39310073852539, "longitude": -97.60070037841797, "resolvedAddress": "35.39310073852539, -97.60070037841797", "address": "35.39310073852539, -97.60070037841797", "timezone": "America/Chicago", "tzoffset": -5.0, "days": [{"datetime": "2018-07-31", "datetimeEpoch": 1533013200, "tempmax": 28.9, "tempmin": 17.2, "temp": 23.1, "feelslikemax": 28.4, "feelslikemin": 17.2, "feelslike": 23.0, "dew": 15.0, "humidity": 63.95, "precip": 0.0, "precipprob": null, "precipcover": 0.0, "preciptype": null, "snow": 0.0, "snowdepth": 0.0, "windgust": 35.3, "windspeed": 20.5, "winddir": 223.3, "pressure": 1017.8, "cloudcover": 35.9, "visibility": 16.0, "solarradiation": 499.6, "solarenergy": 25.2, "sunrise": "06:38:18", "sunriseEpoch": 1533037098, "sunset": "20:34:48", "sunsetEpoch": 1533087288, "moonphase": 0.56, "conditions": "Partially cloudy", "icon": "partly-cloudy-day", "stations": ["72354013919", "72353013967", "KTIK", "KPWA", "KOKC", "72354403954"], "source": "obs", "hours": null}], "stations": {"72354013919": {"distance": 19900.0, "latitude": 35.417, "longitude": -97.383, "useCount": 0, "id": "72354013919", "name": "OKLAHOMA CITY TINKER AFB, OK US", "quality": 99, "contribution": 0.0}, "72353013967": {"distance": 468.0, "latitude": 35.389, "longitude": -97.601, "useCount": 0, "id": "72353013967", "name": "OKLAHOMA CITY WILL ROGERS WORLD AIRPORT, OK US", "quality": 100, "contribution": 0.0}, "KTIK": {"distance": 20247.0, "latitude": 35.42, "longitude": -97.38, "useCount": 0, "id": "KTIK", "name": "KTIK", "quality": 100, "contribution": 0.0}, "KPWA": {"distance": 15882.0, "latitude": 35.53, "longitude": -97.65, "useCount": 0, "id": "KPWA", "name": "KPWA", "quality": 100, "contribution": 0.0}, "KOKC": {"distance": 771.0, "latitude": 35.4, "longitude": -97.6, "useCount": 0, "id": "KOKC", "name": "KOKC", "quality": 100, "contribution": 0.0}, "72354403954": {"distance": 16256.0, "latitude": 35.534, "longitude": -97.647, "useCount": 0, "id": "72354403954", "name": "OKLAHOMA CITY WILEY POST AIRPORT, OK US", "quality": 100, "contribution": 0.0}}}