{"queryCost": 1, "latitude": 35.39310073852539, "longitude": -97.60070037841797, "resolvedAddress": "35.39310073852539, -97.60070037841797", "address": "35.39310073852539, -97.60070037841797", "timezone": "America/Chicago", "tzoffset": -5.0, "days": [{"datetime": "2019-08-19", "datetimeEpoch": 1566190800, "tempmax": 37.2, "tempmin": 24.4, "temp": 30.7, "feelslikemax": 41.9, "feelslikemin": 24.4, "feelslike": 33.4, "dew": 21.6, "humidity": 60.54, "precip": 0.0, "precipprob": null, "precipcover": 0.0, "preciptype": null, "snow": 0.0, "snowdepth": 0.0, "windgust": 37.1, "windspeed": 27.7, "winddir": 168.8, "pressure": 1012.1, "cloudcover": 57.2, "visibility": 16.0, "solarradiation": 455.6, "solarenergy": 23.0, "sunrise": "06:52:42", "sunriseEpoch": 1566215562, "sunset": "20:14:49", "sunsetEpoch": 1566263689, "moonphase": 0.57, "conditions": "Partially cloudy", "icon": "partly-cloudy-day", "stations": ["72354013919", "72353013967", "KTIK", "KPWA", "KOKC", "72354403954"], "source": "obs", "hours": null}], "stations": {"72354013919": {"distance": 19900.0, "latitude": 35.417, "longitude": -97.383, "useCount": 0, "id": "72354013919", "name": "OKLAHOMA CITY TINKER AFB, OK US", "quality": 99, "contribution": 0.0}, "72353013967": {"distance": 468.0, "latitude": 35.389, "longitude": -97.601, "useCount": 0, "id": "72353013967", "name": "OKLAHOMA CITY WILL ROGERS WORLD AIRPORT, OK US", "quality": 100, "contribution": 0.0}, "KTIK": {"distance": 20247.0, "latitude": 35.42, "longitude": -97.38, "useCount": 0, "id": "KTIK", "name": "KTIK", "quality": 100, "contribution": 0.0}, "KPWA": {"distance": 15882.0, "latitude": 35.53, "longitude": -97.65, "useCount": 0, "id": "KPWA", "name": "KPWA", "quality": 100, "contribution": 0.0}, "KOKC": {"distance": 771.0, "latitude": 35.4, "longitude": -97.6, "useCount": 0, "id": "KOKC", "name": "KOKC", "quality": 100, "contribution": 0.0}, "72354403954": {"distance": 16256.0, "latitude": 35.534, "longitude": -97.647, "useCount": 0, "id": "72354403954", "name": "OKLAHOMA CITY WILEY POST AIRPORT, OK US", "quality": 100, "contribution": 0.0}}}