{"queryCost": 1, "latitude": 41.3032, "longitude": -95.894096, "resolvedAddress": "41.3032, -95.894096", "address": "41.3032, -95.894096", "timezone": "America/Chicago", "tzoffset": -6.0, "days": [{"datetime": "2020-01-02", "datetimeEpoch": 1577944800, "tempmax": 6.7, "tempmin": -2.1, "temp": 1.6, "feelslikemax": 2.6, "feelslikemin": -5.6, "feelslike": -1.4, "dew": -1.0, "humidity": 83.25, "precip": 0.0, "precipprob": null, "precipcover": 0.0, "preciptype": null, "snow": 0.0, "snowdepth": 0.0, "windgust": 35.3, "windspeed": 25.9, "winddir": 276.8, "pressure": 1002.9, "cloudcover": 56.6, "visibility": 16.0, "solarradiation": 117.5, "solarenergy": 4.2, "sunrise": "07:49:36", "sunriseEpoch": 1577972976, "sunset": "17:05:33", "sunsetEpoch": 1578006333, "moonphase": 0.22, "conditions": "Partially cloudy", "icon": "partly-cloudy-day", "stations": ["KOFF", "72549704908", "KOMA", "72550014942", "KCBF", "72554014949"], "source": "obs", "hours": null}], "stations": {"KOFF": {"distance": 20509.0, "latitude": 41.12, "longitude": -95.92, "useCount": 0, "id": "KOFF", "name": "KOFF", "quality": 100, "contribution": 0.0}, "72549704908": {"distance": 12255.0, "latitude": 41.259, "longitude": -95.76, "useCount": 0, "id": "72549704908", "name": "COUNCIL BLUFFS MUNICIPAL AIRPORT, IA US", "quality": 100, "contribution": 0.0}, "KOMA": {"distance": 609.0, "latitude": 41.3, "longitude": -95.9, "useCount": 0, "id": "KOMA", "name": "KOMA", "quality": 100, "contribution": 0.0}, "72550014942": {"distance": 884.0, "latitude": 41.31, "longitude": -95.899, "useCount": 0, "id": "72550014942", "name": "OMAHA EPPLEY AIRFIELD, NE US", "quality": 100, "contribution": 0.0}, "KCBF": {"distance": 11019.0, "latitude": 41.27, "longitude": -95.77, "useCount": 0, "id": "KCBF", "name": "KCBF", "quality": 99, "contribution": 0.0}, "72554014949": {"distance": 20847.0, "latitude": 41.117, "longitude": -95.917, "useCount": 0, "id": "72554014949", "name": "BELLEVUE OFFUTT AFB, NE US", "quality": 100, "contribution": 0.0}}}