{"queryCost": 1, "latitude": 41.3032, "longitude": -95.894096, "resolvedAddress": "41.3032, -95.894096", "address": "41.3032, -95.894096", "timezone": "America/Chicago", "tzoffset": -6.0, "days": [{"datetime": "2020-01-04", "datetimeEpoch": 1578117600, "tempmax": 6.1, "tempmin": -6.6, "temp": -0.2, "feelslikemax": 2.3, "feelslikemin": -11.6, "feelslike": -4.5, "dew": -6.7, "humidity": 63.69, "precip": 0.0, "precipprob": null, "precipcover": 0.0, "preciptype": null, "snow": 0.0, "snowdepth": 0.0, "windgust": 51.8, "windspeed": 27.7, "winddir": 239.1, "pressure": 1020.4, "cloudcover": 30.8, "visibility": 16.0, "solarradiation": 240.6, "solarenergy": 8.7, "sunrise": "07:49:41", "sunriseEpoch": 1578145781, "sunset": "17:07:20", "sunsetEpoch": 1578179240, "moonphase": 0.31, "conditions": "Partially cloudy", "icon": "partly-cloudy-day", "stations": ["KOFF", "72549704908", "KOMA", "72550014942", "KCBF", "72554014949"], "source": "obs", "hours": null}], "stations": {"KOFF": {"distance": 20509.0, "latitude": 41.12, "longitude": -95.92, "useCount": 0, "id": "KOFF", "name": "KOFF", "quality": 100, "contribution": 0.0}, "72549704908": {"distance": 12255.0, "latitude": 41.259, "longitude": -95.76, "useCount": 0, "id": "72549704908", "name": "COUNCIL BLUFFS MUNICIPAL AIRPORT, IA US", "quality": 100, "contribution": 0.0}, "KOMA": {"distance": 609.0, "latitude": 41.3, "longitude": -95.9, "useCount": 0, "id": "KOMA", "name": "KOMA", "quality": 100, "contribution": 0.0}, "72550014942": {"distance": 884.0, "latitude": 41.31, "longitude": -95.899, "useCount": 0, "id": "72550014942", "name": "OMAHA EPPLEY AIRFIELD, NE US", "quality": 100, "contribution": 0.0}, "KCBF": {"distance": 11019.0, "latitude": 41.27, "longitude": -95.77, "useCount": 0, "id": "KCBF", "name": "KCBF", "quality": 99, "contribution": 0.0}, "72554014949": {"distance": 20847.0, "latitude": 41.117, "longitude": -95.917, "useCount": 0, "id": "72554014949", "name": "BELLEVUE OFFUTT AFB, NE US", "quality": 100, "contribution": 0.0}}}