{"queryCost": 1, "latitude": 41.3032, "longitude": -95.894096, "resolvedAddress": "41.3032, -95.894096", "address": "41.3032, -95.894096", "timezone": "America/Chicago", "tzoffset": -6.0, "days": [{"datetime": "2020-01-06", "datetimeEpoch": 1578290400, "tempmax": 6.1, "tempmin": -3.8, "temp": 0.2, "feelslikemax": 2.7, "feelslikemin": -6.4, "feelslike": -2.3, "dew": -4.1, "humidity": 74.03, "precip": 0.0, "precipprob": null, "precipcover": 0.0, "preciptype": null, "snow": 0.0, "snowdepth": 0.0, "windgust": null, "windspeed": 18.3, "winddir": 198.3, "pressure": 1021.6, "cloudcover": 57.0, "visibility": 16.0, "solarradiation": 162.1, "solarenergy": 5.8, "sunrise": "07:49:36", "sunriseEpoch": 1578318576, "sunset": "17:09:13", "sunsetEpoch": 1578352153, "moonphase": 0.4, "conditions": "Partially cloudy", "icon": "partly-cloudy-day", "stations": ["KOFF", "72549704908", "KOMA", "72550014942", "KCBF", "72554014949"], "source": "obs", "hours": null}], "stations": {"KOFF": {"distance": 20509.0, "latitude": 41.12, "longitude": -95.92, "useCount": 0, "id": "KOFF", "name": "KOFF", "quality": 100, "contribution": 0.0}, "72549704908": {"distance": 12255.0, "latitude": 41.259, "longitude": -95.76, "useCount": 0, "id": "72549704908", "name": "COUNCIL BLUFFS MUNICIPAL AIRPORT, IA US", "quality": 100, "contribution": 0.0}, "KOMA": {"distance": 609.0, "latitude": 41.3, "longitude": -95.9, "useCount": 0, "id": "KOMA", "name": "KOMA", "quality": 100, "contribution": 0.0}, "72550014942": {"distance": 884.0, "latitude": 41.31, "longitude": -95.899, "useCount": 0, "id": "72550014942", "name": "OMAHA EPPLEY AIRFIELD, NE US", "quality": 100, "contribution": 0.0}, "KCBF": {"distance": 11019.0, "latitude": 41.27, "longitude": -95.77, "useCount": 0, "id": "KCBF", "name": "KCBF", "quality": 99, "contribution": 0.0}, "72554014949": {"distance": 20847.0, "latitude": 41.117, "longitude": -95.917, "useCount": 0, "id": "72554014949", "name": "BELLEVUE OFFUTT AFB, NE US", "quality": 100, "contribution": 0.0}}}