{"queryCost": 1, "latitude": 41.3032, "longitude": -95.894096, "resolvedAddress": "41.3032, -95.894096", "address": "41.3032, -95.894096", "timezone": "America/Chicago", "tzoffset": -5.0, "days": [{"datetime": "2018-06-14", "datetimeEpoch": 1528952400, "tempmax": 31.7, "tempmin": 20.6, "temp": 25.9, "feelslikemax": 35.2, "feelslikemin": 20.6, "feelslike": 26.9, "dew": 17.2, "humidity": 58.81, "precip": 0.0, "precipprob": null, "precipcover": 0.0, "preciptype": null, "snow": 0.0, "snowdepth": 0.0, "windgust": 61.7, "windspeed": 42.4, "winddir": 142.5, "pressure": 1009.8, "cloudcover": 58.0, "visibility": 16.0, "solarradiation": 413.4, "solarenergy": 23.8, "sunrise": "05:49:52", "sunriseEpoch": 1528973392, "sunset": "20:58:04", "sunsetEpoch": 1529027884, "moonphase": 0.0, "conditions": "Partially cloudy", "icon": "wind", "stations": ["KOFF", "72549704908", "KOMA", "72550014942", "KCBF", "72554014949"], "source": "obs", "hours": null}], "stations": {"KOFF": {"distance": 20509.0, "latitude": 41.12, "longitude": -95.92, "useCount": 0, "id": "KOFF", "name": "KOFF", "quality": 100, "contribution": 0.0}, "72549704908": {"distance": 12255.0, "latitude": 41.259, "longitude": -95.76, "useCount": 0, "id": "72549704908", "name": "COUNCIL BLUFFS MUNICIPAL AIRPORT, IA US", "quality": 100, "contribution": 0.0}, "KOMA": {"distance": 609.0, "latitude": 41.3, "longitude": -95.9, "useCount": 0, "id": "KOMA", "name": "KOMA", "quality": 100, "contribution": 0.0}, "72550014942": {"distance": 884.0, "latitude": 41.31, "longitude": -95.899, "useCount": 0, "id": "72550014942", "name": "OMAHA EPPLEY AIRFIELD, NE US", "quality": 100, "contribution": 0.0}, "KCBF": {"distance": 11019.0, "latitude": 41.27, "longitude": -95.77, "useCount": 0, "id": "KCBF", "name": "KCBF", "quality": 99, "contribution": 0.0}, "72554014949": {"distance": 20847.0, "latitude": 41.117, "longitude": -95.917, "useCount": 0, "id": "72554014949", "name": "BELLEVUE OFFUTT AFB, NE US", "quality": 100, "contribution": 0.0}}}