{"queryCost": 1, "latitude": 41.9786, "longitude": -87.9048, "resolvedAddress": "41.9786, -87.9048", "address": "41.9786, -87.9048", "timezone": "America/Chicago", "tzoffset": -6.0, "days": [{"datetime": "2019-02-24", "datetimeEpoch": 1550988000, "tempmax": 9.9, "tempmin": -11.1, "temp": -0.8, "feelslikemax": 7.9, "feelslikemin": -21.5, "feelslike": -8.3, "dew": -5.3, "humidity": 71.9, "precip": 3.25, "precipprob": null, "precipcover": 16.67, "preciptype": null, "snow": 0.0, "snowdepth": 0.0, "windgust": 87.1, "windspeed": 53.6, "winddir": 252.5, "pressure": 1003.3, "cloudcover": 65.4, "visibility": 15.4, "solarradiation": 208.4, "solarenergy": 8.3, "sunrise": "06:34:42", "sunriseEpoch": 1551011682, "sunset": "17:35:34", "sunsetEpoch": 1551051334, "moonphase": 0.65, "conditions": "Snow, Partially cloudy", "icon": "snow", "stations": ["72534014819", "KORD", "72530094846", "KMDW", "KPWK", "74466504838"], "source": "obs", "hours": null}], "stations": {"72534014819": {"distance": 24883.0, "latitude": 41.786, "longitude": -87.752, "useCount": 0, "id": "72534014819", "name": "CHICAGO MIDWAY AIRPORT, IL US", "quality": 100, "contribution": 0.0}, "KORD": {"distance": 427.0, "latitude": 41.98, "longitude": -87.9, "useCount": 0, "id": "KORD", "name": "KORD", "quality": 100, "contribution": 0.0}, "72530094846": {"distance": 3019.0, "latitude": 41.96, "longitude": -87.932, "useCount": 0, "id": "72530094846", "name": "CHICAGO OHARE INTERNATIONAL AIRPORT, IL US", "quality": 100, "contribution": 0.0}, "KMDW": {"distance": 25561.0, "latitude": 41.78, "longitude": -87.75, "useCount": 0, "id": "KMDW", "name": "KMDW", "quality": 100, "contribution": 0.0}, "KPWK": {"distance": 15791.0, "latitude": 42.12, "longitude": -87.92, "useCount": 0, "id": "KPWK", "name": "KPWK", "quality": 100, "contribution": 0.0}, "74466504838": {"distance": 15830.0, "latitude": 42.121, "longitude": -87.905, "useCount": 0, "id": "74466504838", "name": "CHICAGO PALWAUKEE AIRPORT, IL US", "quality": 100, "contribution": 0.0}}}