{"queryCost": 1, "latitude": 41.9786, "longitude": -87.9048, "resolvedAddress": "41.9786, -87.9048", "address": "41.9786, -87.9048", "timezone": "America/Chicago", "tzoffset": -5.0, "days": [{"datetime": "2019-10-10", "datetimeEpoch": 1570683600, "tempmax": 21.2, "tempmin": 12.9, "temp": 17.3, "feelslikemax": 21.2, "feelslikemin": 12.9, "feelslike": 17.3, "dew": 12.4, "humidity": 73.23, "precip": 0.5, "precipprob": null, "precipcover": 25.0, "preciptype": null, "snow": 0.0, "snowdepth": 0.0, "windgust": 37.1, "windspeed": 20.5, "winddir": 133.3, "pressure": 1016.6, "cloudcover": 54.9, "visibility": 15.5, "solarradiation": 225.4, "solarenergy": 9.7, "sunrise": "06:58:08", "sunriseEpoch": 1570708688, "sunset": "18:18:29", "sunsetEpoch": 1570749509, "moonphase": 0.45, "conditions": "Rain, Partially cloudy", "icon": "rain", "stations": ["72534014819", "KORD", "72530094846", "KMDW", "KPWK", "74466504838"], "source": "obs", "hours": null}], "stations": {"72534014819": {"distance": 24883.0, "latitude": 41.786, "longitude": -87.752, "useCount": 0, "id": "72534014819", "name": "CHICAGO MIDWAY AIRPORT, IL US", "quality": 100, "contribution": 0.0}, "KORD": {"distance": 427.0, "latitude": 41.98, "longitude": -87.9, "useCount": 0, "id": "KORD", "name": "KORD", "quality": 100, "contribution": 0.0}, "72530094846": {"distance": 3019.0, "latitude": 41.96, "longitude": -87.932, "useCount": 0, "id": "72530094846", "name": "CHICAGO OHARE INTERNATIONAL AIRPORT, IL US", "quality": 100, "contribution": 0.0}, "KMDW": {"distance": 25561.0, "latitude": 41.78, "longitude": -87.75, "useCount": 0, "id": "KMDW", "name": "KMDW", "quality": 100, "contribution": 0.0}, "KPWK": {"distance": 15791.0, "latitude": 42.12, "longitude": -87.92, "useCount": 0, "id": "KPWK", "name": "KPWK", "quality": 100, "contribution": 0.0}, "74466504838": {"distance": 15830.0, "latitude": 42.121, "longitude": -87.905, "useCount": 0, "id": "74466504838", "name": "CHICAGO PALWAUKEE AIRPORT, IL US", "quality": 100, "contribution": 0.0}}}