{"queryCost": 1, "latitude": 41.9786, "longitude": -87.9048, "resolvedAddress": "41.9786, -87.9048", "address": "41.9786, -87.9048", "timezone": "America/Chicago", "tzoffset": -5.0, "days": [{"datetime": "2019-11-01", "datetimeEpoch": 1572584400, "tempmax": 6.2, "tempmin": -5.0, "temp": 0.5, "feelslikemax": 2.9, "feelslikemin": -9.3, "feelslike": -3.6, "dew": -3.7, "humidity": 74.89, "precip": 0.3, "precipprob": null, "precipcover": 8.33, "preciptype": null, "snow": 2.13, "snowdepth": 6.04, "windgust": 38.9, "windspeed": 25.9, "winddir": 219.6, "pressure": 1021.9, "cloudcover": 42.6, "visibility": 15.4, "solarradiation": 241.8, "solarenergy": 10.4, "sunrise": "07:23:57", "sunriseEpoch": 1572611037, "sunset": "17:45:51", "sunsetEpoch": 1572648351, "moonphase": 0.11, "conditions": "Snow, Partially cloudy", "icon": "snow", "stations": ["72534014819", "KORD", "72530094846", "KMDW", "KPWK", "74466504838"], "source": "obs", "hours": null}], "stations": {"72534014819": {"distance": 24883.0, "latitude": 41.786, "longitude": -87.752, "useCount": 0, "id": "72534014819", "name": "CHICAGO MIDWAY AIRPORT, IL US", "quality": 100, "contribution": 0.0}, "KORD": {"distance": 427.0, "latitude": 41.98, "longitude": -87.9, "useCount": 0, "id": "KORD", "name": "KORD", "quality": 100, "contribution": 0.0}, "72530094846": {"distance": 3019.0, "latitude": 41.96, "longitude": -87.932, "useCount": 0, "id": "72530094846", "name": "CHICAGO OHARE INTERNATIONAL AIRPORT, IL US", "quality": 100, "contribution": 0.0}, "KMDW": {"distance": 25561.0, "latitude": 41.78, "longitude": -87.75, "useCount": 0, "id": "KMDW", "name": "KMDW", "quality": 100, "contribution": 0.0}, "KPWK": {"distance": 15791.0, "latitude": 42.12, "longitude": -87.92, "useCount": 0, "id": "KPWK", "name": "KPWK", "quality": 100, "contribution": 0.0}, "74466504838": {"distance": 15830.0, "latitude": 42.121, "longitude": -87.905, "useCount": 0, "id": "74466504838", "name": "CHICAGO PALWAUKEE AIRPORT, IL US", "quality": 100, "contribution": 0.0}}}