{"queryCost": 1, "latitude": 41.9786, "longitude": -87.9048, "resolvedAddress": "41.9786, -87.9048", "address": "41.9786, -87.9048", "timezone": "America/Chicago", "tzoffset": -6.0, "days": [{"datetime": "2018-01-16", "datetimeEpoch": 1516082400, "tempmax": -3.9, "tempmin": -12.8, "temp": -8.5, "feelslikemax": -10.4, "feelslikemin": -20.7, "feelslike": -15.7, "dew": -12.7, "humidity": 71.92, "precip": 0.3, "precipprob": null, "precipcover": 4.17, "preciptype": null, "snow": 0.96, "snowdepth": 7.79, "windgust": 29.5, "windspeed": 24.1, "winddir": 300.4, "pressure": 1031.8, "cloudcover": 71.0, "visibility": 12.7, "solarradiation": null, "solarenergy": null, "sunrise": "07:16:38", "sunriseEpoch": 1516108598, "sunset": "16:46:35", "sunsetEpoch": 1516142795, "moonphase": 1.0, "conditions": "Snow, Partially cloudy", "icon": "snow", "stations": ["72534014819", "KORD", "72530094846", "KMDW", "KPWK", "74466504838"], "source": "obs", "hours": null}], "stations": {"72534014819": {"distance": 24883.0, "latitude": 41.786, "longitude": -87.752, "useCount": 0, "id": "72534014819", "name": "CHICAGO MIDWAY AIRPORT, IL US", "quality": 100, "contribution": 0.0}, "KORD": {"distance": 427.0, "latitude": 41.98, "longitude": -87.9, "useCount": 0, "id": "KORD", "name": "KORD", "quality": 100, "contribution": 0.0}, "72530094846": {"distance": 3019.0, "latitude": 41.96, "longitude": -87.932, "useCount": 0, "id": "72530094846", "name": "CHICAGO OHARE INTERNATIONAL AIRPORT, IL US", "quality": 100, "contribution": 0.0}, "KMDW": {"distance": 25561.0, "latitude": 41.78, "longitude": -87.75, "useCount": 0, "id": "KMDW", "name": "KMDW", "quality": 100, "contribution": 0.0}, "KPWK": {"distance": 15791.0, "latitude": 42.12, "longitude": -87.92, "useCount": 0, "id": "KPWK", "name": "KPWK", "quality": 100, "contribution": 0.0}, "74466504838": {"distance": 15830.0, "latitude": 42.121, "longitude": -87.905, "useCount": 0, "id": "74466504838", "name": "CHICAGO PALWAUKEE AIRPORT, IL US", "quality": 100, "contribution": 0.0}}}