{"queryCost": 1, "latitude": 41.9786, "longitude": -87.9048, "resolvedAddress": "41.9786, -87.9048", "address": "41.9786, -87.9048", "timezone": "America/Chicago", "tzoffset": -5.0, "days": [{"datetime": "2019-03-26", "datetimeEpoch": 1553576400, "tempmax": 8.3, "tempmin": -3.8, "temp": 2.4, "feelslikemax": 6.6, "feelslikemin": -7.1, "feelslike": 0.0, "dew": -10.6, "humidity": 43.53, "precip": 0.0, "precipprob": null, "precipcover": 0.0, "preciptype": null, "snow": 0.0, "snowdepth": 0.0, "windgust": null, "windspeed": 18.3, "winddir": 130.4, "pressure": 1030.6, "cloudcover": 24.1, "visibility": 16.0, "solarradiation": 455.5, "solarenergy": 21.3, "sunrise": "06:44:53", "sunriseEpoch": 1553600693, "sunset": "19:10:24", "sunsetEpoch": 1553645424, "moonphase": 0.67, "conditions": "Clear", "icon": "clear-day", "stations": ["72534014819", "KORD", "72530094846", "KMDW", "KPWK", "74466504838"], "source": "obs", "hours": null}], "stations": {"72534014819": {"distance": 24883.0, "latitude": 41.786, "longitude": -87.752, "useCount": 0, "id": "72534014819", "name": "CHICAGO MIDWAY AIRPORT, IL US", "quality": 100, "contribution": 0.0}, "KORD": {"distance": 427.0, "latitude": 41.98, "longitude": -87.9, "useCount": 0, "id": "KORD", "name": "KORD", "quality": 100, "contribution": 0.0}, "72530094846": {"distance": 3019.0, "latitude": 41.96, "longitude": -87.932, "useCount": 0, "id": "72530094846", "name": "CHICAGO OHARE INTERNATIONAL AIRPORT, IL US", "quality": 100, "contribution": 0.0}, "KMDW": {"distance": 25561.0, "latitude": 41.78, "longitude": -87.75, "useCount": 0, "id": "KMDW", "name": "KMDW", "quality": 100, "contribution": 0.0}, "KPWK": {"distance": 15791.0, "latitude": 42.12, "longitude": -87.92, "useCount": 0, "id": "KPWK", "name": "KPWK", "quality": 100, "contribution": 0.0}, "74466504838": {"distance": 15830.0, "latitude": 42.121, "longitude": -87.905, "useCount": 0, "id": "74466504838", "name": "CHICAGO PALWAUKEE AIRPORT, IL US", "quality": 100, "contribution": 0.0}}}