{"queryCost": 1, "latitude": 41.9786, "longitude": -87.9048, "resolvedAddress": "41.9786, -87.9048", "address": "41.9786, -87.9048", "timezone": "America/Chicago", "tzoffset": -6.0, "days": [{"datetime": "2018-01-23", "datetimeEpoch": 1516687200, "tempmax": 3.9, "tempmin": -2.1, "temp": -0.1, "feelslikemax": -0.4, "feelslikemin": -7.5, "feelslike": -5.3, "dew": -3.5, "humidity": 77.84, "precip": 1.91, "precipprob": null, "precipcover": 25.0, "preciptype": null, "snow": 1.47, "snowdepth": 1.62, "windgust": 37.1, "windspeed": 27.7, "winddir": 305.4, "pressure": 1010.2, "cloudcover": 100.0, "visibility": 14.7, "solarradiation": null, "solarenergy": null, "sunrise": "07:12:18", "sunriseEpoch": 1516713138, "sunset": "16:55:08", "sunsetEpoch": 1516748108, "moonphase": 0.18, "conditions": "Snow, Overcast", "icon": "snow", "stations": ["72534014819", "KORD", "72530094846", "KMDW", "KPWK", "74466504838"], "source": "obs", "hours": null}], "stations": {"72534014819": {"distance": 24883.0, "latitude": 41.786, "longitude": -87.752, "useCount": 0, "id": "72534014819", "name": "CHICAGO MIDWAY AIRPORT, IL US", "quality": 100, "contribution": 0.0}, "KORD": {"distance": 427.0, "latitude": 41.98, "longitude": -87.9, "useCount": 0, "id": "KORD", "name": "KORD", "quality": 100, "contribution": 0.0}, "72530094846": {"distance": 3019.0, "latitude": 41.96, "longitude": -87.932, "useCount": 0, "id": "72530094846", "name": "CHICAGO OHARE INTERNATIONAL AIRPORT, IL US", "quality": 100, "contribution": 0.0}, "KMDW": {"distance": 25561.0, "latitude": 41.78, "longitude": -87.75, "useCount": 0, "id": "KMDW", "name": "KMDW", "quality": 100, "contribution": 0.0}, "KPWK": {"distance": 15791.0, "latitude": 42.12, "longitude": -87.92, "useCount": 0, "id": "KPWK", "name": "KPWK", "quality": 100, "contribution": 0.0}, "74466504838": {"distance": 15830.0, "latitude": 42.121, "longitude": -87.905, "useCount": 0, "id": "74466504838", "name": "CHICAGO PALWAUKEE AIRPORT, IL US", "quality": 100, "contribution": 0.0}}}