{"queryCost": 1, "latitude": 41.9786, "longitude": -87.9048, "resolvedAddress": "41.9786, -87.9048", "address": "41.9786, -87.9048", "timezone": "America/Chicago", "tzoffset": -5.0, "days": [{"datetime": "2018-09-09", "datetimeEpoch": 1536469200, "tempmax": 20.0, "tempmin": 15.7, "temp": 17.8, "feelslikemax": 20.0, "feelslikemin": 15.7, "feelslike": 17.8, "dew": 10.6, "humidity": 63.14, "precip": 0.0, "precipprob": null, "precipcover": 0.0, "preciptype": null, "snow": 0.0, "snowdepth": 0.0, "windgust": 51.8, "windspeed": 40.6, "winddir": 47.9, "pressure": 1017.5, "cloudcover": 69.5, "visibility": 16.0, "solarradiation": null, "solarenergy": null, "sunrise": "06:25:28", "sunriseEpoch": 1536492328, "sunset": "19:11:35", "sunsetEpoch": 1536538295, "moonphase": 1.0, "conditions": "Partially cloudy", "icon": "wind", "stations": ["72534014819", "KORD", "72530094846", "KMDW", "KPWK", "74466504838"], "source": "obs", "hours": null}], "stations": {"72534014819": {"distance": 24883.0, "latitude": 41.786, "longitude": -87.752, "useCount": 0, "id": "72534014819", "name": "CHICAGO MIDWAY AIRPORT, IL US", "quality": 100, "contribution": 0.0}, "KORD": {"distance": 427.0, "latitude": 41.98, "longitude": -87.9, "useCount": 0, "id": "KORD", "name": "KORD", "quality": 100, "contribution": 0.0}, "72530094846": {"distance": 3019.0, "latitude": 41.96, "longitude": -87.932, "useCount": 0, "id": "72530094846", "name": "CHICAGO OHARE INTERNATIONAL AIRPORT, IL US", "quality": 100, "contribution": 0.0}, "KMDW": {"distance": 25561.0, "latitude": 41.78, "longitude": -87.75, "useCount": 0, "id": "KMDW", "name": "KMDW", "quality": 100, "contribution": 0.0}, "KPWK": {"distance": 15791.0, "latitude": 42.12, "longitude": -87.92, "useCount": 0, "id": "KPWK", "name": "KPWK", "quality": 100, "contribution": 0.0}, "74466504838": {"distance": 15830.0, "latitude": 42.121, "longitude": -87.905, "useCount": 0, "id": "74466504838", "name": "CHICAGO PALWAUKEE AIRPORT, IL US", "quality": 100, "contribution": 0.0}}}