{"queryCost": 1, "latitude": 41.9786, "longitude": -87.9048, "resolvedAddress": "41.9786, -87.9048", "address": "41.9786, -87.9048", "timezone": "America/Chicago", "tzoffset": -5.0, "days": [{"datetime": "2019-10-30", "datetimeEpoch": 1572411600, "tempmax": 5.0, "tempmin": 0.0, "temp": 2.7, "feelslikemax": 0.4, "feelslikemin": -4.0, "feelslike": -1.3, "dew": 1.3, "humidity": 91.02, "precip": 12.52, "precipprob": null, "precipcover": 79.17, "preciptype": null, "snow": 1.04, "snowdepth": 3.0, "windgust": 44.6, "windspeed": 29.5, "winddir": 114.2, "pressure": 1022.0, "cloudcover": 86.4, "visibility": 7.9, "solarradiation": 69.2, "solarenergy": 2.5, "sunrise": "07:21:30", "sunriseEpoch": 1572438090, "sunset": "17:48:26", "sunsetEpoch": 1572475706, "moonphase": 0.04, "conditions": "Snow, Overcast", "icon": "snow", "stations": ["72534014819", "KORD", "72530094846", "KMDW", "KPWK", "74466504838"], "source": "obs", "hours": null}], "stations": {"72534014819": {"distance": 24883.0, "latitude": 41.786, "longitude": -87.752, "useCount": 0, "id": "72534014819", "name": "CHICAGO MIDWAY AIRPORT, IL US", "quality": 100, "contribution": 0.0}, "KORD": {"distance": 427.0, "latitude": 41.98, "longitude": -87.9, "useCount": 0, "id": "KORD", "name": "KORD", "quality": 100, "contribution": 0.0}, "72530094846": {"distance": 3019.0, "latitude": 41.96, "longitude": -87.932, "useCount": 0, "id": "72530094846", "name": "CHICAGO OHARE INTERNATIONAL AIRPORT, IL US", "quality": 100, "contribution": 0.0}, "KMDW": {"distance": 25561.0, "latitude": 41.78, "longitude": -87.75, "useCount": 0, "id": "KMDW", "name": "KMDW", "quality": 100, "contribution": 0.0}, "KPWK": {"distance": 15791.0, "latitude": 42.12, "longitude": -87.92, "useCount": 0, "id": "KPWK", "name": "KPWK", "quality": 100, "contribution": 0.0}, "74466504838": {"distance": 15830.0, "latitude": 42.121, "longitude": -87.905, "useCount": 0, "id": "74466504838", "name": "CHICAGO PALWAUKEE AIRPORT, IL US", "quality": 100, "contribution": 0.0}}}