{"queryCost": 1, "latitude": 41.9786, "longitude": -87.9048, "resolvedAddress": "41.9786, -87.9048", "address": "41.9786, -87.9048", "timezone": "America/Chicago", "tzoffset": -6.0, "days": [{"datetime": "2019-01-29", "datetimeEpoch": 1548741600, "tempmax": -12.2, "tempmin": -22.2, "temp": -16.8, "feelslikemax": -18.8, "feelslikemin": -35.0, "feelslike": -27.0, "dew": -20.9, "humidity": 70.84, "precip": 0.0, "precipprob": null, "precipcover": 0.0, "preciptype": null, "snow": 0.7, "snowdepth": 25.45, "windgust": 55.6, "windspeed": 33.5, "winddir": 261.3, "pressure": 1014.8, "cloudcover": 50.4, "visibility": 14.8, "solarradiation": 288.8, "solarenergy": 10.4, "sunrise": "07:07:29", "sunriseEpoch": 1548767249, "sunset": "17:02:27", "sunsetEpoch": 1548802947, "moonphase": 0.84, "conditions": "Snow, Partially cloudy", "icon": "snow", "stations": ["72534014819", "KORD", "72530094846", "KMDW", "KPWK", "74466504838"], "source": "obs", "hours": null}], "stations": {"72534014819": {"distance": 24883.0, "latitude": 41.786, "longitude": -87.752, "useCount": 0, "id": "72534014819", "name": "CHICAGO MIDWAY AIRPORT, IL US", "quality": 100, "contribution": 0.0}, "KORD": {"distance": 427.0, "latitude": 41.98, "longitude": -87.9, "useCount": 0, "id": "KORD", "name": "KORD", "quality": 100, "contribution": 0.0}, "72530094846": {"distance": 3019.0, "latitude": 41.96, "longitude": -87.932, "useCount": 0, "id": "72530094846", "name": "CHICAGO OHARE INTERNATIONAL AIRPORT, IL US", "quality": 100, "contribution": 0.0}, "KMDW": {"distance": 25561.0, "latitude": 41.78, "longitude": -87.75, "useCount": 0, "id": "KMDW", "name": "KMDW", "quality": 100, "contribution": 0.0}, "KPWK": {"distance": 15791.0, "latitude": 42.12, "longitude": -87.92, "useCount": 0, "id": "KPWK", "name": "KPWK", "quality": 100, "contribution": 0.0}, "74466504838": {"distance": 15830.0, "latitude": 42.121, "longitude": -87.905, "useCount": 0, "id": "74466504838", "name": "CHICAGO PALWAUKEE AIRPORT, IL US", "quality": 100, "contribution": 0.0}}}