{"queryCost": 1, "latitude": 41.9786, "longitude": -87.9048, "resolvedAddress": "41.9786, -87.9048", "address": "41.9786, -87.9048", "timezone": "America/Chicago", "tzoffset": -5.0, "days": [{"datetime": "2019-10-31", "datetimeEpoch": 1572498000, "tempmax": 1.8, "tempmin": -2.7, "temp": -0.3, "feelslikemax": -4.1, "feelslikemin": -7.7, "feelslike": -6.2, "dew": -1.7, "humidity": 90.24, "precip": 8.0, "precipprob": null, "precipcover": 62.5, "preciptype": null, "snow": 3.98, "snowdepth": 3.76, "windgust": 53.6, "windspeed": 37.0, "winddir": 313.3, "pressure": 1012.7, "cloudcover": 65.4, "visibility": 7.0, "solarradiation": 64.2, "solarenergy": 2.5, "sunrise": "07:22:43", "sunriseEpoch": 1572524563, "sunset": "17:47:07", "sunsetEpoch": 1572562027, "moonphase": 0.07, "conditions": "Snow, Partially cloudy", "icon": "snow", "stations": ["72534014819", "KORD", "72530094846", "KMDW", "KPWK", "74466504838"], "source": "obs", "hours": null}], "stations": {"72534014819": {"distance": 24883.0, "latitude": 41.786, "longitude": -87.752, "useCount": 0, "id": "72534014819", "name": "CHICAGO MIDWAY AIRPORT, IL US", "quality": 100, "contribution": 0.0}, "KORD": {"distance": 427.0, "latitude": 41.98, "longitude": -87.9, "useCount": 0, "id": "KORD", "name": "KORD", "quality": 100, "contribution": 0.0}, "72530094846": {"distance": 3019.0, "latitude": 41.96, "longitude": -87.932, "useCount": 0, "id": "72530094846", "name": "CHICAGO OHARE INTERNATIONAL AIRPORT, IL US", "quality": 100, "contribution": 0.0}, "KMDW": {"distance": 25561.0, "latitude": 41.78, "longitude": -87.75, "useCount": 0, "id": "KMDW", "name": "KMDW", "quality": 100, "contribution": 0.0}, "KPWK": {"distance": 15791.0, "latitude": 42.12, "longitude": -87.92, "useCount": 0, "id": "KPWK", "name": "KPWK", "quality": 100, "contribution": 0.0}, "74466504838": {"distance": 15830.0, "latitude": 42.121, "longitude": -87.905, "useCount": 0, "id": "74466504838", "name": "CHICAGO PALWAUKEE AIRPORT, IL US", "quality": 100, "contribution": 0.0}}}