{"queryCost": 1, "latitude": 41.9786, "longitude": -87.9048, "resolvedAddress": "41.9786, -87.9048", "address": "41.9786, -87.9048", "timezone": "America/Chicago", "tzoffset": -5.0, "days": [{"datetime": "2019-04-20", "datetimeEpoch": 1555736400, "tempmax": 17.9, "tempmin": 2.9, "temp": 10.6, "feelslikemax": 17.9, "feelslikemin": -1.7, "feelslike": 8.8, "dew": -7.2, "humidity": 33.33, "precip": 0.0, "precipprob": null, "precipcover": 0.0, "preciptype": null, "snow": 0.0, "snowdepth": 0.0, "windgust": 53.7, "windspeed": 40.6, "winddir": 105.8, "pressure": 1010.1, "cloudcover": 15.7, "visibility": 16.0, "solarradiation": 538.1, "solarenergy": 27.1, "sunrise": "06:03:41", "sunriseEpoch": 1555758221, "sunset": "19:38:08", "sunsetEpoch": 1555807088, "moonphase": 0.51, "conditions": "Clear", "icon": "wind", "stations": ["72534014819", "KORD", "72530094846", "KMDW", "KPWK", "74466504838"], "source": "obs", "hours": null}], "stations": {"72534014819": {"distance": 24883.0, "latitude": 41.786, "longitude": -87.752, "useCount": 0, "id": "72534014819", "name": "CHICAGO MIDWAY AIRPORT, IL US", "quality": 100, "contribution": 0.0}, "KORD": {"distance": 427.0, "latitude": 41.98, "longitude": -87.9, "useCount": 0, "id": "KORD", "name": "KORD", "quality": 100, "contribution": 0.0}, "72530094846": {"distance": 3019.0, "latitude": 41.96, "longitude": -87.932, "useCount": 0, "id": "72530094846", "name": "CHICAGO OHARE INTERNATIONAL AIRPORT, IL US", "quality": 100, "contribution": 0.0}, "KMDW": {"distance": 25561.0, "latitude": 41.78, "longitude": -87.75, "useCount": 0, "id": "KMDW", "name": "KMDW", "quality": 100, "contribution": 0.0}, "KPWK": {"distance": 15791.0, "latitude": 42.12, "longitude": -87.92, "useCount": 0, "id": "KPWK", "name": "KPWK", "quality": 100, "contribution": 0.0}, "74466504838": {"distance": 15830.0, "latitude": 42.121, "longitude": -87.905, "useCount": 0, "id": "74466504838", "name": "CHICAGO PALWAUKEE AIRPORT, IL US", "quality": 100, "contribution": 0.0}}}