{"queryCost": 1, "latitude": 36.89459991455078, "longitude": -76.20120239257812, "resolvedAddress": "36.89459991455078, -76.20120239257812", "address": "36.89459991455078, -76.20120239257812", "timezone": "America/New_York", "tzoffset": -5.0, "days": [{"datetime": "2020-01-02", "datetimeEpoch": 1577941200, "tempmax": 16.1, "tempmin": 2.2, "temp": 9.7, "feelslikemax": 16.1, "feelslikemin": -0.9, "feelslike": 8.7, "dew": 0.7, "humidity": 55.85, "precip": 0.0, "precipprob": null, "precipcover": 0.0, "preciptype": null, "snow": 0.0, "snowdepth": 0.0, "windgust": 38.9, "windspeed": 29.5, "winddir": 205.0, "pressure": 1016.2, "cloudcover": 12.6, "visibility": 16.0, "solarradiation": 226.8, "solarenergy": 9.0, "sunrise": "07:18:02", "sunriseEpoch": 1577967482, "sunset": "16:59:31", "sunsetEpoch": 1578002371, "moonphase": 0.22, "conditions": "Clear", "icon": "clear-day", "stations": ["KNGU", "72307513769", "72308513750", "KNTU", "KORF", "72308013737"], "source": "obs", "hours": null}], "stations": {"KNGU": {"distance": 8045.0, "latitude": 36.93, "longitude": -76.28, "useCount": 0, "id": "KNGU", "name": "KNGU", "quality": 100, "contribution": 0.0}, "72307513769": {"distance": 17288.0, "latitude": 36.817, "longitude": -76.033, "useCount": 0, "id": "72307513769", "name": "OCEANA NAS, VA US", "quality": 100, "contribution": 0.0}, "72308513750": {"distance": 9181.0, "latitude": 36.938, "longitude": -76.289, "useCount": 0, "id": "72308513750", "name": "NORFOLK NAS, VA US", "quality": 100, "contribution": 0.0}, "KNTU": {"distance": 17364.0, "latitude": 36.82, "longitude": -76.03, "useCount": 0, "id": "KNTU", "name": "KNTU", "quality": 100, "contribution": 0.0}, "KORF": {"distance": 611.0, "latitude": 36.9, "longitude": -76.2, "useCount": 0, "id": "KORF", "name": "KORF", "quality": 100, "contribution": 0.0}, "72308013737": {"distance": 1257.0, "latitude": 36.903, "longitude": -76.192, "useCount": 0, "id": "72308013737", "name": "NORFOLK INTERNATIONAL AIRPORT, VA US", "quality": 100, "contribution": 0.0}}}