{"queryCost": 1, "latitude": 36.89459991455078, "longitude": -76.20120239257812, "resolvedAddress": "36.89459991455078, -76.20120239257812", "address": "36.89459991455078, -76.20120239257812", "timezone": "America/New_York", "tzoffset": -5.0, "days": [{"datetime": "2018-02-20", "datetimeEpoch": 1519102800, "tempmax": 23.3, "tempmin": 13.4, "temp": 16.9, "feelslikemax": 23.3, "feelslikemin": 13.4, "feelslike": 16.9, "dew": 15.9, "humidity": 94.17, "precip": 0.18, "precipprob": null, "precipcover": 16.67, "preciptype": null, "snow": 0.0, "snowdepth": 0.0, "windgust": null, "windspeed": 20.3, "winddir": 222.9, "pressure": 1030.1, "cloudcover": 67.5, "visibility": 6.5, "solarradiation": 138.5, "solarenergy": 6.0, "sunrise": "06:47:16", "sunriseEpoch": 1519127236, "sunset": "17:50:15", "sunsetEpoch": 1519167015, "moonphase": 0.1, "conditions": "Rain, Partially cloudy", "icon": "rain", "stations": ["KNGU", "72307513769", "72308513750", "KNTU", "KORF", "72308013737"], "source": "obs", "hours": null}], "stations": {"KNGU": {"distance": 8045.0, "latitude": 36.93, "longitude": -76.28, "useCount": 0, "id": "KNGU", "name": "KNGU", "quality": 100, "contribution": 0.0}, "72307513769": {"distance": 17288.0, "latitude": 36.817, "longitude": -76.033, "useCount": 0, "id": "72307513769", "name": "OCEANA NAS, VA US", "quality": 100, "contribution": 0.0}, "72308513750": {"distance": 9181.0, "latitude": 36.938, "longitude": -76.289, "useCount": 0, "id": "72308513750", "name": "NORFOLK NAS, VA US", "quality": 100, "contribution": 0.0}, "KNTU": {"distance": 17364.0, "latitude": 36.82, "longitude": -76.03, "useCount": 0, "id": "KNTU", "name": "KNTU", "quality": 100, "contribution": 0.0}, "KORF": {"distance": 611.0, "latitude": 36.9, "longitude": -76.2, "useCount": 0, "id": "KORF", "name": "KORF", "quality": 100, "contribution": 0.0}, "72308013737": {"distance": 1257.0, "latitude": 36.903, "longitude": -76.192, "useCount": 0, "id": "72308013737", "name": "NORFOLK INTERNATIONAL AIRPORT, VA US", "quality": 100, "contribution": 0.0}}}