{"queryCost": 1, "latitude": 36.89459991455078, "longitude": -76.20120239257812, "resolvedAddress": "36.89459991455078, -76.20120239257812", "address": "36.89459991455078, -76.20120239257812", "timezone": "America/New_York", "tzoffset": -5.0, "days": [{"datetime": "2018-02-17", "datetimeEpoch": 1518843600, "tempmax": 8.4, "tempmin": 4.3, "temp": 6.0, "feelslikemax": 5.3, "feelslikemin": 0.4, "feelslike": 2.8, "dew": 2.3, "humidity": 77.65, "precip": 4.32, "precipprob": null, "precipcover": 29.17, "preciptype": null, "snow": 0.0, "snowdepth": 0.0, "windgust": 40.7, "windspeed": 29.5, "winddir": 93.3, "pressure": 1023.4, "cloudcover": 63.8, "visibility": 13.7, "solarradiation": 185.2, "solarenergy": 7.3, "sunrise": "06:50:54", "sunriseEpoch": 1518868254, "sunset": "17:47:11", "sunsetEpoch": 1518907631, "moonphase": 0.01, "conditions": "Rain, Partially cloudy", "icon": "rain", "stations": ["KNGU", "72307513769", "72308513750", "KNTU", "KORF", "72308013737"], "source": "obs", "hours": null}], "stations": {"KNGU": {"distance": 8045.0, "latitude": 36.93, "longitude": -76.28, "useCount": 0, "id": "KNGU", "name": "KNGU", "quality": 100, "contribution": 0.0}, "72307513769": {"distance": 17288.0, "latitude": 36.817, "longitude": -76.033, "useCount": 0, "id": "72307513769", "name": "OCEANA NAS, VA US", "quality": 100, "contribution": 0.0}, "72308513750": {"distance": 9181.0, "latitude": 36.938, "longitude": -76.289, "useCount": 0, "id": "72308513750", "name": "NORFOLK NAS, VA US", "quality": 100, "contribution": 0.0}, "KNTU": {"distance": 17364.0, "latitude": 36.82, "longitude": -76.03, "useCount": 0, "id": "KNTU", "name": "KNTU", "quality": 100, "contribution": 0.0}, "KORF": {"distance": 611.0, "latitude": 36.9, "longitude": -76.2, "useCount": 0, "id": "KORF", "name": "KORF", "quality": 100, "contribution": 0.0}, "72308013737": {"distance": 1257.0, "latitude": 36.903, "longitude": -76.192, "useCount": 0, "id": "72308013737", "name": "NORFOLK INTERNATIONAL AIRPORT, VA US", "quality": 100, "contribution": 0.0}}}