{"queryCost": 1, "latitude": 36.89459991455078, "longitude": -76.20120239257812, "resolvedAddress": "36.89459991455078, -76.20120239257812", "address": "36.89459991455078, -76.20120239257812", "timezone": "America/New_York", "tzoffset": -5.0, "days": [{"datetime": "2020-01-03", "datetimeEpoch": 1578027600, "tempmax": 15.6, "tempmin": 8.8, "temp": 12.7, "feelslikemax": 15.6, "feelslikemin": 6.8, "feelslike": 12.1, "dew": 9.5, "humidity": 81.86, "precip": 10.67, "precipprob": null, "precipcover": 33.33, "preciptype": null, "snow": 0.0, "snowdepth": 0.0, "windgust": 33.5, "windspeed": 25.8, "winddir": 225.2, "pressure": 1012.4, "cloudcover": 83.7, "visibility": 13.9, "solarradiation": 48.2, "solarenergy": 1.9, "sunrise": "07:18:09", "sunriseEpoch": 1578053889, "sunset": "17:00:20", "sunsetEpoch": 1578088820, "moonphase": 0.26, "conditions": "Rain, Overcast", "icon": "rain", "stations": ["KNGU", "72307513769", "72308513750", "KNTU", "KORF", "72308013737"], "source": "obs", "hours": null}], "stations": {"KNGU": {"distance": 8045.0, "latitude": 36.93, "longitude": -76.28, "useCount": 0, "id": "KNGU", "name": "KNGU", "quality": 100, "contribution": 0.0}, "72307513769": {"distance": 17288.0, "latitude": 36.817, "longitude": -76.033, "useCount": 0, "id": "72307513769", "name": "OCEANA NAS, VA US", "quality": 100, "contribution": 0.0}, "72308513750": {"distance": 9181.0, "latitude": 36.938, "longitude": -76.289, "useCount": 0, "id": "72308513750", "name": "NORFOLK NAS, VA US", "quality": 100, "contribution": 0.0}, "KNTU": {"distance": 17364.0, "latitude": 36.82, "longitude": -76.03, "useCount": 0, "id": "KNTU", "name": "KNTU", "quality": 100, "contribution": 0.0}, "KORF": {"distance": 611.0, "latitude": 36.9, "longitude": -76.2, "useCount": 0, "id": "KORF", "name": "KORF", "quality": 100, "contribution": 0.0}, "72308013737": {"distance": 1257.0, "latitude": 36.903, "longitude": -76.192, "useCount": 0, "id": "72308013737", "name": "NORFOLK INTERNATIONAL AIRPORT, VA US", "quality": 100, "contribution": 0.0}}}