{"queryCost": 1, "latitude": 42.26729965209961, "longitude": -71.87570190429688, "resolvedAddress": "42.26729965209961, -71.87570190429688", "address": "42.26729965209961, -71.87570190429688", "timezone": "America/New_York", "tzoffset": -5.0, "days": [{"datetime": "2020-01-02", "datetimeEpoch": 1577941200, "tempmax": 4.4, "tempmin": -2.8, "temp": 0.8, "feelslikemax": 0.5, "feelslikemin": -8.8, "feelslike": -4.1, "dew": -5.2, "humidity": 64.34, "precip": 0.0, "precipprob": null, "precipcover": 0.0, "preciptype": null, "snow": 0.0, "snowdepth": 3.0, "windgust": null, "windspeed": 31.7, "winddir": 234.2, "pressure": 1010.8, "cloudcover": 19.0, "visibility": 16.0, "solarradiation": 146.0, "solarenergy": 5.8, "sunrise": "07:16:36", "sunriseEpoch": 1577967396, "sunset": "16:26:22", "sunsetEpoch": 1578000382, "moonphase": 0.22, "conditions": "Clear", "icon": "wind", "stations": ["KORE", "KFIT", "72510094746", "KORH", "72508554756", "72510704780"], "source": "obs", "hours": null}], "stations": {"KORE": {"distance": 46749.0, "latitude": 42.57, "longitude": -72.27, "useCount": 0, "id": "KORE", "name": "KORE", "quality": 100, "contribution": 0.0}, "KFIT": {"distance": 32876.0, "latitude": 42.55, "longitude": -71.76, "useCount": 0, "id": "KFIT", "name": "KFIT", "quality": 100, "contribution": 0.0}, "72510094746": {"distance": 425.0, "latitude": 42.271, "longitude": -71.873, "useCount": 0, "id": "72510094746", "name": "WORCESTER, MA US", "quality": 100, "contribution": 0.0}, "KORH": {"distance": 464.0, "latitude": 42.27, "longitude": -71.88, "useCount": 0, "id": "KORH", "name": "KORH", "quality": 100, "contribution": 0.0}, "72508554756": {"distance": 47967.0, "latitude": 42.57, "longitude": -72.291, "useCount": 0, "id": "72508554756", "name": "ORANGE MUNICIPAL AIRPORT, MA US", "quality": 100, "contribution": 0.0}, "72510704780": {"distance": 33179.0, "latitude": 42.552, "longitude": -71.756, "useCount": 0, "id": "72510704780", "name": "FITCHBURG MUNICIPAL AIRPORT, MA US", "quality": 100, "contribution": 0.0}}}