{"queryCost": 1, "latitude": 42.26729965209961, "longitude": -71.87570190429688, "resolvedAddress": "42.26729965209961, -71.87570190429688", "address": "42.26729965209961, -71.87570190429688", "timezone": "America/New_York", "tzoffset": -5.0, "days": [{"datetime": "2020-01-05", "datetimeEpoch": 1578200400, "tempmax": 1.7, "tempmin": -3.3, "temp": -0.8, "feelslikemax": -2.3, "feelslikemin": -10.5, "feelslike": -7.2, "dew": -5.4, "humidity": 71.86, "precip": 1.1, "precipprob": null, "precipcover": 12.5, "preciptype": null, "snow": 0.0, "snowdepth": 1.0, "windgust": 68.4, "windspeed": 38.9, "winddir": 300.8, "pressure": 1004.7, "cloudcover": 50.8, "visibility": 15.0, "solarradiation": 107.5, "solarenergy": 4.3, "sunrise": "07:16:36", "sunriseEpoch": 1578226596, "sunset": "16:29:08", "sunsetEpoch": 1578259748, "moonphase": 0.36, "conditions": "Snow, Partially cloudy", "icon": "snow", "stations": ["KORE", "KFIT", "72510094746", "KORH", "72508554756", "72510704780"], "source": "obs", "hours": null}], "stations": {"KORE": {"distance": 46749.0, "latitude": 42.57, "longitude": -72.27, "useCount": 0, "id": "KORE", "name": "KORE", "quality": 100, "contribution": 0.0}, "KFIT": {"distance": 32876.0, "latitude": 42.55, "longitude": -71.76, "useCount": 0, "id": "KFIT", "name": "KFIT", "quality": 100, "contribution": 0.0}, "72510094746": {"distance": 425.0, "latitude": 42.271, "longitude": -71.873, "useCount": 0, "id": "72510094746", "name": "WORCESTER, MA US", "quality": 100, "contribution": 0.0}, "KORH": {"distance": 464.0, "latitude": 42.27, "longitude": -71.88, "useCount": 0, "id": "KORH", "name": "KORH", "quality": 100, "contribution": 0.0}, "72508554756": {"distance": 47967.0, "latitude": 42.57, "longitude": -72.291, "useCount": 0, "id": "72508554756", "name": "ORANGE MUNICIPAL AIRPORT, MA US", "quality": 100, "contribution": 0.0}, "72510704780": {"distance": 33179.0, "latitude": 42.552, "longitude": -71.756, "useCount": 0, "id": "72510704780", "name": "FITCHBURG MUNICIPAL AIRPORT, MA US", "quality": 100, "contribution": 0.0}}}