{"queryCost": 1, "latitude": 66.88469696, "longitude": -162.598999, "resolvedAddress": "66.88469696, -162.598999", "address": "66.88469696, -162.598999", "timezone": "America/Nome", "tzoffset": -9.0, "days": [{"datetime": "2020-01-04", "datetimeEpoch": 1578128400, "tempmax": -20.0, "tempmin": -26.7, "temp": -22.9, "feelslikemax": -20.5, "feelslikemin": -33.8, "feelslike": -26.5, "dew": -26.1, "humidity": 75.13, "precip": 0.0, "precipprob": null, "precipcover": 0.0, "preciptype": null, "snow": 0.0, "snowdepth": 0.0, "windgust": null, "windspeed": 9.4, "winddir": 114.6, "pressure": 1016.5, "cloudcover": 39.3, "visibility": 15.9, "solarradiation": null, "solarenergy": null, "sunrise": "12:35:29", "sunriseEpoch": 1578173729, "sunset": "15:15:33", "sunsetEpoch": 1578183333, "moonphase": 0.31, "conditions": "Partially cloudy", "icon": "partly-cloudy-day", "stations": ["70133026616", "PFNO", "PAOT", "70489800113", "70133526648", "PAWN"], "source": "obs", "hours": null}], "stations": {"70133026616": {"distance": 2495.0, "latitude": 66.867, "longitude": -162.633, "useCount": 0, "id": "70133026616", "name": "KOTZEBUE AIRPORT, AK US", "quality": 99, "contribution": 0.0}, "PFNO": {"distance": 69469.0, "latitude": 66.82, "longitude": -161.02, "useCount": 0, "id": "PFNO", "name": "NOORVIK, AK", "quality": 100, "contribution": 0.0}, "PAOT": {"distance": 525.0, "latitude": 66.88, "longitude": -162.6, "useCount": 0, "id": "PAOT", "name": "KOTZEBUE, AK", "quality": 100, "contribution": 0.0}, "70489800113": {"distance": 69408.0, "latitude": 66.818, "longitude": -161.022, "useCount": 0, "id": "70489800113", "name": "ROBERT BOB CURTIS MEMORIAL AIRPORT, AK US", "quality": 99, "contribution": 0.0}, "70133526648": {"distance": 77564.0, "latitude": 67.566, "longitude": -162.975, "useCount": 0, "id": "70133526648", "name": "NOATAK AIRPORT, AK US", "quality": 97, "contribution": 0.0}, "PAWN": {"distance": 78034.0, "latitude": 67.57, "longitude": -162.98, "useCount": 0, "id": "PAWN", "name": "NOATAK AP, AK", "quality": 98, "contribution": 0.0}}}