{"queryCost": 1, "latitude": 47.90629959, "longitude": -122.2819977, "resolvedAddress": "47.90629959, -122.2819977", "address": "47.90629959, -122.2819977", "timezone": "America/Los_Angeles", "tzoffset": -8.0, "days": [{"datetime": "2020-01-06", "datetimeEpoch": 1578297600, "tempmax": 10.6, "tempmin": 4.4, "temp": 8.0, "feelslikemax": 10.6, "feelslikemin": -0.6, "feelslike": 5.8, "dew": 6.5, "humidity": 89.74, "precip": 0.6, "precipprob": null, "precipcover": 70.83, "preciptype": null, "snow": 0.0, "snowdepth": 0.0, "windgust": 63.0, "windspeed": 48.2, "winddir": 179.2, "pressure": 1019.4, "cloudcover": 99.4, "visibility": 14.3, "solarradiation": 11.7, "solarenergy": 0.4, "sunrise": "07:58:04", "sunriseEpoch": 1578326284, "sunset": "16:31:59", "sunsetEpoch": 1578357119, "moonphase": 0.4, "conditions": "Rain, Overcast", "icon": "rain", "stations": ["72794504205", "KBFI", "KPAE", "72793524234", "72793724222", "KAWO"], "source": "obs", "hours": null}], "stations": {"72794504205": {"distance": 29752.0, "latitude": 48.161, "longitude": -122.159, "useCount": 0, "id": "72794504205", "name": "ARLINGTON MUNICIPAL AIRPORT, WA US", "quality": 100, "contribution": 0.0}, "KBFI": {"distance": 41911.0, "latitude": 47.53, "longitude": -122.3, "useCount": 0, "id": "KBFI", "name": "KBFI", "quality": 100, "contribution": 0.0}, "KPAE": {"distance": 1532.0, "latitude": 47.92, "longitude": -122.28, "useCount": 0, "id": "KPAE", "name": "KPAE", "quality": 100, "contribution": 0.0}, "72793524234": {"distance": 41880.0, "latitude": 47.53, "longitude": -122.301, "useCount": 0, "id": "72793524234", "name": "SEATTLE BOEING FIELD, WA US", "quality": 100, "contribution": 0.0}, "72793724222": {"distance": 224.0, "latitude": 47.908, "longitude": -122.28, "useCount": 0, "id": "72793724222", "name": "EVERETT SNOHOMISH CO AIRPORT, WA US", "quality": 100, "contribution": 0.0}, "KAWO": {"distance": 30516.0, "latitude": 48.17, "longitude": -122.17, "useCount": 0, "id": "KAWO", "name": "ARLINGTON MUNI, WA", "quality": 100, "contribution": 0.0}}}