{"queryCost": 1, "latitude": 44.650901794433594, "longitude": -73.46810150146484, "resolvedAddress": "44.650901794433594, -73.46810150146484", "address": "44.650901794433594, -73.46810150146484", "timezone": "America/New_York", "tzoffset": -5.0, "days": [{"datetime": "2020-01-06", "datetimeEpoch": 1578286800, "tempmax": -0.6, "tempmin": -11.1, "temp": -5.1, "feelslikemax": -1.6, "feelslikemin": -14.5, "feelslike": -6.4, "dew": -6.9, "humidity": 87.29, "precip": 0.6, "precipprob": null, "precipcover": 45.83, "preciptype": null, "snow": 6.26, "snowdepth": 5.48, "windgust": 33.5, "windspeed": 11.3, "winddir": 188.6, "pressure": 1010.5, "cloudcover": 82.2, "visibility": 11.5, "solarradiation": 38.2, "solarenergy": 1.6, "sunrise": "07:30:46", "sunriseEpoch": 1578313846, "sunset": "16:28:37", "sunsetEpoch": 1578346117, "moonphase": 0.4, "conditions": "Snow, Overcast", "icon": "snow", "stations": ["72622564776", "CWIT", "KPBG", "KBTV", "71614099999", "72617014742"], "source": "obs", "hours": null}], "stations": {"72622564776": {"distance": 150.0, "latitude": 44.65, "longitude": -73.467, "useCount": 0, "id": "72622564776", "name": "PLATTSBURGH INTERNATIONAL AIRPORT, NY US", "quality": 100, "contribution": 0.0}, "CWIT": {"distance": 60152.0, "latitude": 45.17, "longitude": -73.68, "useCount": 0, "id": "CWIT", "name": "CWIT", "quality": 99, "contribution": 0.0}, "KPBG": {"distance": 181.0, "latitude": 44.65, "longitude": -73.47, "useCount": 0, "id": "KPBG", "name": "KPBG", "quality": 99, "contribution": 0.0}, "KBTV": {"distance": 32282.0, "latitude": 44.47, "longitude": -73.15, "useCount": 0, "id": "KBTV", "name": "KBTV", "quality": 100, "contribution": 0.0}, "71614099999": {"distance": 59515.0, "latitude": 45.167, "longitude": -73.667, "useCount": 0, "id": "71614099999", "name": "STE CLOTHILDE QUE, CA", "quality": 99, "contribution": 0.0}, "72617014742": {"distance": 32407.0, "latitude": 44.468, "longitude": -73.15, "useCount": 0, "id": "72617014742", "name": "BURLINGTON INTERNATIONAL AIRPORT, VT US", "quality": 100, "contribution": 0.0}}}