{"queryCost": 1, "latitude": 26.68320083618164, "longitude": -80.09559631347656, "resolvedAddress": "26.68320083618164, -80.09559631347656", "address": "26.68320083618164, -80.09559631347656", "timezone": "America/New_York", "tzoffset": -4.0, "days": [{"datetime": "2019-04-14", "datetimeEpoch": 1555214400, "tempmax": 30.6, "tempmin": 23.8, "temp": 26.7, "feelslikemax": 34.2, "feelslikemin": 23.8, "feelslike": 27.8, "dew": 22.1, "humidity": 76.34, "precip": 14.5, "precipprob": null, "precipcover": 8.33, "preciptype": null, "snow": 0.0, "snowdepth": 0.0, "windgust": 53.3, "windspeed": 35.3, "winddir": 160.5, "pressure": 1014.2, "cloudcover": 73.7, "visibility": 15.9, "solarradiation": 193.8, "solarenergy": 9.1, "sunrise": "06:57:48", "sunriseEpoch": 1555239468, "sunset": "19:43:56", "sunsetEpoch": 1555285436, "moonphase": 0.35, "conditions": "Rain, Partially cloudy", "icon": "rain", "stations": ["72203012844", "72204992805", "72203912885", "KPMP", "KFXE", "KPBI"], "source": "obs", "hours": null}], "stations": {"72203012844": {"distance": 414.0, "latitude": 26.685, "longitude": -80.099, "useCount": 0, "id": "72203012844", "name": "WEST PALM BEACH INTERNATIONAL AIRPORT, FL US", "quality": 100, "contribution": 0.0}, "72204992805": {"distance": 48240.0, "latitude": 26.25, "longitude": -80.108, "useCount": 0, "id": "72204992805", "name": "POMPANO BEACH AIRPARK, FL US", "quality": 99, "contribution": 0.0}, "72203912885": {"distance": 54651.0, "latitude": 26.197, "longitude": -80.171, "useCount": 0, "id": "72203912885", "name": "FORT LAUDERDALE EXECUTIVE AIRPORT, FL US", "quality": 99, "contribution": 0.0}, "KPMP": {"distance": 48245.0, "latitude": 26.25, "longitude": -80.11, "useCount": 0, "id": "KPMP", "name": "KPMP", "quality": 100, "contribution": 0.0}, "KFXE": {"distance": 54299.0, "latitude": 26.2, "longitude": -80.17, "useCount": 0, "id": "KFXE", "name": "KFXE", "quality": 100, "contribution": 0.0}, "KPBI": {"distance": 2453.0, "latitude": 26.68, "longitude": -80.12, "useCount": 0, "id": "KPBI", "name": "KPBI", "quality": 100, "contribution": 0.0}}}