{"queryCost": 1, "latitude": 45.58869934, "longitude": -122.5979996, "resolvedAddress": "45.58869934, -122.5979996", "address": "45.58869934, -122.5979996", "timezone": "America/Los_Angeles", "tzoffset": -8.0, "days": [{"datetime": "2020-01-05", "datetimeEpoch": 1578211200, "tempmax": 9.3, "tempmin": 5.7, "temp": 7.1, "feelslikemax": 7.4, "feelslikemin": 1.5, "feelslike": 4.2, "dew": 3.8, "humidity": 79.98, "precip": 6.65, "precipprob": null, "precipcover": 58.33, "preciptype": null, "snow": 0.0, "snowdepth": 0.0, "windgust": 51.5, "windspeed": 28.9, "winddir": 179.9, "pressure": 1028.6, "cloudcover": 75.4, "visibility": 15.9, "solarradiation": 93.0, "solarenergy": 3.0, "sunrise": "07:50:44", "sunriseEpoch": 1578239444, "sunset": "16:40:56", "sunsetEpoch": 1578271256, "moonphase": 0.36, "conditions": "Rain, Overcast", "icon": "rain", "stations": ["72698524242", "KVUO", "72698024229", "KPDX", "KTTD", "72791894298"], "source": "obs", "hours": null}], "stations": {"72698524242": {"distance": 15312.0, "latitude": 45.551, "longitude": -122.409, "useCount": 0, "id": "72698524242", "name": "PORTLAND TROUTDALE AIRPORT, OR US", "quality": 100, "contribution": 0.0}, "KVUO": {"distance": 5955.0, "latitude": 45.62, "longitude": -122.66, "useCount": 0, "id": "KVUO", "name": "KVUO", "quality": 100, "contribution": 0.0}, "72698024229": {"distance": 1166.0, "latitude": 45.596, "longitude": -122.609, "useCount": 0, "id": "72698024229", "name": "PORTLAND INTERNATIONAL AIRPORT, OR US", "quality": 100, "contribution": 0.0}, "KPDX": {"distance": 1268.0, "latitude": 45.6, "longitude": -122.6, "useCount": 0, "id": "KPDX", "name": "KPDX", "quality": 100, "contribution": 0.0}, "KTTD": {"distance": 14525.0, "latitude": 45.55, "longitude": -122.42, "useCount": 0, "id": "KTTD", "name": "KTTD", "quality": 100, "contribution": 0.0}, "72791894298": {"distance": 5821.0, "latitude": 45.621, "longitude": -122.657, "useCount": 0, "id": "72791894298", "name": "VANCOUVER PEARSON AIRPORT, WA US", "quality": 100, "contribution": 0.0}}}