{"queryCost": 1, "latitude": 45.58869934, "longitude": -122.5979996, "resolvedAddress": "45.58869934, -122.5979996", "address": "45.58869934, -122.5979996", "timezone": "America/Los_Angeles", "tzoffset": -7.0, "days": [{"datetime": "2019-05-10", "datetimeEpoch": 1557471600, "tempmax": 31.6, "tempmin": 11.6, "temp": 21.7, "feelslikemax": 29.4, "feelslikemin": 11.6, "feelslike": 21.1, "dew": 3.8, "humidity": 37.29, "precip": 0.0, "precipprob": null, "precipcover": 0.0, "preciptype": null, "snow": 0.0, "snowdepth": 0.0, "windgust": null, "windspeed": 12.4, "winddir": 181.6, "pressure": 1011.2, "cloudcover": 3.3, "visibility": 16.0, "solarradiation": 359.4, "solarenergy": 19.4, "sunrise": "05:45:48", "sunriseEpoch": 1557492348, "sunset": "20:28:34", "sunsetEpoch": 1557545314, "moonphase": 0.16, "conditions": "Clear", "icon": "clear-day", "stations": ["72698524242", "KVUO", "72698024229", "KPDX", "KTTD", "72791894298"], "source": "obs", "hours": null}], "stations": {"72698524242": {"distance": 15312.0, "latitude": 45.551, "longitude": -122.409, "useCount": 0, "id": "72698524242", "name": "PORTLAND TROUTDALE AIRPORT, OR US", "quality": 100, "contribution": 0.0}, "KVUO": {"distance": 5955.0, "latitude": 45.62, "longitude": -122.66, "useCount": 0, "id": "KVUO", "name": "KVUO", "quality": 100, "contribution": 0.0}, "72698024229": {"distance": 1166.0, "latitude": 45.596, "longitude": -122.609, "useCount": 0, "id": "72698024229", "name": "PORTLAND INTERNATIONAL AIRPORT, OR US", "quality": 100, "contribution": 0.0}, "KPDX": {"distance": 1268.0, "latitude": 45.6, "longitude": -122.6, "useCount": 0, "id": "KPDX", "name": "KPDX", "quality": 100, "contribution": 0.0}, "KTTD": {"distance": 14525.0, "latitude": 45.55, "longitude": -122.42, "useCount": 0, "id": "KTTD", "name": "KTTD", "quality": 100, "contribution": 0.0}, "72791894298": {"distance": 5821.0, "latitude": 45.621, "longitude": -122.657, "useCount": 0, "id": "72791894298", "name": "VANCOUVER PEARSON AIRPORT, WA US", "quality": 100, "contribution": 0.0}}}