{"queryCost": 1, "latitude": 45.58869934, "longitude": -122.5979996, "resolvedAddress": "45.58869934, -122.5979996", "address": "45.58869934, -122.5979996", "timezone": "America/Los_Angeles", "tzoffset": -8.0, "days": [{"datetime": "2020-01-06", "datetimeEpoch": 1578297600, "tempmax": 11.2, "tempmin": 7.2, "temp": 9.1, "feelslikemax": 11.2, "feelslikemin": 3.5, "feelslike": 7.0, "dew": 6.3, "humidity": 82.76, "precip": 6.35, "precipprob": null, "precipcover": 58.33, "preciptype": null, "snow": 0.0, "snowdepth": 0.0, "windgust": 56.5, "windspeed": 39.7, "winddir": 194.4, "pressure": 1026.5, "cloudcover": 78.9, "visibility": 14.3, "solarradiation": 40.0, "solarenergy": 1.3, "sunrise": "07:50:34", "sunriseEpoch": 1578325834, "sunset": "16:41:59", "sunsetEpoch": 1578357719, "moonphase": 0.4, "conditions": "Rain, Overcast", "icon": "rain", "stations": ["72698524242", "KVUO", "72698024229", "KPDX", "KTTD", "72791894298"], "source": "obs", "hours": null}], "stations": {"72698524242": {"distance": 15312.0, "latitude": 45.551, "longitude": -122.409, "useCount": 0, "id": "72698524242", "name": "PORTLAND TROUTDALE AIRPORT, OR US", "quality": 100, "contribution": 0.0}, "KVUO": {"distance": 5955.0, "latitude": 45.62, "longitude": -122.66, "useCount": 0, "id": "KVUO", "name": "KVUO", "quality": 100, "contribution": 0.0}, "72698024229": {"distance": 1166.0, "latitude": 45.596, "longitude": -122.609, "useCount": 0, "id": "72698024229", "name": "PORTLAND INTERNATIONAL AIRPORT, OR US", "quality": 100, "contribution": 0.0}, "KPDX": {"distance": 1268.0, "latitude": 45.6, "longitude": -122.6, "useCount": 0, "id": "KPDX", "name": "KPDX", "quality": 100, "contribution": 0.0}, "KTTD": {"distance": 14525.0, "latitude": 45.55, "longitude": -122.42, "useCount": 0, "id": "KTTD", "name": "KTTD", "quality": 100, "contribution": 0.0}, "72791894298": {"distance": 5821.0, "latitude": 45.621, "longitude": -122.657, "useCount": 0, "id": "72791894298", "name": "VANCOUVER PEARSON AIRPORT, WA US", "quality": 100, "contribution": 0.0}}}