{"queryCost": 1, "latitude": 37.13190079, "longitude": -76.49299622, "resolvedAddress": "37.13190079, -76.49299622", "address": "37.13190079, -76.49299622", "timezone": "America/New_York", "tzoffset": -5.0, "days": [{"datetime": "2020-01-04", "datetimeEpoch": 1578114000, "tempmax": 17.8, "tempmin": 9.3, "temp": 15.0, "feelslikemax": 17.8, "feelslikemin": 6.4, "feelslike": 14.8, "dew": 12.5, "humidity": 84.99, "precip": 14.5, "precipprob": null, "precipcover": 70.83, "preciptype": null, "snow": 0.0, "snowdepth": 0.0, "windgust": 42.5, "windspeed": 22.3, "winddir": 231.3, "pressure": 1005.3, "cloudcover": 96.2, "visibility": 12.8, "solarradiation": null, "solarenergy": null, "sunrise": "07:20:03", "sunriseEpoch": 1578140403, "sunset": "17:01:42", "sunsetEpoch": 1578175302, "moonphase": 0.31, "conditions": "Rain, Overcast", "icon": "rain", "stations": ["KPHF", "KFAF", "74598013702", "72308693741", "KLFI", "72308793735"], "source": "obs", "hours": null}], "stations": {"KPHF": {"distance": 657.0, "latitude": 37.13, "longitude": -76.5, "useCount": 0, "id": "KPHF", "name": "KPHF", "quality": 100, "contribution": 0.0}, "KFAF": {"distance": 11274.0, "latitude": 37.13, "longitude": -76.62, "useCount": 0, "id": "KFAF", "name": "KFAF", "quality": 100, "contribution": 0.0}, "74598013702": {"distance": 12987.0, "latitude": 37.083, "longitude": -76.36, "useCount": 0, "id": "74598013702", "name": "LANGLEY AIR FORCE BASE, VA US", "quality": 99, "contribution": 0.0}, "72308693741": {"distance": 9.0, "latitude": 37.132, "longitude": -76.493, "useCount": 0, "id": "72308693741", "name": "NEWPORT NEWS INTERNATIONAL AIRPORT, VA US", "quality": 100, "contribution": 0.0}, "KLFI": {"distance": 12354.0, "latitude": 37.08, "longitude": -76.37, "useCount": 0, "id": "KLFI", "name": "KLFI", "quality": 100, "contribution": 0.0}, "72308793735": {"distance": 9498.0, "latitude": 37.133, "longitude": -76.6, "useCount": 0, "id": "72308793735", "name": "FORT EUSTIS FELKER ARMY AIR FIELD, VA US", "quality": 99, "contribution": 0.0}}}