{"queryCost": 1, "latitude": 37.13190079, "longitude": -76.49299622, "resolvedAddress": "37.13190079, -76.49299622", "address": "37.13190079, -76.49299622", "timezone": "America/New_York", "tzoffset": -5.0, "days": [{"datetime": "2020-01-06", "datetimeEpoch": 1578286800, "tempmax": 13.8, "tempmin": 0.7, "temp": 6.6, "feelslikemax": 13.8, "feelslikemin": 0.1, "feelslike": 5.7, "dew": -1.4, "humidity": 59.35, "precip": 0.0, "precipprob": null, "precipcover": 0.0, "preciptype": null, "snow": 0.0, "snowdepth": 0.0, "windgust": 29.5, "windspeed": 22.3, "winddir": 216.3, "pressure": 1018.2, "cloudcover": 0.0, "visibility": 16.0, "solarradiation": null, "solarenergy": null, "sunrise": "07:20:08", "sunriseEpoch": 1578313208, "sunset": "17:03:25", "sunsetEpoch": 1578348205, "moonphase": 0.4, "conditions": "Clear", "icon": "clear-day", "stations": ["KPHF", "KFAF", "74598013702", "72308693741", "KLFI", "72308793735"], "source": "obs", "hours": null}], "stations": {"KPHF": {"distance": 657.0, "latitude": 37.13, "longitude": -76.5, "useCount": 0, "id": "KPHF", "name": "KPHF", "quality": 100, "contribution": 0.0}, "KFAF": {"distance": 11274.0, "latitude": 37.13, "longitude": -76.62, "useCount": 0, "id": "KFAF", "name": "KFAF", "quality": 100, "contribution": 0.0}, "74598013702": {"distance": 12987.0, "latitude": 37.083, "longitude": -76.36, "useCount": 0, "id": "74598013702", "name": "LANGLEY AIR FORCE BASE, VA US", "quality": 99, "contribution": 0.0}, "72308693741": {"distance": 9.0, "latitude": 37.132, "longitude": -76.493, "useCount": 0, "id": "72308693741", "name": "NEWPORT NEWS INTERNATIONAL AIRPORT, VA US", "quality": 100, "contribution": 0.0}, "KLFI": {"distance": 12354.0, "latitude": 37.08, "longitude": -76.37, "useCount": 0, "id": "KLFI", "name": "KLFI", "quality": 100, "contribution": 0.0}, "72308793735": {"distance": 9498.0, "latitude": 37.133, "longitude": -76.6, "useCount": 0, "id": "72308793735", "name": "FORT EUSTIS FELKER ARMY AIR FIELD, VA US", "quality": 99, "contribution": 0.0}}}