{"queryCost": 1, "latitude": 37.13190079, "longitude": -76.49299622, "resolvedAddress": "37.13190079, -76.49299622", "address": "37.13190079, -76.49299622", "timezone": "America/New_York", "tzoffset": -5.0, "days": [{"datetime": "2020-01-07", "datetimeEpoch": 1578373200, "tempmax": 11.1, "tempmin": 0.0, "temp": 4.8, "feelslikemax": 11.1, "feelslikemin": -2.6, "feelslike": 2.9, "dew": 0.8, "humidity": 76.38, "precip": 6.6, "precipprob": null, "precipcover": 20.83, "preciptype": null, "snow": 0.0, "snowdepth": 0.0, "windgust": 68.4, "windspeed": 44.6, "winddir": 150.0, "pressure": 1016.1, "cloudcover": 41.2, "visibility": 14.7, "solarradiation": null, "solarenergy": null, "uvindex": 0.0, "sunrise": "07:20:07", "sunriseEpoch": 1578399607, "sunset": "17:04:19", "sunsetEpoch": 1578434659, "moonphase": 0.44, "conditions": "Rain, Partially cloudy", "description": "Partly cloudly with late afternoon rain.", "icon": "rain", "stations": ["KPHF", "KFAF", "74598013702", "72308693741", "KLFI", "72308793735"], "source": "obs", "hours": null}], "stations": {"KPHF": {"distance": 657.0, "latitude": 37.13, "longitude": -76.5, "useCount": 0, "id": "KPHF", "name": "KPHF", "quality": 100, "contribution": 0.0}, "KFAF": {"distance": 11274.0, "latitude": 37.13, "longitude": -76.62, "useCount": 0, "id": "KFAF", "name": "KFAF", "quality": 100, "contribution": 0.0}, "74598013702": {"distance": 12987.0, "latitude": 37.083, "longitude": -76.36, "useCount": 0, "id": "74598013702", "name": "LANGLEY AIR FORCE BASE, VA US", "quality": 99, "contribution": 0.0}, "72308693741": {"distance": 9.0, "latitude": 37.132, "longitude": -76.493, "useCount": 0, "id": "72308693741", "name": "NEWPORT NEWS INTERNATIONAL AIRPORT, VA US", "quality": 100, "contribution": 0.0}, "KLFI": {"distance": 12354.0, "latitude": 37.08, "longitude": -76.37, "useCount": 0, "id": "KLFI", "name": "KLFI", "quality": 100, "contribution": 0.0}, "72308793735": {"distance": 9498.0, "latitude": 37.133, "longitude": -76.6, "useCount": 0, "id": "72308793735", "name": "FORT EUSTIS FELKER ARMY AIR FIELD, VA US", "quality": 99, "contribution": 0.0}}}