{"queryCost": 1, "latitude": 39.87189865112305, "longitude": -75.24109649658203, "resolvedAddress": "39.87189865112305, -75.24109649658203", "address": "39.87189865112305, -75.24109649658203", "timezone": "America/New_York", "tzoffset": -4.0, "days": [{"datetime": "2018-10-18", "datetimeEpoch": 1539835200, "tempmax": 11.7, "tempmin": 5.6, "temp": 8.9, "feelslikemax": 11.7, "feelslikemin": 2.3, "feelslike": 7.0, "dew": -2.5, "humidity": 45.22, "precip": 0.0, "precipprob": null, "precipcover": 0.0, "preciptype": null, "snow": 0.0, "snowdepth": 0.0, "windgust": 40.7, "windspeed": 31.6, "winddir": 289.6, "pressure": 1027.5, "cloudcover": 28.4, "visibility": 16.0, "solarradiation": 337.2, "solarenergy": 14.6, "sunrise": "07:14:24", "sunriseEpoch": 1539861264, "sunset": "18:17:09", "sunsetEpoch": 1539901029, "moonphase": 0.33, "conditions": "Partially cloudy", "icon": "wind", "stations": ["72408013739", "72408594732", "72030464752", "KPHL", "KLOM", "KPNE"], "source": "obs", "hours": null}], "stations": {"72408013739": {"distance": 1231.0, "latitude": 39.873, "longitude": -75.227, "useCount": 0, "id": "72408013739", "name": "PHILADELPHIA INTERNATIONAL AIRPORT, PA US", "quality": 100, "contribution": 0.0}, "72408594732": {"distance": 30138.0, "latitude": 40.079, "longitude": -75.013, "useCount": 0, "id": "72408594732", "name": "NORTHEAST PHILADELPHIA AIRPORT, PA US", "quality": 100, "contribution": 0.0}, "72030464752": {"distance": 25486.0, "latitude": 40.1, "longitude": -75.267, "useCount": 0, "id": "72030464752", "name": "WINGS FIELD, PA US", "quality": 100, "contribution": 0.0}, "KPHL": {"distance": 1180.0, "latitude": 39.88, "longitude": -75.25, "useCount": 0, "id": "KPHL", "name": "KPHL", "quality": 100, "contribution": 0.0}, "KLOM": {"distance": 29946.0, "latitude": 40.14, "longitude": -75.27, "useCount": 0, "id": "KLOM", "name": "KLOM", "quality": 100, "contribution": 0.0}, "KPNE": {"distance": 30419.0, "latitude": 40.08, "longitude": -75.01, "useCount": 0, "id": "KPNE", "name": "KPNE", "quality": 100, "contribution": 0.0}}}