{"queryCost": 1, "latitude": 39.87189865112305, "longitude": -75.24109649658203, "resolvedAddress": "39.87189865112305, -75.24109649658203", "address": "39.87189865112305, -75.24109649658203", "timezone": "America/New_York", "tzoffset": -4.0, "days": [{"datetime": "2018-06-01", "datetimeEpoch": 1527825600, "tempmax": 28.9, "tempmin": 21.7, "temp": 24.6, "feelslikemax": 31.6, "feelslikemin": 21.7, "feelslike": 25.3, "dew": 21.4, "humidity": 83.54, "precip": 1.6, "precipprob": null, "precipcover": 8.33, "preciptype": null, "snow": 0.0, "snowdepth": 0.0, "windgust": null, "windspeed": 16.5, "winddir": 173.5, "pressure": 1009.0, "cloudcover": 90.4, "visibility": 10.9, "solarradiation": 999.0, "solarenergy": 86.3, "sunrise": "05:34:39", "sunriseEpoch": 1527845679, "sunset": "20:23:22", "sunsetEpoch": 1527899002, "moonphase": 0.54, "conditions": "Rain, Overcast", "icon": "rain", "stations": ["72408013739", "72408594732", "72030464752", "KPHL", "KLOM", "KPNE"], "source": "obs", "hours": null}], "stations": {"72408013739": {"distance": 1231.0, "latitude": 39.873, "longitude": -75.227, "useCount": 0, "id": "72408013739", "name": "PHILADELPHIA INTERNATIONAL AIRPORT, PA US", "quality": 100, "contribution": 0.0}, "72408594732": {"distance": 30138.0, "latitude": 40.079, "longitude": -75.013, "useCount": 0, "id": "72408594732", "name": "NORTHEAST PHILADELPHIA AIRPORT, PA US", "quality": 100, "contribution": 0.0}, "72030464752": {"distance": 25486.0, "latitude": 40.1, "longitude": -75.267, "useCount": 0, "id": "72030464752", "name": "WINGS FIELD, PA US", "quality": 100, "contribution": 0.0}, "KPHL": {"distance": 1180.0, "latitude": 39.88, "longitude": -75.25, "useCount": 0, "id": "KPHL", "name": "KPHL", "quality": 100, "contribution": 0.0}, "KLOM": {"distance": 29946.0, "latitude": 40.14, "longitude": -75.27, "useCount": 0, "id": "KLOM", "name": "KLOM", "quality": 100, "contribution": 0.0}, "KPNE": {"distance": 30419.0, "latitude": 40.08, "longitude": -75.01, "useCount": 0, "id": "KPNE", "name": "KPNE", "quality": 100, "contribution": 0.0}}}