{"queryCost": 1, "latitude": 39.87189865112305, "longitude": -75.24109649658203, "resolvedAddress": "39.87189865112305, -75.24109649658203", "address": "39.87189865112305, -75.24109649658203", "timezone": "America/New_York", "tzoffset": -4.0, "days": [{"datetime": "2019-05-03", "datetimeEpoch": 1556856000, "tempmax": 20.0, "tempmin": 11.1, "temp": 14.6, "feelslikemax": 20.0, "feelslikemin": 11.1, "feelslike": 14.6, "dew": 11.8, "humidity": 83.78, "precip": 0.0, "precipprob": null, "precipcover": 0.0, "preciptype": null, "snow": 0.0, "snowdepth": 0.0, "windgust": null, "windspeed": 20.5, "winddir": 65.0, "pressure": 1017.9, "cloudcover": 85.4, "visibility": 12.7, "solarradiation": 166.7, "solarenergy": 9.0, "sunrise": "05:59:05", "sunriseEpoch": 1556877545, "sunset": "19:57:16", "sunsetEpoch": 1556927836, "moonphase": 0.99, "conditions": "Overcast", "icon": "cloudy", "stations": ["72408013739", "72408594732", "72030464752", "KPHL", "KLOM", "KPNE"], "source": "obs", "hours": null}], "stations": {"72408013739": {"distance": 1231.0, "latitude": 39.873, "longitude": -75.227, "useCount": 0, "id": "72408013739", "name": "PHILADELPHIA INTERNATIONAL AIRPORT, PA US", "quality": 100, "contribution": 0.0}, "72408594732": {"distance": 30138.0, "latitude": 40.079, "longitude": -75.013, "useCount": 0, "id": "72408594732", "name": "NORTHEAST PHILADELPHIA AIRPORT, PA US", "quality": 100, "contribution": 0.0}, "72030464752": {"distance": 25486.0, "latitude": 40.1, "longitude": -75.267, "useCount": 0, "id": "72030464752", "name": "WINGS FIELD, PA US", "quality": 100, "contribution": 0.0}, "KPHL": {"distance": 1180.0, "latitude": 39.88, "longitude": -75.25, "useCount": 0, "id": "KPHL", "name": "KPHL", "quality": 100, "contribution": 0.0}, "KLOM": {"distance": 29946.0, "latitude": 40.14, "longitude": -75.27, "useCount": 0, "id": "KLOM", "name": "KLOM", "quality": 100, "contribution": 0.0}, "KPNE": {"distance": 30419.0, "latitude": 40.08, "longitude": -75.01, "useCount": 0, "id": "KPNE", "name": "KPNE", "quality": 100, "contribution": 0.0}}}