{"queryCost": 1, "latitude": 39.87189865112305, "longitude": -75.24109649658203, "resolvedAddress": "39.87189865112305, -75.24109649658203", "address": "39.87189865112305, -75.24109649658203", "timezone": "America/New_York", "tzoffset": -4.0, "days": [{"datetime": "2019-03-24", "datetimeEpoch": 1553400000, "tempmax": 16.7, "tempmin": 1.7, "temp": 9.6, "feelslikemax": 16.7, "feelslikemin": -1.9, "feelslike": 8.2, "dew": -6.5, "humidity": 33.79, "precip": 0.0, "precipprob": null, "precipcover": 0.0, "preciptype": null, "snow": 0.0, "snowdepth": 0.0, "windgust": 37.1, "windspeed": 25.9, "winddir": 233.8, "pressure": 1021.8, "cloudcover": 48.0, "visibility": 16.0, "solarradiation": 358.8, "solarenergy": 16.8, "sunrise": "06:58:13", "sunriseEpoch": 1553425093, "sunset": "19:16:55", "sunsetEpoch": 1553469415, "moonphase": 0.58, "conditions": "Partially cloudy", "icon": "partly-cloudy-day", "stations": ["72408013739", "72408594732", "72030464752", "KPHL", "KLOM", "KPNE"], "source": "obs", "hours": null}], "stations": {"72408013739": {"distance": 1231.0, "latitude": 39.873, "longitude": -75.227, "useCount": 0, "id": "72408013739", "name": "PHILADELPHIA INTERNATIONAL AIRPORT, PA US", "quality": 100, "contribution": 0.0}, "72408594732": {"distance": 30138.0, "latitude": 40.079, "longitude": -75.013, "useCount": 0, "id": "72408594732", "name": "NORTHEAST PHILADELPHIA AIRPORT, PA US", "quality": 100, "contribution": 0.0}, "72030464752": {"distance": 25486.0, "latitude": 40.1, "longitude": -75.267, "useCount": 0, "id": "72030464752", "name": "WINGS FIELD, PA US", "quality": 100, "contribution": 0.0}, "KPHL": {"distance": 1180.0, "latitude": 39.88, "longitude": -75.25, "useCount": 0, "id": "KPHL", "name": "KPHL", "quality": 100, "contribution": 0.0}, "KLOM": {"distance": 29946.0, "latitude": 40.14, "longitude": -75.27, "useCount": 0, "id": "KLOM", "name": "KLOM", "quality": 100, "contribution": 0.0}, "KPNE": {"distance": 30419.0, "latitude": 40.08, "longitude": -75.01, "useCount": 0, "id": "KPNE", "name": "KPNE", "quality": 100, "contribution": 0.0}}}