{"queryCost": 1, "latitude": 39.87189865112305, "longitude": -75.24109649658203, "resolvedAddress": "39.87189865112305, -75.24109649658203", "address": "39.87189865112305, -75.24109649658203", "timezone": "America/New_York", "tzoffset": -5.0, "days": [{"datetime": "2020-01-05", "datetimeEpoch": 1578200400, "tempmax": 5.6, "tempmin": 1.7, "temp": 3.9, "feelslikemax": 1.1, "feelslikemin": -2.7, "feelslike": -0.9, "dew": -5.9, "humidity": 49.27, "precip": 0.0, "precipprob": null, "precipcover": 0.0, "preciptype": null, "snow": 0.0, "snowdepth": 0.0, "windgust": 62.9, "windspeed": 40.6, "winddir": 296.3, "pressure": 1012.8, "cloudcover": 89.3, "visibility": 16.0, "solarradiation": 96.8, "solarenergy": 4.2, "sunrise": "07:22:46", "sunriseEpoch": 1578226966, "sunset": "16:49:53", "sunsetEpoch": 1578260993, "moonphase": 0.36, "conditions": "Overcast", "icon": "wind", "stations": ["72408013739", "72408594732", "72030464752", "KPHL", "KLOM", "KPNE"], "source": "obs", "hours": null}], "stations": {"72408013739": {"distance": 1231.0, "latitude": 39.873, "longitude": -75.227, "useCount": 0, "id": "72408013739", "name": "PHILADELPHIA INTERNATIONAL AIRPORT, PA US", "quality": 100, "contribution": 0.0}, "72408594732": {"distance": 30138.0, "latitude": 40.079, "longitude": -75.013, "useCount": 0, "id": "72408594732", "name": "NORTHEAST PHILADELPHIA AIRPORT, PA US", "quality": 100, "contribution": 0.0}, "72030464752": {"distance": 25486.0, "latitude": 40.1, "longitude": -75.267, "useCount": 0, "id": "72030464752", "name": "WINGS FIELD, PA US", "quality": 100, "contribution": 0.0}, "KPHL": {"distance": 1180.0, "latitude": 39.88, "longitude": -75.25, "useCount": 0, "id": "KPHL", "name": "KPHL", "quality": 100, "contribution": 0.0}, "KLOM": {"distance": 29946.0, "latitude": 40.14, "longitude": -75.27, "useCount": 0, "id": "KLOM", "name": "KLOM", "quality": 100, "contribution": 0.0}, "KPNE": {"distance": 30419.0, "latitude": 40.08, "longitude": -75.01, "useCount": 0, "id": "KPNE", "name": "KPNE", "quality": 100, "contribution": 0.0}}}