{"queryCost": 1, "latitude": 33.43429946899414, "longitude": -112.01200103759766, "resolvedAddress": "33.43429946899414, -112.01200103759766", "address": "33.43429946899414, -112.01200103759766", "timezone": "America/Phoenix", "tzoffset": -7.0, "days": [{"datetime": "2018-07-27", "datetimeEpoch": 1532674800, "tempmax": 42.8, "tempmin": 33.8, "temp": 38.0, "feelslikemax": 43.0, "feelslikemin": 33.8, "feelslike": 37.9, "dew": 14.5, "humidity": 25.9, "precip": 0.0, "precipprob": null, "precipcover": 0.0, "preciptype": null, "snow": 0.0, "snowdepth": 0.0, "windgust": 51.8, "windspeed": 25.9, "winddir": 146.7, "pressure": 1007.3, "cloudcover": 71.6, "visibility": 16.0, "solarradiation": 460.4, "solarenergy": 26.5, "sunrise": "05:37:13", "sunriseEpoch": 1532695033, "sunset": "19:31:32", "sunsetEpoch": 1532745092, "moonphase": 0.5, "conditions": "Partially cloudy", "icon": "partly-cloudy-day", "stations": ["72278903192", "KSDL", "72278023183", "KPHX", "72278303185", "KFFZ"], "source": "obs", "hours": null}], "stations": {"72278903192": {"distance": 22982.0, "latitude": 33.623, "longitude": -111.911, "useCount": 0, "id": "72278903192", "name": "SCOTTSDALE MUNICIPAL AIRPORT, AZ US", "quality": 100, "contribution": 0.0}, "KSDL": {"distance": 21341.0, "latitude": 33.61, "longitude": -111.92, "useCount": 0, "id": "KSDL", "name": "KSDL", "quality": 100, "contribution": 0.0}, "72278023183": {"distance": 1045.0, "latitude": 33.428, "longitude": -112.004, "useCount": 0, "id": "72278023183", "name": "PHOENIX AIRPORT, AZ US", "quality": 100, "contribution": 0.0}, "KPHX": {"distance": 884.0, "latitude": 33.43, "longitude": -112.02, "useCount": 0, "id": "KPHX", "name": "KPHX", "quality": 100, "contribution": 0.0}, "72278303185": {"distance": 26164.0, "latitude": 33.467, "longitude": -111.733, "useCount": 0, "id": "72278303185", "name": "MESA FALCON FIELD, AZ US", "quality": 100, "contribution": 0.0}, "KFFZ": {"distance": 26492.0, "latitude": 33.47, "longitude": -111.73, "useCount": 0, "id": "KFFZ", "name": "FALCON FLD MESA, AZ", "quality": 100, "contribution": 0.0}}}