{"queryCost": 1, "latitude": 33.43429946899414, "longitude": -112.01200103759766, "resolvedAddress": "33.43429946899414, -112.01200103759766", "address": "33.43429946899414, -112.01200103759766", "timezone": "America/Phoenix", "tzoffset": -7.0, "days": [{"datetime": "2018-02-16", "datetimeEpoch": 1518764400, "tempmax": 18.4, "tempmin": 11.7, "temp": 15.1, "feelslikemax": 18.4, "feelslikemin": 11.7, "feelslike": 15.1, "dew": 9.6, "humidity": 72.82, "precip": 0.0, "precipprob": null, "precipcover": 0.0, "preciptype": null, "snow": 0.0, "snowdepth": 0.0, "windgust": null, "windspeed": 11.2, "winddir": 135.4, "pressure": 1018.3, "cloudcover": 90.1, "visibility": 15.5, "solarradiation": 160.9, "solarenergy": 7.5, "sunrise": "07:10:51", "sunriseEpoch": 1518790251, "sunset": "18:13:47", "sunsetEpoch": 1518830027, "moonphase": 0.0, "conditions": "Overcast", "icon": "cloudy", "stations": ["72278903192", "KSDL", "72278023183", "KPHX", "72278303185", "KFFZ"], "source": "obs", "hours": null}], "stations": {"72278903192": {"distance": 22982.0, "latitude": 33.623, "longitude": -111.911, "useCount": 0, "id": "72278903192", "name": "SCOTTSDALE MUNICIPAL AIRPORT, AZ US", "quality": 100, "contribution": 0.0}, "KSDL": {"distance": 21341.0, "latitude": 33.61, "longitude": -111.92, "useCount": 0, "id": "KSDL", "name": "KSDL", "quality": 100, "contribution": 0.0}, "72278023183": {"distance": 1045.0, "latitude": 33.428, "longitude": -112.004, "useCount": 0, "id": "72278023183", "name": "PHOENIX AIRPORT, AZ US", "quality": 100, "contribution": 0.0}, "KPHX": {"distance": 884.0, "latitude": 33.43, "longitude": -112.02, "useCount": 0, "id": "KPHX", "name": "KPHX", "quality": 100, "contribution": 0.0}, "72278303185": {"distance": 26164.0, "latitude": 33.467, "longitude": -111.733, "useCount": 0, "id": "72278303185", "name": "MESA FALCON FIELD, AZ US", "quality": 100, "contribution": 0.0}, "KFFZ": {"distance": 26492.0, "latitude": 33.47, "longitude": -111.73, "useCount": 0, "id": "KFFZ", "name": "FALCON FLD MESA, AZ", "quality": 100, "contribution": 0.0}}}