{"queryCost": 1, "latitude": 33.43429946899414, "longitude": -112.01200103759766, "resolvedAddress": "33.43429946899414, -112.01200103759766", "address": "33.43429946899414, -112.01200103759766", "timezone": "America/Phoenix", "tzoffset": -7.0, "days": [{"datetime": "2018-01-14", "datetimeEpoch": 1515913200, "tempmax": 25.6, "tempmin": 10.0, "temp": 17.1, "feelslikemax": 25.6, "feelslikemin": 9.1, "feelslike": 17.0, "dew": 0.1, "humidity": 36.43, "precip": 0.0, "precipprob": null, "precipcover": 0.0, "preciptype": null, "snow": 0.0, "snowdepth": 0.0, "windgust": null, "windspeed": 20.5, "winddir": 128.8, "pressure": 1019.5, "cloudcover": 63.2, "visibility": 16.0, "solarradiation": 273.9, "solarenergy": 11.8, "sunrise": "07:32:15", "sunriseEpoch": 1515940335, "sunset": "17:42:23", "sunsetEpoch": 1515976943, "moonphase": 0.98, "conditions": "Partially cloudy", "icon": "partly-cloudy-day", "stations": ["72278903192", "KSDL", "72278023183", "KPHX", "72278303185", "KFFZ"], "source": "obs", "hours": null}], "stations": {"72278903192": {"distance": 22982.0, "latitude": 33.623, "longitude": -111.911, "useCount": 0, "id": "72278903192", "name": "SCOTTSDALE MUNICIPAL AIRPORT, AZ US", "quality": 100, "contribution": 0.0}, "KSDL": {"distance": 21341.0, "latitude": 33.61, "longitude": -111.92, "useCount": 0, "id": "KSDL", "name": "KSDL", "quality": 100, "contribution": 0.0}, "72278023183": {"distance": 1045.0, "latitude": 33.428, "longitude": -112.004, "useCount": 0, "id": "72278023183", "name": "PHOENIX AIRPORT, AZ US", "quality": 100, "contribution": 0.0}, "KPHX": {"distance": 884.0, "latitude": 33.43, "longitude": -112.02, "useCount": 0, "id": "KPHX", "name": "KPHX", "quality": 100, "contribution": 0.0}, "72278303185": {"distance": 26164.0, "latitude": 33.467, "longitude": -111.733, "useCount": 0, "id": "72278303185", "name": "MESA FALCON FIELD, AZ US", "quality": 100, "contribution": 0.0}, "KFFZ": {"distance": 26492.0, "latitude": 33.47, "longitude": -111.73, "useCount": 0, "id": "KFFZ", "name": "FALCON FLD MESA, AZ", "quality": 100, "contribution": 0.0}}}