{"queryCost": 1, "latitude": 33.43429946899414, "longitude": -112.01200103759766, "resolvedAddress": "33.43429946899414, -112.01200103759766", "address": "33.43429946899414, -112.01200103759766", "timezone": "America/Phoenix", "tzoffset": -7.0, "days": [{"datetime": "2018-11-04", "datetimeEpoch": 1541314800, "tempmax": 26.7, "tempmin": 15.6, "temp": 21.0, "feelslikemax": 26.1, "feelslikemin": 15.6, "feelslike": 21.0, "dew": 5.2, "humidity": 37.68, "precip": 0.0, "precipprob": null, "precipcover": 0.0, "preciptype": null, "snow": 0.0, "snowdepth": 0.0, "windgust": null, "windspeed": 12.9, "winddir": 151.3, "pressure": 1011.9, "cloudcover": 71.1, "visibility": 16.0, "solarradiation": 299.9, "solarenergy": 14.0, "sunrise": "06:49:27", "sunriseEpoch": 1541339367, "sunset": "17:33:18", "sunsetEpoch": 1541377998, "moonphase": 0.95, "conditions": "Partially cloudy", "icon": "partly-cloudy-day", "stations": ["72278903192", "KSDL", "72278023183", "KPHX", "KFFZ"], "source": "obs", "hours": null}], "stations": {"72278903192": {"distance": 22982.0, "latitude": 33.623, "longitude": -111.911, "useCount": 0, "id": "72278903192", "name": "SCOTTSDALE MUNICIPAL AIRPORT, AZ US", "quality": 100, "contribution": 0.0}, "KSDL": {"distance": 21341.0, "latitude": 33.61, "longitude": -111.92, "useCount": 0, "id": "KSDL", "name": "KSDL", "quality": 100, "contribution": 0.0}, "KFFZ": {"distance": 26492.0, "latitude": 33.47, "longitude": -111.73, "useCount": 0, "id": "KFFZ", "name": "FALCON FLD MESA, AZ", "quality": 100, "contribution": 0.0}, "72278023183": {"distance": 1045.0, "latitude": 33.428, "longitude": -112.004, "useCount": 0, "id": "72278023183", "name": "PHOENIX AIRPORT, AZ US", "quality": 100, "contribution": 0.0}, "KPHX": {"distance": 884.0, "latitude": 33.43, "longitude": -112.02, "useCount": 0, "id": "KPHX", "name": "KPHX", "quality": 100, "contribution": 0.0}}}