{"queryCost": 1, "latitude": 33.43429946899414, "longitude": -112.01200103759766, "resolvedAddress": "33.43429946899414, -112.01200103759766", "address": "33.43429946899414, -112.01200103759766", "timezone": "America/Phoenix", "tzoffset": -7.0, "days": [{"datetime": "2018-10-08", "datetimeEpoch": 1538982000, "tempmax": 23.8, "tempmin": 15.0, "temp": 19.3, "feelslikemax": 23.8, "feelslikemin": 15.0, "feelslike": 19.3, "dew": 10.3, "humidity": 58.44, "precip": 0.0, "precipprob": null, "precipcover": 0.0, "preciptype": null, "snow": 0.0, "snowdepth": 0.0, "windgust": 22.3, "windspeed": 25.9, "winddir": 138.3, "pressure": 1006.4, "cloudcover": 47.9, "visibility": 16.0, "solarradiation": 377.6, "solarenergy": 17.7, "sunrise": "06:27:23", "sunriseEpoch": 1539005243, "sunset": "18:03:09", "sunsetEpoch": 1539046989, "moonphase": 1.0, "conditions": "Partially cloudy", "icon": "partly-cloudy-day", "stations": ["72278903192", "KSDL", "72278023183", "KPHX", "72278303185", "KFFZ"], "source": "obs", "hours": null}], "stations": {"72278903192": {"distance": 22982.0, "latitude": 33.623, "longitude": -111.911, "useCount": 0, "id": "72278903192", "name": "SCOTTSDALE MUNICIPAL AIRPORT, AZ US", "quality": 100, "contribution": 0.0}, "KSDL": {"distance": 21341.0, "latitude": 33.61, "longitude": -111.92, "useCount": 0, "id": "KSDL", "name": "KSDL", "quality": 100, "contribution": 0.0}, "72278023183": {"distance": 1045.0, "latitude": 33.428, "longitude": -112.004, "useCount": 0, "id": "72278023183", "name": "PHOENIX AIRPORT, AZ US", "quality": 100, "contribution": 0.0}, "KPHX": {"distance": 884.0, "latitude": 33.43, "longitude": -112.02, "useCount": 0, "id": "KPHX", "name": "KPHX", "quality": 100, "contribution": 0.0}, "72278303185": {"distance": 26164.0, "latitude": 33.467, "longitude": -111.733, "useCount": 0, "id": "72278303185", "name": "MESA FALCON FIELD, AZ US", "quality": 100, "contribution": 0.0}, "KFFZ": {"distance": 26492.0, "latitude": 33.47, "longitude": -111.73, "useCount": 0, "id": "KFFZ", "name": "FALCON FLD MESA, AZ", "quality": 100, "contribution": 0.0}}}