{"queryCost": 1, "latitude": 40.664199829100006, "longitude": -89.6932983398, "resolvedAddress": "40.664199829100006, -89.6932983398", "address": "40.664199829100006, -89.6932983398", "timezone": "America/Chicago", "tzoffset": -6.0, "days": [{"datetime": "2020-01-04", "datetimeEpoch": 1578117600, "tempmax": 0.6, "tempmin": -4.3, "temp": -0.8, "feelslikemax": 0.6, "feelslikemin": -8.0, "feelslike": -3.4, "dew": -2.8, "humidity": 85.92, "precip": 2.06, "precipprob": null, "precipcover": 41.67, "preciptype": null, "snow": 1.04, "snowdepth": 3.0, "windgust": 38.9, "windspeed": 20.5, "winddir": 276.1, "pressure": 1018.6, "cloudcover": 95.4, "visibility": 9.8, "solarradiation": 48.8, "solarenergy": 1.4, "sunrise": "07:22:56", "sunriseEpoch": 1578144176, "sunset": "16:44:28", "sunsetEpoch": 1578177868, "moonphase": 0.31, "conditions": "Snow, Overcast", "icon": "snow", "stations": ["72532014842", "KC75", "KAAA", "A0001704868", "KPIA", "74467204862"], "source": "obs", "hours": null}], "stations": {"72532014842": {"distance": 874.0, "latitude": 40.668, "longitude": -89.684, "useCount": 0, "id": "72532014842", "name": "PEORIA INTERNATIONAL AIRPORT, IL US", "quality": 100, "contribution": 0.0}, "KC75": {"distance": 47591.0, "latitude": 41.02, "longitude": -89.38, "useCount": 0, "id": "KC75", "name": "KC75", "quality": 100, "contribution": 0.0}, "KAAA": {"distance": 64998.0, "latitude": 40.15, "longitude": -89.33, "useCount": 0, "id": "KAAA", "name": "KAAA", "quality": 100, "contribution": 0.0}, "A0001704868": {"distance": 47220.0, "latitude": 41.019, "longitude": -89.386, "useCount": 0, "id": "A0001704868", "name": "LACON MARSHALL CO AIRPORT, IL US", "quality": 97, "contribution": 0.0}, "KPIA": {"distance": 1295.0, "latitude": 40.67, "longitude": -89.68, "useCount": 0, "id": "KPIA", "name": "KPIA", "quality": 100, "contribution": 0.0}, "74467204862": {"distance": 63995.0, "latitude": 40.158, "longitude": -89.335, "useCount": 0, "id": "74467204862", "name": "LINCOLN LOGAN CO AIRPORT, IL US", "quality": 100, "contribution": 0.0}}}