{"queryCost": 1, "latitude": 40.664199829100006, "longitude": -89.6932983398, "resolvedAddress": "40.664199829100006, -89.6932983398", "address": "40.664199829100006, -89.6932983398", "timezone": "America/Chicago", "tzoffset": -6.0, "days": [{"datetime": "2020-01-03", "datetimeEpoch": 1578031200, "tempmax": 4.3, "tempmin": 0.0, "temp": 2.1, "feelslikemax": 3.9, "feelslikemin": -2.3, "feelslike": -0.6, "dew": -0.7, "humidity": 82.05, "precip": 1.24, "precipprob": null, "precipcover": 8.33, "preciptype": null, "snow": 1.88, "snowdepth": 1.88, "windgust": 31.7, "windspeed": 16.6, "winddir": 305.0, "pressure": 1010.8, "cloudcover": 89.9, "visibility": 14.4, "solarradiation": 53.7, "solarenergy": 1.7, "sunrise": "07:22:54", "sunriseEpoch": 1578057774, "sunset": "16:43:34", "sunsetEpoch": 1578091414, "moonphase": 0.26, "conditions": "Snow, Overcast", "icon": "snow", "stations": ["72532014842", "KC75", "KAAA", "A0001704868", "KPIA", "74467204862"], "source": "obs", "hours": null}], "stations": {"72532014842": {"distance": 874.0, "latitude": 40.668, "longitude": -89.684, "useCount": 0, "id": "72532014842", "name": "PEORIA INTERNATIONAL AIRPORT, IL US", "quality": 100, "contribution": 0.0}, "KC75": {"distance": 47591.0, "latitude": 41.02, "longitude": -89.38, "useCount": 0, "id": "KC75", "name": "KC75", "quality": 100, "contribution": 0.0}, "KAAA": {"distance": 64998.0, "latitude": 40.15, "longitude": -89.33, "useCount": 0, "id": "KAAA", "name": "KAAA", "quality": 100, "contribution": 0.0}, "A0001704868": {"distance": 47220.0, "latitude": 41.019, "longitude": -89.386, "useCount": 0, "id": "A0001704868", "name": "LACON MARSHALL CO AIRPORT, IL US", "quality": 97, "contribution": 0.0}, "KPIA": {"distance": 1295.0, "latitude": 40.67, "longitude": -89.68, "useCount": 0, "id": "KPIA", "name": "KPIA", "quality": 100, "contribution": 0.0}, "74467204862": {"distance": 63995.0, "latitude": 40.158, "longitude": -89.335, "useCount": 0, "id": "74467204862", "name": "LINCOLN LOGAN CO AIRPORT, IL US", "quality": 100, "contribution": 0.0}}}