{"queryCost": 1, "latitude": 31.467100143432617, "longitude": -89.33709716796875, "resolvedAddress": "31.467100143432617, -89.33709716796875", "address": "31.467100143432617, -89.33709716796875", "timezone": "America/Chicago", "tzoffset": -6.0, "days": [{"datetime": "2020-01-03", "datetimeEpoch": 1578031200, "tempmax": 15.7, "tempmin": 12.9, "temp": 14.8, "feelslikemax": 15.7, "feelslikemin": 12.9, "feelslike": 14.8, "dew": 14.7, "humidity": 99.64, "precip": 13.71, "precipprob": null, "precipcover": 70.83, "preciptype": null, "snow": 0.0, "snowdepth": 0.0, "windgust": null, "windspeed": 16.6, "winddir": 218.3, "pressure": 1012.1, "cloudcover": 93.0, "visibility": 14.4, "solarradiation": 22.1, "solarenergy": 0.8, "sunrise": "06:57:06", "sunriseEpoch": 1578056226, "sunset": "17:06:29", "sunsetEpoch": 1578092789, "moonphase": 0.26, "conditions": "Rain, Overcast", "icon": "rain", "stations": ["74759013833", "KHBG", "72077699999", "72234853808", "KPIB"], "source": "obs", "hours": null}], "stations": {"72234853808": {"distance": 363.0, "latitude": 31.467, "longitude": -89.333, "useCount": 0, "id": "72234853808", "name": "LAUREL HATTIESBURG PINE BELT REGIONAL AIRPORT, MS US", "quality": 99, "contribution": 0.0}, "74759013833": {"distance": 22108.0, "latitude": 31.282, "longitude": -89.253, "useCount": 0, "id": "74759013833", "name": "HATTIESBURG CHAIN MUNICIPAL AIRPORT, MS US", "quality": 100, "contribution": 0.0}, "KHBG": {"distance": 23451.0, "latitude": 31.27, "longitude": -89.25, "useCount": 0, "id": "KHBG", "name": "KHBG", "quality": 100, "contribution": 0.0}, "72077699999": {"distance": 27711.0, "latitude": 31.673, "longitude": -89.172, "useCount": 0, "id": "72077699999", "name": "HESLER NOBLE FIELD, MS US", "quality": 100, "contribution": 0.0}, "KPIB": {"distance": 747.0, "latitude": 31.47, "longitude": -89.33, "useCount": 0, "id": "KPIB", "name": "PINE BELT RGNL, MS", "quality": 100, "contribution": 0.0}}}