{"queryCost": 1, "latitude": 42.9098014831543, "longitude": -112.59600067138672, "resolvedAddress": "42.9098014831543, -112.59600067138672", "address": "42.9098014831543, -112.59600067138672", "timezone": "America/Boise", "tzoffset": -7.0, "days": [{"datetime": "2020-01-01", "datetimeEpoch": 1577862000, "tempmax": 3.3, "tempmin": -1.2, "temp": 1.1, "feelslikemax": -2.9, "feelslikemin": -7.9, "feelslike": -5.1, "dew": -1.9, "humidity": 80.54, "precip": 1.6, "precipprob": null, "precipcover": 41.67, "preciptype": null, "snow": 0.0, "snowdepth": 0.0, "windgust": 72.0, "windspeed": 46.3, "winddir": 215.5, "pressure": 1009.9, "cloudcover": 87.7, "visibility": 14.5, "solarradiation": 37.1, "solarenergy": 2.0, "sunrise": "08:01:31", "sunriseEpoch": 1577890891, "sunset": "17:06:22", "sunsetEpoch": 1577923582, "moonphase": 0.17, "conditions": "Rain, Overcast", "icon": "rain", "stations": ["KPIH", "KIDA", "CPRL", "72578524145", "72578024156"], "source": "obs", "hours": null}], "stations": {"KIDA": {"distance": 80219.0, "latitude": 43.52, "longitude": -112.07, "useCount": 0, "id": "KIDA", "name": "IDAHO FALLS/FANG, ID", "quality": 100, "contribution": 0.0}, "CPRL": {"distance": 19808.0, "latitude": 42.78, "longitude": -112.43, "useCount": 0, "id": "CPRL", "name": "CPRL", "quality": 45, "contribution": 0.0}, "72578524145": {"distance": 80385.0, "latitude": 43.519, "longitude": -112.064, "useCount": 0, "id": "72578524145", "name": "IDAHO FALLS FANNING FIELD, ID US", "quality": 100, "contribution": 0.0}, "KPIH": {"distance": 1181.0, "latitude": 42.92, "longitude": -112.6, "useCount": 0, "id": "KPIH", "name": "KPIH", "quality": 100, "contribution": 0.0}, "72578024156": {"distance": 2344.0, "latitude": 42.92, "longitude": -112.571, "useCount": 0, "id": "72578024156", "name": "POCATELLO REGIONAL AIRPORT, ID US", "quality": 100, "contribution": 0.0}}}