{"queryCost": 1, "latitude": 40.49150085, "longitude": -80.23290253, "resolvedAddress": "40.49150085, -80.23290253", "address": "40.49150085, -80.23290253", "timezone": "America/New_York", "tzoffset": -4.0, "days": [{"datetime": "2019-06-10", "datetimeEpoch": 1560139200, "tempmax": 26.1, "tempmin": 15.6, "temp": 19.7, "feelslikemax": 26.1, "feelslikemin": 15.6, "feelslike": 19.7, "dew": 17.3, "humidity": 86.81, "precip": 8.44, "precipprob": null, "precipcover": 50.0, "preciptype": null, "snow": 0.0, "snowdepth": 0.0, "windgust": 57.2, "windspeed": 38.1, "winddir": 181.2, "pressure": 1014.3, "cloudcover": 67.8, "visibility": 14.3, "solarradiation": 178.7, "solarenergy": 9.6, "sunrise": "05:50:15", "sunriseEpoch": 1560160215, "sunset": "20:50:44", "sunsetEpoch": 1560214244, "moonphase": 0.27, "conditions": "Rain, Partially cloudy", "icon": "rain", "stations": ["KBTP", "KAGC", "72512464705", "KPIT", "72520514762", "72520094823"], "source": "obs", "hours": null}], "stations": {"KBTP": {"distance": 40032.0, "latitude": 40.78, "longitude": -79.95, "useCount": 0, "id": "KBTP", "name": "BUTLER CO., PA", "quality": 100, "contribution": 0.0}, "KAGC": {"distance": 30118.0, "latitude": 40.35, "longitude": -79.93, "useCount": 0, "id": "KAGC", "name": "KAGC", "quality": 100, "contribution": 0.0}, "72512464705": {"distance": 39771.0, "latitude": 40.777, "longitude": -79.95, "useCount": 0, "id": "72512464705", "name": "BUTLER CO AIRPORT, PA US", "quality": 99, "contribution": 0.0}, "KPIT": {"distance": 1445.0, "latitude": 40.5, "longitude": -80.22, "useCount": 0, "id": "KPIT", "name": "KPIT", "quality": 100, "contribution": 0.0}, "72520514762": {"distance": 30454.0, "latitude": 40.355, "longitude": -79.922, "useCount": 0, "id": "72520514762", "name": "PITTSBURGH ALLEGHENY CO AIRPORT, PA US", "quality": 100, "contribution": 0.0}, "72520094823": {"distance": 1745.0, "latitude": 40.485, "longitude": -80.214, "useCount": 0, "id": "72520094823", "name": "PITTSBURGH ASOS, PA US", "quality": 100, "contribution": 0.0}}}