{"queryCost": 1, "latitude": 40.49150085, "longitude": -80.23290253, "resolvedAddress": "40.49150085, -80.23290253", "address": "40.49150085, -80.23290253", "timezone": "America/New_York", "tzoffset": -4.0, "days": [{"datetime": "2019-07-29", "datetimeEpoch": 1564372800, "tempmax": 30.0, "tempmin": 21.7, "temp": 25.8, "feelslikemax": 30.5, "feelslikemin": 21.7, "feelslike": 26.1, "dew": 18.3, "humidity": 64.95, "precip": 0.0, "precipprob": null, "precipcover": 0.0, "preciptype": null, "snow": 0.0, "snowdepth": 0.0, "windgust": 37.1, "windspeed": 22.3, "winddir": 236.6, "pressure": 1016.9, "cloudcover": 40.5, "visibility": 16.0, "solarradiation": 430.9, "solarenergy": 23.3, "sunrise": "06:15:08", "sunriseEpoch": 1564395308, "sunset": "20:39:09", "sunsetEpoch": 1564447149, "moonphase": 0.96, "conditions": "Partially cloudy", "icon": "partly-cloudy-day", "stations": ["KBTP", "KAGC", "72512464705", "KPIT", "72520514762", "72520094823"], "source": "obs", "hours": null}], "stations": {"KBTP": {"distance": 40032.0, "latitude": 40.78, "longitude": -79.95, "useCount": 0, "id": "KBTP", "name": "BUTLER CO., PA", "quality": 100, "contribution": 0.0}, "KAGC": {"distance": 30118.0, "latitude": 40.35, "longitude": -79.93, "useCount": 0, "id": "KAGC", "name": "KAGC", "quality": 100, "contribution": 0.0}, "72512464705": {"distance": 39771.0, "latitude": 40.777, "longitude": -79.95, "useCount": 0, "id": "72512464705", "name": "BUTLER CO AIRPORT, PA US", "quality": 99, "contribution": 0.0}, "KPIT": {"distance": 1445.0, "latitude": 40.5, "longitude": -80.22, "useCount": 0, "id": "KPIT", "name": "KPIT", "quality": 100, "contribution": 0.0}, "72520514762": {"distance": 30454.0, "latitude": 40.355, "longitude": -79.922, "useCount": 0, "id": "72520514762", "name": "PITTSBURGH ALLEGHENY CO AIRPORT, PA US", "quality": 100, "contribution": 0.0}, "72520094823": {"distance": 1745.0, "latitude": 40.485, "longitude": -80.214, "useCount": 0, "id": "72520094823", "name": "PITTSBURGH ASOS, PA US", "quality": 100, "contribution": 0.0}}}