{"queryCost": 1, "latitude": 45.57089996, "longitude": -84.79669952, "resolvedAddress": "45.57089996, -84.79669952", "address": "45.57089996, -84.79669952", "timezone": "America/Detroit", "tzoffset": -5.0, "days": [{"datetime": "2020-01-04", "datetimeEpoch": 1578114000, "tempmax": -0.7, "tempmin": -2.8, "temp": -1.7, "feelslikemax": -2.2, "feelslikemin": -7.5, "feelslike": -5.5, "dew": -4.7, "humidity": 80.58, "precip": 0.3, "precipprob": null, "precipcover": 4.17, "preciptype": null, "snow": 0.0, "snowdepth": 7.87, "windgust": 40.7, "windspeed": 22.8, "winddir": 306.4, "pressure": 1012.8, "cloudcover": 92.2, "visibility": 14.1, "solarradiation": null, "solarenergy": null, "sunrise": "08:19:35", "sunriseEpoch": 1578143975, "sunset": "17:08:39", "sunsetEpoch": 1578175719, "moonphase": 0.31, "conditions": "Snow, Overcast", "icon": "snow", "stations": ["KMCD", "72743554820", "KGLR", "KPLN", "72540704854", "72734714841"], "source": "obs", "hours": null}], "stations": {"KMCD": {"distance": 34410.0, "latitude": 45.86, "longitude": -84.64, "useCount": 0, "id": "KMCD", "name": "KMCD", "quality": 100, "contribution": 0.0}, "72743554820": {"distance": 35007.0, "latitude": 45.865, "longitude": -84.637, "useCount": 0, "id": "72743554820", "name": "MACKINAC ISLAND AIRPORT, MI US", "quality": 100, "contribution": 0.0}, "KGLR": {"distance": 62897.0, "latitude": 45.01, "longitude": -84.7, "useCount": 0, "id": "KGLR", "name": "KGLR", "quality": 100, "contribution": 0.0}, "KPLN": {"distance": 1321.0, "latitude": 45.56, "longitude": -84.79, "useCount": 0, "id": "KPLN", "name": "KPLN", "quality": 100, "contribution": 0.0}, "72540704854": {"distance": 62519.0, "latitude": 45.013, "longitude": -84.701, "useCount": 0, "id": "72540704854", "name": "GAYLORD OTSEGO CO AIRPORT, MI US", "quality": 100, "contribution": 0.0}, "72734714841": {"distance": 788.0, "latitude": 45.564, "longitude": -84.793, "useCount": 0, "id": "72734714841", "name": "PELLSTON REGIONAL AIRPORT, MI US", "quality": 100, "contribution": 0.0}}}