{"queryCost": 1, "latitude": 45.57089996, "longitude": -84.79669952, "resolvedAddress": "45.57089996, -84.79669952", "address": "45.57089996, -84.79669952", "timezone": "America/Detroit", "tzoffset": -5.0, "days": [{"datetime": "2020-01-07", "datetimeEpoch": 1578373200, "tempmax": 2.2, "tempmin": -10.6, "temp": -1.7, "feelslikemax": -2.0, "feelslikemin": -15.0, "feelslike": -6.7, "dew": -6.2, "humidity": 72.25, "precip": 0.0, "precipprob": null, "precipcover": 4.17, "preciptype": null, "snow": 0.0, "snowdepth": 13.79, "windgust": 55.8, "windspeed": 29.5, "winddir": 236.3, "pressure": 1009.5, "cloudcover": 55.4, "visibility": 14.8, "solarradiation": null, "solarenergy": null, "uvindex": 0.0, "sunrise": "08:19:08", "sunriseEpoch": 1578403148, "sunset": "17:11:49", "sunsetEpoch": 1578435109, "moonphase": 0.44, "conditions": "Partially cloudy", "description": "Partly cloudly.", "icon": "partly-cloudy-day", "stations": ["KMCD", "72743554820", "KGLR", "KPLN", "72540704854", "72734714841"], "source": "obs", "hours": null}], "stations": {"KMCD": {"distance": 34410.0, "latitude": 45.86, "longitude": -84.64, "useCount": 0, "id": "KMCD", "name": "KMCD", "quality": 100, "contribution": 0.0}, "72743554820": {"distance": 35007.0, "latitude": 45.865, "longitude": -84.637, "useCount": 0, "id": "72743554820", "name": "MACKINAC ISLAND AIRPORT, MI US", "quality": 100, "contribution": 0.0}, "KGLR": {"distance": 62897.0, "latitude": 45.01, "longitude": -84.7, "useCount": 0, "id": "KGLR", "name": "KGLR", "quality": 100, "contribution": 0.0}, "KPLN": {"distance": 1321.0, "latitude": 45.56, "longitude": -84.79, "useCount": 0, "id": "KPLN", "name": "KPLN", "quality": 100, "contribution": 0.0}, "72540704854": {"distance": 62519.0, "latitude": 45.013, "longitude": -84.701, "useCount": 0, "id": "72540704854", "name": "GAYLORD OTSEGO CO AIRPORT, MI US", "quality": 100, "contribution": 0.0}, "72734714841": {"distance": 788.0, "latitude": 45.564, "longitude": -84.793, "useCount": 0, "id": "72734714841", "name": "PELLSTON REGIONAL AIRPORT, MI US", "quality": 100, "contribution": 0.0}}}