{"queryCost": 1, "latitude": 34.654499, "longitude": -112.419998, "resolvedAddress": "34.654499, -112.419998", "address": "34.654499, -112.419998", "timezone": "America/Phoenix", "tzoffset": -7.0, "days": [{"datetime": "2020-01-07", "datetimeEpoch": 1578380400, "tempmax": 13.4, "tempmin": -4.3, "temp": 3.2, "feelslikemax": 13.4, "feelslikemin": -8.3, "feelslike": 1.0, "dew": -8.0, "humidity": 47.39, "precip": 0.0, "precipprob": null, "precipcover": 4.17, "preciptype": null, "snow": 0.0, "snowdepth": 0.0, "windgust": 38.9, "windspeed": 14.8, "winddir": 182.9, "pressure": 1024.3, "cloudcover": 0.0, "visibility": 16.0, "solarradiation": 286.1, "solarenergy": 12.4, "uvindex": 6.0, "sunrise": "07:37:29", "sunriseEpoch": 1578407849, "sunset": "17:34:26", "sunsetEpoch": 1578443666, "moonphase": 0.44, "conditions": "Clear", "description": "Clear conditions.", "icon": "clear-day", "stations": ["KPRC", "72372323184", "72375600375", "KSEZ", "KCMR"], "source": "obs", "hours": null}], "stations": {"72372323184": {"distance": 325.0, "latitude": 34.652, "longitude": -112.421, "useCount": 0, "id": "72372323184", "name": "PRESCOTT LOVE FIELD, AZ US", "quality": 100, "contribution": 0.0}, "72375600375": {"distance": 62193.0, "latitude": 34.85, "longitude": -111.783, "useCount": 0, "id": "72375600375", "name": "SEDONA AIRPORT, AZ US", "quality": 100, "contribution": 0.0}, "KPRC": {"distance": 501.0, "latitude": 34.65, "longitude": -112.42, "useCount": 0, "id": "KPRC", "name": "KPRC", "quality": 100, "contribution": 0.0}, "KSEZ": {"distance": 62451.0, "latitude": 34.85, "longitude": -111.78, "useCount": 0, "id": "KSEZ", "name": "KSEZ", "quality": 100, "contribution": 0.0}, "KCMR": {"distance": 73535.0, "latitude": 35.29, "longitude": -112.2, "useCount": 0, "id": "KCMR", "name": "KCMR", "quality": 99, "contribution": 0.0}}}