{"queryCost": 1, "latitude": 33.8297004699707, "longitude": -116.50700378417969, "resolvedAddress": "33.8297004699707, -116.50700378417969", "address": "33.8297004699707, -116.50700378417969", "timezone": "America/Los_Angeles", "tzoffset": -8.0, "days": [{"datetime": "2020-01-07", "datetimeEpoch": 1578384000, "tempmax": 22.8, "tempmin": 8.3, "temp": 15.0, "feelslikemax": 22.8, "feelslikemin": 6.5, "feelslike": 14.7, "dew": -4.0, "humidity": 28.93, "precip": 0.0, "precipprob": null, "precipcover": 0.0, "preciptype": null, "snow": 13.22, "snowdepth": 38.0, "windgust": null, "windspeed": 13.0, "winddir": 278.5, "pressure": 1021.8, "cloudcover": 0.0, "visibility": 16.0, "solarradiation": 286.8, "solarenergy": 12.4, "uvindex": 6.0, "sunrise": "06:51:49", "sunriseEpoch": 1578408709, "sunset": "16:52:48", "sunsetEpoch": 1578444768, "moonphase": 0.44, "conditions": "Clear", "description": "Clear conditions.", "icon": "snow", "stations": ["KL35", "KPSP", "74718703104", "72286893138", "A0685400115", "72068799999"], "source": "obs", "hours": null}], "stations": {"KL35": {"distance": 57919.0, "latitude": 34.26, "longitude": -116.86, "useCount": 0, "id": "KL35", "name": "KL35", "quality": 100, "contribution": 0.0}, "KPSP": {"distance": 649.0, "latitude": 33.83, "longitude": -116.5, "useCount": 0, "id": "KPSP", "name": "KPSP", "quality": 100, "contribution": 0.0}, "74718703104": {"distance": 39354.0, "latitude": 33.627, "longitude": -116.159, "useCount": 0, "id": "74718703104", "name": "DESERT RESORTS REGIONAL AIRPORT, CA US", "quality": 96, "contribution": 0.0}, "72286893138": {"distance": 880.0, "latitude": 33.822, "longitude": -116.504, "useCount": 0, "id": "72286893138", "name": "PALM SPRINGS ASOS, CA US", "quality": 100, "contribution": 0.0}, "A0685400115": {"distance": 57980.0, "latitude": 34.264, "longitude": -116.854, "useCount": 0, "id": "A0685400115", "name": "BIG BEAR CITY AIRPORT, CA US", "quality": 100, "contribution": 0.0}, "72068799999": {"distance": 48392.0, "latitude": 33.733, "longitude": -117.017, "useCount": 0, "id": "72068799999", "name": "HEMET RYAN, CA US", "quality": 98, "contribution": 0.0}}}