{"queryCost": 1, "latitude": 33.8297004699707, "longitude": -116.50700378417969, "resolvedAddress": "33.8297004699707, -116.50700378417969", "address": "33.8297004699707, -116.50700378417969", "timezone": "America/Los_Angeles", "tzoffset": -8.0, "days": [{"datetime": "2020-01-02", "datetimeEpoch": 1577952000, "tempmax": 23.3, "tempmin": 8.8, "temp": 15.4, "feelslikemax": 23.3, "feelslikemin": 7.7, "feelslike": 15.2, "dew": 0.0, "humidity": 39.87, "precip": 0.0, "precipprob": null, "precipcover": 0.0, "preciptype": null, "snow": 0.0, "snowdepth": 0.0, "windgust": 48.2, "windspeed": 18.4, "winddir": 185.4, "pressure": 1015.0, "cloudcover": 0.0, "visibility": 16.0, "solarradiation": 275.3, "solarenergy": 11.9, "sunrise": "06:51:19", "sunriseEpoch": 1577976679, "sunset": "16:48:46", "sunsetEpoch": 1578012526, "moonphase": 0.22, "conditions": "Clear", "icon": "clear-day", "stations": ["KL35", "KPSP", "74718703104", "72286893138", "A0685400115", "72068799999"], "source": "obs", "hours": null}], "stations": {"KL35": {"distance": 57919.0, "latitude": 34.26, "longitude": -116.86, "useCount": 0, "id": "KL35", "name": "KL35", "quality": 100, "contribution": 0.0}, "KPSP": {"distance": 649.0, "latitude": 33.83, "longitude": -116.5, "useCount": 0, "id": "KPSP", "name": "KPSP", "quality": 100, "contribution": 0.0}, "74718703104": {"distance": 39354.0, "latitude": 33.627, "longitude": -116.159, "useCount": 0, "id": "74718703104", "name": "DESERT RESORTS REGIONAL AIRPORT, CA US", "quality": 96, "contribution": 0.0}, "72286893138": {"distance": 880.0, "latitude": 33.822, "longitude": -116.504, "useCount": 0, "id": "72286893138", "name": "PALM SPRINGS ASOS, CA US", "quality": 100, "contribution": 0.0}, "A0685400115": {"distance": 57980.0, "latitude": 34.264, "longitude": -116.854, "useCount": 0, "id": "A0685400115", "name": "BIG BEAR CITY AIRPORT, CA US", "quality": 100, "contribution": 0.0}, "72068799999": {"distance": 48392.0, "latitude": 33.733, "longitude": -117.017, "useCount": 0, "id": "72068799999", "name": "HEMET RYAN, CA US", "quality": 98, "contribution": 0.0}}}