{"queryCost": 1, "latitude": 38.289100646972656, "longitude": -104.49700164794922, "resolvedAddress": "38.289100646972656, -104.49700164794922", "address": "38.289100646972656, -104.49700164794922", "timezone": "America/Denver", "tzoffset": -7.0, "days": [{"datetime": "2020-01-06", "datetimeEpoch": 1578294000, "tempmax": 11.1, "tempmin": -5.0, "temp": 4.1, "feelslikemax": 11.1, "feelslikemin": -9.5, "feelslike": 0.7, "dew": -14.9, "humidity": 26.95, "precip": 0.0, "precipprob": null, "precipcover": 0.0, "preciptype": null, "snow": 0.0, "snowdepth": 0.0, "windgust": 81.5, "windspeed": 55.4, "winddir": 264.6, "pressure": 1022.9, "cloudcover": 0.0, "visibility": 16.0, "solarradiation": 292.4, "solarenergy": 11.6, "sunrise": "07:15:17", "sunriseEpoch": 1578320117, "sunset": "16:52:23", "sunsetEpoch": 1578354743, "moonphase": 0.4, "conditions": "Clear", "icon": "wind", "stations": ["KPUB", "72466093037", "72464093058", "KFCS", "KCOS"], "source": "obs", "hours": null}], "stations": {"72464093058": {"distance": 787.0, "latitude": 38.289, "longitude": -104.506, "useCount": 0, "id": "72464093058", "name": "PUEBLO MEMORIAL AIRPORT, CO US", "quality": 100, "contribution": 0.0}, "KFCS": {"distance": 49593.0, "latitude": 38.68, "longitude": -104.77, "useCount": 0, "id": "KFCS", "name": "KFCS", "quality": 100, "contribution": 0.0}, "KPUB": {"distance": 2251.0, "latitude": 38.28, "longitude": -104.52, "useCount": 0, "id": "KPUB", "name": "KPUB", "quality": 100, "contribution": 0.0}, "72466093037": {"distance": 60323.0, "latitude": 38.81, "longitude": -104.688, "useCount": 0, "id": "72466093037", "name": "COLORADO SPRINGS MUNICIPAL AIRPORT, CO US", "quality": 100, "contribution": 0.0}, "KCOS": {"distance": 62206.0, "latitude": 38.82, "longitude": -104.72, "useCount": 0, "id": "KCOS", "name": "KCOS", "quality": 100, "contribution": 0.0}}}