{"queryCost": 1, "latitude": 41.732601, "longitude": -71.420403, "resolvedAddress": "41.732601, -71.420403", "address": "41.732601, -71.420403", "timezone": "America/New_York", "tzoffset": -4.0, "days": [{"datetime": "2018-05-25", "datetimeEpoch": 1527220800, "tempmax": 30.6, "tempmin": 10.0, "temp": 20.6, "feelslikemax": 29.3, "feelslikemin": 9.1, "feelslike": 20.3, "dew": 11.2, "humidity": 60.02, "precip": 0.0, "precipprob": null, "precipcover": 0.0, "preciptype": null, "snow": 0.0, "snowdepth": 0.0, "windgust": 50.0, "windspeed": 33.5, "winddir": 232.5, "pressure": 1013.2, "cloudcover": 43.6, "visibility": 16.0, "solarradiation": 448.6, "solarenergy": 25.8, "sunrise": "05:17:34", "sunriseEpoch": 1527239854, "sunset": "20:08:11", "sunsetEpoch": 1527293291, "moonphase": 0.42, "conditions": "Partially cloudy", "icon": "wind", "stations": ["KPVD", "72505464710", "72507914787", "KUUU", "72507014765", "KSFZ"], "source": "obs", "hours": null}], "stations": {"KPVD": {"distance": 848.0, "latitude": 41.73, "longitude": -71.43, "useCount": 0, "id": "KPVD", "name": "KPVD", "quality": 100, "contribution": 0.0}, "72505464710": {"distance": 21734.0, "latitude": 41.921, "longitude": -71.491, "useCount": 0, "id": "72505464710", "name": "NORTH CENTRAL STATE AIRPORT, RI US", "quality": 100, "contribution": 0.0}, "72507914787": {"distance": 24947.0, "latitude": 41.533, "longitude": -71.283, "useCount": 0, "id": "72507914787", "name": "NEWPORT STATE AIRPORT, RI US", "quality": 100, "contribution": 0.0}, "KUUU": {"distance": 25399.0, "latitude": 41.53, "longitude": -71.28, "useCount": 0, "id": "KUUU", "name": "KUUU", "quality": 100, "contribution": 0.0}, "72507014765": {"distance": 1508.0, "latitude": 41.723, "longitude": -71.432, "useCount": 0, "id": "72507014765", "name": "PROVIDENCE, RI US", "quality": 100, "contribution": 0.0}, "KSFZ": {"distance": 21881.0, "latitude": 41.92, "longitude": -71.5, "useCount": 0, "id": "KSFZ", "name": "PAWTUCKET, RI", "quality": 100, "contribution": 0.0}}}