{"queryCost": 1, "latitude": 41.732601, "longitude": -71.420403, "resolvedAddress": "41.732601, -71.420403", "address": "41.732601, -71.420403", "timezone": "America/New_York", "tzoffset": -5.0, "days": [{"datetime": "2020-01-03", "datetimeEpoch": 1578027600, "tempmax": 9.3, "tempmin": 6.2, "temp": 7.7, "feelslikemax": 8.4, "feelslikemin": 3.8, "feelslike": 6.2, "dew": 3.8, "humidity": 76.34, "precip": 0.0, "precipprob": null, "precipcover": 0.0, "preciptype": null, "snow": 0.0, "snowdepth": 0.0, "windgust": 27.7, "windspeed": 18.3, "winddir": 226.7, "pressure": 1008.9, "cloudcover": 83.4, "visibility": 16.0, "solarradiation": 47.5, "solarenergy": 1.7, "sunrise": "07:13:07", "sunriseEpoch": 1578053587, "sunset": "16:27:08", "sunsetEpoch": 1578086828, "moonphase": 0.26, "conditions": "Overcast", "icon": "cloudy", "stations": ["KPVD", "72505464710", "72507914787", "KUUU", "72507014765", "KSFZ"], "source": "obs", "hours": null}], "stations": {"KPVD": {"distance": 848.0, "latitude": 41.73, "longitude": -71.43, "useCount": 0, "id": "KPVD", "name": "KPVD", "quality": 100, "contribution": 0.0}, "72505464710": {"distance": 21734.0, "latitude": 41.921, "longitude": -71.491, "useCount": 0, "id": "72505464710", "name": "NORTH CENTRAL STATE AIRPORT, RI US", "quality": 100, "contribution": 0.0}, "72507914787": {"distance": 24947.0, "latitude": 41.533, "longitude": -71.283, "useCount": 0, "id": "72507914787", "name": "NEWPORT STATE AIRPORT, RI US", "quality": 100, "contribution": 0.0}, "KUUU": {"distance": 25399.0, "latitude": 41.53, "longitude": -71.28, "useCount": 0, "id": "KUUU", "name": "KUUU", "quality": 100, "contribution": 0.0}, "72507014765": {"distance": 1508.0, "latitude": 41.723, "longitude": -71.432, "useCount": 0, "id": "72507014765", "name": "PROVIDENCE, RI US", "quality": 100, "contribution": 0.0}, "KSFZ": {"distance": 21881.0, "latitude": 41.92, "longitude": -71.5, "useCount": 0, "id": "KSFZ", "name": "PAWTUCKET, RI", "quality": 100, "contribution": 0.0}}}