{"queryCost": 1, "latitude": 41.732601, "longitude": -71.420403, "resolvedAddress": "41.732601, -71.420403", "address": "41.732601, -71.420403", "timezone": "America/New_York", "tzoffset": -4.0, "days": [{"datetime": "2019-06-12", "datetimeEpoch": 1560312000, "tempmax": 23.3, "tempmin": 11.7, "temp": 18.2, "feelslikemax": 23.3, "feelslikemin": 11.7, "feelslike": 18.2, "dew": 8.8, "humidity": 55.32, "precip": 0.0, "precipprob": null, "precipcover": 0.0, "preciptype": null, "snow": 0.0, "snowdepth": 0.0, "windgust": 35.3, "windspeed": 22.3, "winddir": 207.5, "pressure": 1020.8, "cloudcover": 32.2, "visibility": 16.0, "solarradiation": 424.4, "solarenergy": 24.4, "sunrise": "05:10:38", "sunriseEpoch": 1560330638, "sunset": "20:20:38", "sunsetEpoch": 1560385238, "moonphase": 0.37, "conditions": "Partially cloudy", "icon": "partly-cloudy-day", "stations": ["KPVD", "72505464710", "72507914787", "KUUU", "72507014765", "KSFZ"], "source": "obs", "hours": null}], "stations": {"KPVD": {"distance": 848.0, "latitude": 41.73, "longitude": -71.43, "useCount": 0, "id": "KPVD", "name": "KPVD", "quality": 100, "contribution": 0.0}, "72505464710": {"distance": 21734.0, "latitude": 41.921, "longitude": -71.491, "useCount": 0, "id": "72505464710", "name": "NORTH CENTRAL STATE AIRPORT, RI US", "quality": 100, "contribution": 0.0}, "72507914787": {"distance": 24947.0, "latitude": 41.533, "longitude": -71.283, "useCount": 0, "id": "72507914787", "name": "NEWPORT STATE AIRPORT, RI US", "quality": 100, "contribution": 0.0}, "KUUU": {"distance": 25399.0, "latitude": 41.53, "longitude": -71.28, "useCount": 0, "id": "KUUU", "name": "KUUU", "quality": 100, "contribution": 0.0}, "72507014765": {"distance": 1508.0, "latitude": 41.723, "longitude": -71.432, "useCount": 0, "id": "72507014765", "name": "PROVIDENCE, RI US", "quality": 100, "contribution": 0.0}, "KSFZ": {"distance": 21881.0, "latitude": 41.92, "longitude": -71.5, "useCount": 0, "id": "KSFZ", "name": "PAWTUCKET, RI", "quality": 100, "contribution": 0.0}}}