{"queryCost": 1, "latitude": 41.732601, "longitude": -71.420403, "resolvedAddress": "41.732601, -71.420403", "address": "41.732601, -71.420403", "timezone": "America/New_York", "tzoffset": -4.0, "days": [{"datetime": "2018-05-09", "datetimeEpoch": 1525838400, "tempmax": 21.1, "tempmin": 8.3, "temp": 14.6, "feelslikemax": 21.1, "feelslikemin": 8.3, "feelslike": 14.5, "dew": 10.1, "humidity": 78.66, "precip": 0.0, "precipprob": null, "precipcover": 0.0, "preciptype": null, "snow": 0.0, "snowdepth": 0.0, "windgust": null, "windspeed": 20.5, "winddir": 111.4, "pressure": 1021.5, "cloudcover": 58.4, "visibility": 10.1, "solarradiation": 447.7, "solarenergy": 24.2, "sunrise": "05:32:20", "sunriseEpoch": 1525858340, "sunset": "19:52:33", "sunsetEpoch": 1525909953, "moonphase": 0.82, "conditions": "Partially cloudy", "icon": "partly-cloudy-day", "stations": ["KPVD", "72506854777", "72506594726", "99999954796", "72505464710", "99999954797", "72507914787", "KUUU", "72507014765", "KSFZ"], "source": "obs", "hours": null}], "stations": {"KPVD": {"distance": 848.0, "latitude": 41.73, "longitude": -71.43, "useCount": 0, "id": "KPVD", "name": "KPVD", "quality": 100, "contribution": 0.0}, "72506854777": {"distance": 36760.0, "latitude": 41.876, "longitude": -71.021, "useCount": 0, "id": "72506854777", "name": "TAUNTON MUNICIPAL AIRPORT, MA US", "quality": 100, "contribution": 0.0}, "72506594726": {"distance": 38911.0, "latitude": 41.676, "longitude": -70.958, "useCount": 0, "id": "72506594726", "name": "NEW BEDFORD MUNICIPAL AIRPORT, MA US", "quality": 100, "contribution": 0.0}, "99999954796": {"distance": 28705.0, "latitude": 41.491, "longitude": -71.541, "useCount": 0, "id": "99999954796", "name": "KINGSTON 1 NW, RI US", "quality": 100, "contribution": 0.0}, "72505464710": {"distance": 21734.0, "latitude": 41.921, "longitude": -71.491, "useCount": 0, "id": "72505464710", "name": "NORTH CENTRAL STATE AIRPORT, RI US", "quality": 100, "contribution": 0.0}, "99999954797": {"distance": 30066.0, "latitude": 41.478, "longitude": -71.542, "useCount": 0, "id": "99999954797", "name": "KINGSTON 1 W, RI US", "quality": 100, "contribution": 0.0}, "72507914787": {"distance": 24947.0, "latitude": 41.533, "longitude": -71.283, "useCount": 0, "id": "72507914787", "name": "NEWPORT STATE AIRPORT, RI US", "quality": 100, "contribution": 0.0}, "KUUU": {"distance": 25399.0, "latitude": 41.53, "longitude": -71.28, "useCount": 0, "id": "KUUU", "name": "KUUU", "quality": 100, "contribution": 0.0}, "72507014765": {"distance": 1508.0, "latitude": 41.723, "longitude": -71.432, "useCount": 0, "id": "72507014765", "name": "PROVIDENCE, RI US", "quality": 100, "contribution": 0.0}, "KSFZ": {"distance": 21881.0, "latitude": 41.92, "longitude": -71.5, "useCount": 0, "id": "KSFZ", "name": "PAWTUCKET, RI", "quality": 100, "contribution": 0.0}}}