{"queryCost": 1, "latitude": 41.732601, "longitude": -71.420403, "resolvedAddress": "41.732601, -71.420403", "address": "41.732601, -71.420403", "timezone": "America/New_York", "tzoffset": -4.0, "days": [{"datetime": "2019-08-11", "datetimeEpoch": 1565496000, "tempmax": 27.2, "tempmin": 13.8, "temp": 20.9, "feelslikemax": 27.0, "feelslikemin": 13.8, "feelslike": 20.8, "dew": 12.0, "humidity": 59.07, "precip": 0.0, "precipprob": null, "precipcover": 0.0, "preciptype": null, "snow": 0.0, "snowdepth": 0.0, "windgust": 37.1, "windspeed": 25.9, "winddir": 284.6, "pressure": 1014.1, "cloudcover": 23.5, "visibility": 16.0, "solarradiation": 357.0, "solarenergy": 19.3, "sunrise": "05:49:39", "sunriseEpoch": 1565516979, "sunset": "19:51:28", "sunsetEpoch": 1565567488, "moonphase": 0.43, "conditions": "Clear", "icon": "clear-day", "stations": ["KPVD", "72505464710", "72507914787", "KUUU", "72507014765", "KSFZ"], "source": "obs", "hours": null}], "stations": {"KPVD": {"distance": 848.0, "latitude": 41.73, "longitude": -71.43, "useCount": 0, "id": "KPVD", "name": "KPVD", "quality": 100, "contribution": 0.0}, "72505464710": {"distance": 21734.0, "latitude": 41.921, "longitude": -71.491, "useCount": 0, "id": "72505464710", "name": "NORTH CENTRAL STATE AIRPORT, RI US", "quality": 100, "contribution": 0.0}, "72507914787": {"distance": 24947.0, "latitude": 41.533, "longitude": -71.283, "useCount": 0, "id": "72507914787", "name": "NEWPORT STATE AIRPORT, RI US", "quality": 100, "contribution": 0.0}, "KUUU": {"distance": 25399.0, "latitude": 41.53, "longitude": -71.28, "useCount": 0, "id": "KUUU", "name": "KUUU", "quality": 100, "contribution": 0.0}, "72507014765": {"distance": 1508.0, "latitude": 41.723, "longitude": -71.432, "useCount": 0, "id": "72507014765", "name": "PROVIDENCE, RI US", "quality": 100, "contribution": 0.0}, "KSFZ": {"distance": 21881.0, "latitude": 41.92, "longitude": -71.5, "useCount": 0, "id": "KSFZ", "name": "PAWTUCKET, RI", "quality": 100, "contribution": 0.0}}}