{"queryCost": 1, "latitude": 41.732601, "longitude": -71.420403, "resolvedAddress": "41.732601, -71.420403", "address": "41.732601, -71.420403", "timezone": "America/New_York", "tzoffset": -5.0, "days": [{"datetime": "2019-03-05", "datetimeEpoch": 1551762000, "tempmax": -1.2, "tempmin": -8.3, "temp": -5.1, "feelslikemax": -3.9, "feelslikemin": -14.5, "feelslike": -10.1, "dew": -13.8, "humidity": 51.28, "precip": 0.0, "precipprob": null, "precipcover": 0.0, "preciptype": null, "snow": 0.0, "snowdepth": 13.24, "windgust": 40.7, "windspeed": 22.3, "winddir": 264.9, "pressure": 1015.5, "cloudcover": 13.5, "visibility": 16.0, "solarradiation": 259.3, "solarenergy": 12.1, "sunrise": "06:14:26", "sunriseEpoch": 1551784466, "sunset": "17:40:34", "sunsetEpoch": 1551825634, "moonphase": 1.0, "conditions": "Clear", "icon": "clear-day", "stations": ["KPVD", "72505464710", "72507914787", "KUUU", "72507014765", "KSFZ"], "source": "obs", "hours": null}], "stations": {"KPVD": {"distance": 848.0, "latitude": 41.73, "longitude": -71.43, "useCount": 0, "id": "KPVD", "name": "KPVD", "quality": 100, "contribution": 0.0}, "72505464710": {"distance": 21734.0, "latitude": 41.921, "longitude": -71.491, "useCount": 0, "id": "72505464710", "name": "NORTH CENTRAL STATE AIRPORT, RI US", "quality": 100, "contribution": 0.0}, "72507914787": {"distance": 24947.0, "latitude": 41.533, "longitude": -71.283, "useCount": 0, "id": "72507914787", "name": "NEWPORT STATE AIRPORT, RI US", "quality": 100, "contribution": 0.0}, "KUUU": {"distance": 25399.0, "latitude": 41.53, "longitude": -71.28, "useCount": 0, "id": "KUUU", "name": "KUUU", "quality": 100, "contribution": 0.0}, "72507014765": {"distance": 1508.0, "latitude": 41.723, "longitude": -71.432, "useCount": 0, "id": "72507014765", "name": "PROVIDENCE, RI US", "quality": 100, "contribution": 0.0}, "KSFZ": {"distance": 21881.0, "latitude": 41.92, "longitude": -71.5, "useCount": 0, "id": "KSFZ", "name": "PAWTUCKET, RI", "quality": 100, "contribution": 0.0}}}