{"queryCost": 1, "latitude": 43.646198, "longitude": -70.309303, "resolvedAddress": "43.646198, -70.309303", "address": "43.646198, -70.309303", "timezone": "America/New_York", "tzoffset": -5.0, "days": [{"datetime": "2020-01-02", "datetimeEpoch": 1577941200, "tempmax": 4.3, "tempmin": -1.2, "temp": 1.6, "feelslikemax": 3.3, "feelslikemin": -4.8, "feelslike": -1.1, "dew": -4.7, "humidity": 63.33, "precip": 0.0, "precipprob": null, "precipcover": 0.0, "preciptype": null, "snow": 0.0, "snowdepth": 25.05, "windgust": null, "windspeed": 14.8, "winddir": 220.8, "pressure": 1008.7, "cloudcover": 38.8, "visibility": 16.0, "solarradiation": 100.0, "solarenergy": 3.6, "sunrise": "07:14:54", "sunriseEpoch": 1577967294, "sunset": "16:15:31", "sunsetEpoch": 1577999731, "moonphase": 0.22, "conditions": "Partially cloudy", "icon": "partly-cloudy-day", "stations": ["KLEW", "72606014764", "KPWM", "72618494709", "KSFM", "72606464709"], "source": "obs", "hours": null}], "stations": {"KLEW": {"distance": 45013.0, "latitude": 44.05, "longitude": -70.28, "useCount": 0, "id": "KLEW", "name": "AUBURN-LEWISTON, ME", "quality": 100, "contribution": 0.0}, "72606014764": {"distance": 595.0, "latitude": 43.642, "longitude": -70.304, "useCount": 0, "id": "72606014764", "name": "PORTLAND JETPORT, ME US", "quality": 100, "contribution": 0.0}, "KPWM": {"distance": 427.0, "latitude": 43.65, "longitude": -70.31, "useCount": 0, "id": "KPWM", "name": "KPWM", "quality": 100, "contribution": 0.0}, "72618494709": {"distance": 44999.0, "latitude": 44.05, "longitude": -70.283, "useCount": 0, "id": "72618494709", "name": "AUBURN LEWISTON, ME US", "quality": 100, "contribution": 0.0}, "KSFM": {"distance": 43012.0, "latitude": 43.4, "longitude": -70.72, "useCount": 0, "id": "KSFM", "name": "SANFORD, ME", "quality": 100, "contribution": 0.0}, "72606464709": {"distance": 42725.0, "latitude": 43.394, "longitude": -70.708, "useCount": 0, "id": "72606464709", "name": "SANFORD REGIONAL AIRPORT, ME US", "quality": 100, "contribution": 0.0}}}