{"queryCost": 1, "latitude": 44.0452995300293, "longitude": -103.05699920654297, "resolvedAddress": "44.0452995300293, -103.05699920654297", "address": "44.0452995300293, -103.05699920654297", "timezone": "America/Denver", "tzoffset": -7.0, "days": [{"datetime": "2020-01-05", "datetimeEpoch": 1578207600, "tempmax": 5.0, "tempmin": -3.3, "temp": 0.8, "feelslikemax": 3.3, "feelslikemin": -7.3, "feelslike": -3.6, "dew": -9.7, "humidity": 47.31, "precip": 0.0, "precipprob": null, "precipcover": 0.0, "preciptype": null, "snow": 0.0, "snowdepth": 0.0, "windgust": 68.4, "windspeed": 44.6, "winddir": 280.9, "pressure": 1023.9, "cloudcover": 12.9, "visibility": 16.0, "solarradiation": 193.2, "solarenergy": 7.0, "sunrise": "07:27:10", "sunriseEpoch": 1578234430, "sunset": "16:28:06", "sunsetEpoch": 1578266886, "moonphase": 0.36, "conditions": "Clear", "icon": "wind", "stations": ["KCUT", "KRAP", "KRCA", "72651494032", "72662524006", "72662024090"], "source": "obs", "hours": null}], "stations": {"KCUT": {"distance": 57202.0, "latitude": 43.73, "longitude": -103.62, "useCount": 0, "id": "KCUT", "name": "KCUT", "quality": 100, "contribution": 0.0}, "KRAP": {"distance": 576.0, "latitude": 44.05, "longitude": -103.06, "useCount": 0, "id": "KRAP", "name": "KRAP", "quality": 100, "contribution": 0.0}, "KRCA": {"distance": 12152.0, "latitude": 44.15, "longitude": -103.1, "useCount": 0, "id": "KRCA", "name": "KRCA", "quality": 100, "contribution": 0.0}, "72651494032": {"distance": 56420.0, "latitude": 43.733, "longitude": -103.611, "useCount": 0, "id": "72651494032", "name": "CUSTER CO AIRPORT, SD US", "quality": 100, "contribution": 0.0}, "72662524006": {"distance": 12152.0, "latitude": 44.15, "longitude": -103.1, "useCount": 0, "id": "72662524006", "name": "ELLSWORTH AFB, SD US", "quality": 100, "contribution": 0.0}, "72662024090": {"distance": 246.0, "latitude": 44.046, "longitude": -103.054, "useCount": 0, "id": "72662024090", "name": "RAPID CITY REGIONAL AIRPORT, SD US", "quality": 100, "contribution": 0.0}}}