{"queryCost": 1, "latitude": 44.0452995300293, "longitude": -103.05699920654297, "resolvedAddress": "44.0452995300293, -103.05699920654297", "address": "44.0452995300293, -103.05699920654297", "timezone": "America/Denver", "tzoffset": -6.0, "days": [{"datetime": "2018-06-30", "datetimeEpoch": 1530338400, "tempmax": 21.1, "tempmin": 13.4, "temp": 16.4, "feelslikemax": 21.1, "feelslikemin": 13.4, "feelslike": 16.4, "dew": 12.3, "humidity": 77.72, "precip": 2.82, "precipprob": null, "precipcover": 37.5, "preciptype": null, "snow": 0.0, "snowdepth": 0.0, "windgust": 50.0, "windspeed": 33.5, "winddir": 260.0, "pressure": 1014.4, "cloudcover": 55.7, "visibility": 15.6, "solarradiation": 277.1, "solarenergy": 15.0, "sunrise": "05:12:39", "sunriseEpoch": 1530357159, "sunset": "20:39:03", "sunsetEpoch": 1530412743, "moonphase": 0.53, "conditions": "Rain, Partially cloudy", "icon": "rain", "stations": ["KCUT", "KRAP", "KRCA", "72651494032", "72662524006", "72662024090"], "source": "obs", "hours": null}], "stations": {"KCUT": {"distance": 57202.0, "latitude": 43.73, "longitude": -103.62, "useCount": 0, "id": "KCUT", "name": "KCUT", "quality": 100, "contribution": 0.0}, "KRAP": {"distance": 576.0, "latitude": 44.05, "longitude": -103.06, "useCount": 0, "id": "KRAP", "name": "KRAP", "quality": 100, "contribution": 0.0}, "KRCA": {"distance": 12152.0, "latitude": 44.15, "longitude": -103.1, "useCount": 0, "id": "KRCA", "name": "KRCA", "quality": 100, "contribution": 0.0}, "72651494032": {"distance": 56420.0, "latitude": 43.733, "longitude": -103.611, "useCount": 0, "id": "72651494032", "name": "CUSTER CO AIRPORT, SD US", "quality": 100, "contribution": 0.0}, "72662524006": {"distance": 12152.0, "latitude": 44.15, "longitude": -103.1, "useCount": 0, "id": "72662524006", "name": "ELLSWORTH AFB, SD US", "quality": 100, "contribution": 0.0}, "72662024090": {"distance": 246.0, "latitude": 44.046, "longitude": -103.054, "useCount": 0, "id": "72662024090", "name": "RAPID CITY REGIONAL AIRPORT, SD US", "quality": 100, "contribution": 0.0}}}