{"queryCost": 1, "latitude": 40.50899887, "longitude": -122.2929993, "resolvedAddress": "40.50899887, -122.2929993", "address": "40.50899887, -122.2929993", "timezone": "America/Los_Angeles", "tzoffset": -8.0, "days": [{"datetime": "2020-01-02", "datetimeEpoch": 1577952000, "tempmax": 19.3, "tempmin": 1.2, "temp": 8.9, "feelslikemax": 19.3, "feelslikemin": -0.4, "feelslike": 8.3, "dew": 2.0, "humidity": 67.48, "precip": 0.0, "precipprob": null, "precipcover": 0.0, "preciptype": null, "snow": 0.0, "snowdepth": 0.0, "windgust": null, "windspeed": 11.2, "winddir": 263.8, "pressure": 1020.5, "cloudcover": 0.0, "visibility": 12.4, "solarradiation": 210.1, "solarenergy": 8.3, "sunrise": "07:32:46", "sunriseEpoch": 1577979166, "sunset": "16:53:39", "sunsetEpoch": 1578012819, "moonphase": 0.22, "conditions": "Clear", "icon": "clear-day", "stations": ["KRBL", "72592024257", "KRDD", "99999904222", "72591024216"], "source": "obs", "hours": null}], "stations": {"KRBL": {"distance": 40130.0, "latitude": 40.15, "longitude": -122.25, "useCount": 0, "id": "KRBL", "name": "KRBL", "quality": 100, "contribution": 0.0}, "72592024257": {"distance": 1074.0, "latitude": 40.518, "longitude": -122.299, "useCount": 0, "id": "72592024257", "name": "REDDING MUNICIPAL AIRPORT, CA US", "quality": 100, "contribution": 0.0}, "KRDD": {"distance": 1164.0, "latitude": 40.5, "longitude": -122.3, "useCount": 0, "id": "KRDD", "name": "KRDD", "quality": 100, "contribution": 0.0}, "72591024216": {"distance": 39890.0, "latitude": 40.152, "longitude": -122.254, "useCount": 0, "id": "72591024216", "name": "RED BLUFF MUNICIPAL AIRPORT, CA US", "quality": 100, "contribution": 0.0}, "99999904222": {"distance": 30881.0, "latitude": 40.651, "longitude": -122.607, "useCount": 0, "id": "99999904222", "name": "REDDING 12 WNW, CA US", "quality": 100, "contribution": 0.0}}}