{"queryCost": 1, "latitude": 35.877601623535156, "longitude": -78.7874984741211, "resolvedAddress": "35.877601623535156, -78.7874984741211", "address": "35.877601623535156, -78.7874984741211", "timezone": "America/New_York", "tzoffset": -4.0, "days": [{"datetime": "2018-05-12", "datetimeEpoch": 1526097600, "tempmax": 32.8, "tempmin": 20.6, "temp": 26.6, "feelslikemax": 34.9, "feelslikemin": 20.6, "feelslike": 27.3, "dew": 18.2, "humidity": 61.36, "precip": 0.0, "precipprob": null, "precipcover": 0.0, "preciptype": null, "snow": 0.0, "snowdepth": 0.0, "windgust": null, "windspeed": 16.5, "winddir": 223.0, "pressure": 1018.0, "cloudcover": 50.4, "visibility": 16.0, "solarradiation": null, "solarenergy": null, "sunrise": "06:12:06", "sunriseEpoch": 1526119926, "sunset": "20:11:24", "sunsetEpoch": 1526170284, "moonphase": 0.95, "conditions": "Partially cloudy", "icon": "partly-cloudy-day", "stations": ["KLHZ", "KTTA", "72306013722", "KRDU", "99999903758", "72220103723"], "source": "obs", "hours": null}], "stations": {"KLHZ": {"distance": 44171.0, "latitude": 36.02, "longitude": -78.33, "useCount": 0, "id": "KLHZ", "name": "KLHZ", "quality": 99, "contribution": 0.0}, "KTTA": {"distance": 42951.0, "latitude": 35.58, "longitude": -79.09, "useCount": 0, "id": "KTTA", "name": "KTTA", "quality": 98, "contribution": 0.0}, "72306013722": {"distance": 1712.0, "latitude": 35.892, "longitude": -78.782, "useCount": 0, "id": "72306013722", "name": "RALEIGH AIRPORT, NC US", "quality": 100, "contribution": 0.0}, "KRDU": {"distance": 2073.0, "latitude": 35.86, "longitude": -78.78, "useCount": 0, "id": "KRDU", "name": "KRDU", "quality": 100, "contribution": 0.0}, "99999903758": {"distance": 29426.0, "latitude": 35.971, "longitude": -79.093, "useCount": 0, "id": "99999903758", "name": "DURHAM 11 W, NC US", "quality": 100, "contribution": 0.0}, "72220103723": {"distance": 43410.0, "latitude": 35.582, "longitude": -79.101, "useCount": 0, "id": "72220103723", "name": "SANFORD LEE CO REGIONAL AIRPORT, NC US", "quality": 98, "contribution": 0.0}}}