{"queryCost": 1, "latitude": 35.877601623535156, "longitude": -78.7874984741211, "resolvedAddress": "35.877601623535156, -78.7874984741211", "address": "35.877601623535156, -78.7874984741211", "timezone": "America/New_York", "tzoffset": -5.0, "days": [{"datetime": "2018-12-10", "datetimeEpoch": 1544418000, "tempmax": 1.2, "tempmin": -1.1, "temp": 0.3, "feelslikemax": 0.7, "feelslikemin": -6.1, "feelslike": -3.4, "dew": -1.8, "humidity": 86.0, "precip": 18.05, "precipprob": null, "precipcover": 54.17, "preciptype": null, "snow": 1.17, "snowdepth": 5.0, "windgust": 37.1, "windspeed": 22.3, "winddir": 65.5, "pressure": 1018.4, "cloudcover": 92.6, "visibility": 10.2, "solarradiation": null, "solarenergy": null, "sunrise": "07:14:37", "sunriseEpoch": 1544444077, "sunset": "17:01:19", "sunsetEpoch": 1544479279, "moonphase": 0.05, "conditions": "Snow, Overcast", "icon": "snow", "stations": ["KLHZ", "KTTA", "72306013722", "KRDU", "99999903758", "72220103723"], "source": "obs", "hours": null}], "stations": {"KLHZ": {"distance": 44171.0, "latitude": 36.02, "longitude": -78.33, "useCount": 0, "id": "KLHZ", "name": "KLHZ", "quality": 99, "contribution": 0.0}, "KTTA": {"distance": 42951.0, "latitude": 35.58, "longitude": -79.09, "useCount": 0, "id": "KTTA", "name": "KTTA", "quality": 98, "contribution": 0.0}, "72306013722": {"distance": 1712.0, "latitude": 35.892, "longitude": -78.782, "useCount": 0, "id": "72306013722", "name": "RALEIGH AIRPORT, NC US", "quality": 100, "contribution": 0.0}, "KRDU": {"distance": 2073.0, "latitude": 35.86, "longitude": -78.78, "useCount": 0, "id": "KRDU", "name": "KRDU", "quality": 100, "contribution": 0.0}, "99999903758": {"distance": 29426.0, "latitude": 35.971, "longitude": -79.093, "useCount": 0, "id": "99999903758", "name": "DURHAM 11 W, NC US", "quality": 100, "contribution": 0.0}, "72220103723": {"distance": 43410.0, "latitude": 35.582, "longitude": -79.101, "useCount": 0, "id": "72220103723", "name": "SANFORD LEE CO REGIONAL AIRPORT, NC US", "quality": 98, "contribution": 0.0}}}