{"queryCost": 1, "latitude": 35.877601623535156, "longitude": -78.7874984741211, "resolvedAddress": "35.877601623535156, -78.7874984741211", "address": "35.877601623535156, -78.7874984741211", "timezone": "America/New_York", "tzoffset": -4.0, "days": [{"datetime": "2019-05-17", "datetimeEpoch": 1558065600, "tempmax": 29.4, "tempmin": 15.0, "temp": 22.2, "feelslikemax": 29.9, "feelslikemin": 15.0, "feelslike": 22.5, "dew": 16.4, "humidity": 71.58, "precip": 0.0, "precipprob": null, "precipcover": 0.0, "preciptype": null, "snow": 0.0, "snowdepth": 0.0, "windgust": 40.6, "windspeed": 25.9, "winddir": 269.2, "pressure": 1012.9, "cloudcover": 66.2, "visibility": 15.4, "solarradiation": 265.6, "solarenergy": 14.3, "sunrise": "06:08:19", "sunriseEpoch": 1558087699, "sunset": "20:15:14", "sunsetEpoch": 1558138514, "moonphase": 0.49, "conditions": "Partially cloudy", "icon": "partly-cloudy-day", "stations": ["KLHZ", "KTTA", "72306013722", "KRDU", "99999903758"], "source": "obs", "hours": null}], "stations": {"KLHZ": {"distance": 44171.0, "latitude": 36.02, "longitude": -78.33, "useCount": 0, "id": "KLHZ", "name": "KLHZ", "quality": 99, "contribution": 0.0}, "72306013722": {"distance": 1712.0, "latitude": 35.892, "longitude": -78.782, "useCount": 0, "id": "72306013722", "name": "RALEIGH AIRPORT, NC US", "quality": 100, "contribution": 0.0}, "KRDU": {"distance": 2073.0, "latitude": 35.86, "longitude": -78.78, "useCount": 0, "id": "KRDU", "name": "KRDU", "quality": 100, "contribution": 0.0}, "KTTA": {"distance": 42951.0, "latitude": 35.58, "longitude": -79.09, "useCount": 0, "id": "KTTA", "name": "KTTA", "quality": 98, "contribution": 0.0}, "99999903758": {"distance": 29426.0, "latitude": 35.971, "longitude": -79.093, "useCount": 0, "id": "99999903758", "name": "DURHAM 11 W, NC US", "quality": 100, "contribution": 0.0}}}