{"queryCost": 1, "latitude": 35.877601623535156, "longitude": -78.7874984741211, "resolvedAddress": "35.877601623535156, -78.7874984741211", "address": "35.877601623535156, -78.7874984741211", "timezone": "America/New_York", "tzoffset": -5.0, "days": [{"datetime": "2019-12-29", "datetimeEpoch": 1577595600, "tempmax": 22.8, "tempmin": 13.8, "temp": 18.0, "feelslikemax": 22.8, "feelslikemin": 13.8, "feelslike": 18.0, "dew": 15.4, "humidity": 85.28, "precip": 2.36, "precipprob": null, "precipcover": 33.33, "preciptype": null, "snow": 0.0, "snowdepth": 0.0, "windgust": 46.2, "windspeed": 25.9, "winddir": 161.3, "pressure": 1017.3, "cloudcover": 84.8, "visibility": 14.5, "solarradiation": 94.5, "solarenergy": 3.7, "sunrise": "07:24:47", "sunriseEpoch": 1577622287, "sunset": "17:09:36", "sunsetEpoch": 1577657376, "moonphase": 0.05, "conditions": "Rain, Overcast", "icon": "rain", "stations": ["KLHZ", "KTTA", "72306013722", "KRDU", "99999903758", "72220103723"], "source": "obs", "hours": null}], "stations": {"KLHZ": {"distance": 44171.0, "latitude": 36.02, "longitude": -78.33, "useCount": 0, "id": "KLHZ", "name": "KLHZ", "quality": 99, "contribution": 0.0}, "KTTA": {"distance": 42951.0, "latitude": 35.58, "longitude": -79.09, "useCount": 0, "id": "KTTA", "name": "KTTA", "quality": 98, "contribution": 0.0}, "72306013722": {"distance": 1712.0, "latitude": 35.892, "longitude": -78.782, "useCount": 0, "id": "72306013722", "name": "RALEIGH AIRPORT, NC US", "quality": 100, "contribution": 0.0}, "KRDU": {"distance": 2073.0, "latitude": 35.86, "longitude": -78.78, "useCount": 0, "id": "KRDU", "name": "KRDU", "quality": 100, "contribution": 0.0}, "99999903758": {"distance": 29426.0, "latitude": 35.971, "longitude": -79.093, "useCount": 0, "id": "99999903758", "name": "DURHAM 11 W, NC US", "quality": 100, "contribution": 0.0}, "72220103723": {"distance": 43410.0, "latitude": 35.582, "longitude": -79.101, "useCount": 0, "id": "72220103723", "name": "SANFORD LEE CO REGIONAL AIRPORT, NC US", "quality": 98, "contribution": 0.0}}}