{"queryCost": 1, "latitude": 35.877601623535156, "longitude": -78.7874984741211, "resolvedAddress": "35.877601623535156, -78.7874984741211", "address": "35.877601623535156, -78.7874984741211", "timezone": "America/New_York", "tzoffset": -4.0, "days": [{"datetime": "2019-06-18", "datetimeEpoch": 1560830400, "tempmax": 32.2, "tempmin": 22.8, "temp": 27.0, "feelslikemax": 35.1, "feelslikemin": 22.8, "feelslike": 28.2, "dew": 21.0, "humidity": 71.56, "precip": 0.0, "precipprob": null, "precipcover": 0.0, "preciptype": null, "snow": 0.0, "snowdepth": 0.0, "windgust": 33.5, "windspeed": 25.9, "winddir": 200.0, "pressure": 1015.1, "cloudcover": 70.9, "visibility": 16.0, "solarradiation": 359.7, "solarenergy": 19.4, "sunrise": "05:58:36", "sunriseEpoch": 1560851916, "sunset": "20:34:02", "sunsetEpoch": 1560904442, "moonphase": 0.51, "conditions": "Partially cloudy", "icon": "partly-cloudy-day", "stations": ["KLHZ", "KTTA", "72306013722", "KRDU", "99999903758"], "source": "obs", "hours": null}], "stations": {"KLHZ": {"distance": 44171.0, "latitude": 36.02, "longitude": -78.33, "useCount": 0, "id": "KLHZ", "name": "KLHZ", "quality": 99, "contribution": 0.0}, "72306013722": {"distance": 1712.0, "latitude": 35.892, "longitude": -78.782, "useCount": 0, "id": "72306013722", "name": "RALEIGH AIRPORT, NC US", "quality": 100, "contribution": 0.0}, "KRDU": {"distance": 2073.0, "latitude": 35.86, "longitude": -78.78, "useCount": 0, "id": "KRDU", "name": "KRDU", "quality": 100, "contribution": 0.0}, "KTTA": {"distance": 42951.0, "latitude": 35.58, "longitude": -79.09, "useCount": 0, "id": "KTTA", "name": "KTTA", "quality": 98, "contribution": 0.0}, "99999903758": {"distance": 29426.0, "latitude": 35.971, "longitude": -79.093, "useCount": 0, "id": "99999903758", "name": "DURHAM 11 W, NC US", "quality": 100, "contribution": 0.0}}}