{"queryCost": 1, "latitude": 35.877601623535156, "longitude": -78.7874984741211, "resolvedAddress": "35.877601623535156, -78.7874984741211", "address": "35.877601623535156, -78.7874984741211", "timezone": "America/New_York", "tzoffset": -4.0, "days": [{"datetime": "2019-06-08", "datetimeEpoch": 1559966400, "tempmax": 25.6, "tempmin": 21.7, "temp": 23.1, "feelslikemax": 25.6, "feelslikemin": 21.7, "feelslike": 23.1, "dew": 21.5, "humidity": 90.75, "precip": 11.74, "precipprob": null, "precipcover": 41.67, "preciptype": null, "snow": 0.0, "snowdepth": 0.0, "windgust": 31.7, "windspeed": 24.1, "winddir": 87.5, "pressure": 1013.3, "cloudcover": 87.5, "visibility": 12.5, "solarradiation": 178.6, "solarenergy": 9.6, "sunrise": "05:58:35", "sunriseEpoch": 1559987915, "sunset": "20:30:02", "sunsetEpoch": 1560040202, "moonphase": 0.15, "conditions": "Rain, Overcast", "icon": "rain", "stations": ["KLHZ", "KTTA", "72306013722", "KRDU", "99999903758"], "source": "obs", "hours": null}], "stations": {"KLHZ": {"distance": 44171.0, "latitude": 36.02, "longitude": -78.33, "useCount": 0, "id": "KLHZ", "name": "KLHZ", "quality": 99, "contribution": 0.0}, "72306013722": {"distance": 1712.0, "latitude": 35.892, "longitude": -78.782, "useCount": 0, "id": "72306013722", "name": "RALEIGH AIRPORT, NC US", "quality": 100, "contribution": 0.0}, "KRDU": {"distance": 2073.0, "latitude": 35.86, "longitude": -78.78, "useCount": 0, "id": "KRDU", "name": "KRDU", "quality": 100, "contribution": 0.0}, "KTTA": {"distance": 42951.0, "latitude": 35.58, "longitude": -79.09, "useCount": 0, "id": "KTTA", "name": "KTTA", "quality": 98, "contribution": 0.0}, "99999903758": {"distance": 29426.0, "latitude": 35.971, "longitude": -79.093, "useCount": 0, "id": "99999903758", "name": "DURHAM 11 W, NC US", "quality": 100, "contribution": 0.0}}}