{"queryCost": 1, "latitude": 35.877601623535156, "longitude": -78.7874984741211, "resolvedAddress": "35.877601623535156, -78.7874984741211", "address": "35.877601623535156, -78.7874984741211", "timezone": "America/New_York", "tzoffset": -4.0, "days": [{"datetime": "2019-09-05", "datetimeEpoch": 1567656000, "tempmax": 26.1, "tempmin": 22.2, "temp": 23.8, "feelslikemax": 26.1, "feelslikemin": 22.2, "feelslike": 23.8, "dew": 22.3, "humidity": 91.26, "precip": 21.93, "precipprob": null, "precipcover": 50.0, "preciptype": null, "snow": 0.0, "snowdepth": 0.0, "windgust": 47.3, "windspeed": 31.7, "winddir": 43.8, "pressure": 1010.8, "cloudcover": 81.4, "visibility": 11.9, "solarradiation": 48.6, "solarenergy": 2.4, "sunrise": "06:49:51", "sunriseEpoch": 1567680591, "sunset": "19:37:21", "sunsetEpoch": 1567726641, "moonphase": 0.22, "conditions": "Rain, Overcast", "icon": "rain", "stations": ["KLHZ", "KTTA", "72306013722", "KRDU", "99999903758", "72220103723"], "source": "obs", "hours": null}], "stations": {"KLHZ": {"distance": 44171.0, "latitude": 36.02, "longitude": -78.33, "useCount": 0, "id": "KLHZ", "name": "KLHZ", "quality": 99, "contribution": 0.0}, "KTTA": {"distance": 42951.0, "latitude": 35.58, "longitude": -79.09, "useCount": 0, "id": "KTTA", "name": "KTTA", "quality": 98, "contribution": 0.0}, "72306013722": {"distance": 1712.0, "latitude": 35.892, "longitude": -78.782, "useCount": 0, "id": "72306013722", "name": "RALEIGH AIRPORT, NC US", "quality": 100, "contribution": 0.0}, "KRDU": {"distance": 2073.0, "latitude": 35.86, "longitude": -78.78, "useCount": 0, "id": "KRDU", "name": "KRDU", "quality": 100, "contribution": 0.0}, "99999903758": {"distance": 29426.0, "latitude": 35.971, "longitude": -79.093, "useCount": 0, "id": "99999903758", "name": "DURHAM 11 W, NC US", "quality": 100, "contribution": 0.0}, "72220103723": {"distance": 43410.0, "latitude": 35.582, "longitude": -79.101, "useCount": 0, "id": "72220103723", "name": "SANFORD LEE CO REGIONAL AIRPORT, NC US", "quality": 98, "contribution": 0.0}}}