{"queryCost": 1, "latitude": 35.877601623535156, "longitude": -78.7874984741211, "resolvedAddress": "35.877601623535156, -78.7874984741211", "address": "35.877601623535156, -78.7874984741211", "timezone": "America/New_York", "tzoffset": -4.0, "days": [{"datetime": "2019-10-05", "datetimeEpoch": 1570248000, "tempmax": 20.6, "tempmin": 14.4, "temp": 17.5, "feelslikemax": 20.6, "feelslikemin": 14.4, "feelslike": 17.5, "dew": 11.2, "humidity": 66.92, "precip": 0.01, "precipprob": null, "precipcover": 8.33, "preciptype": null, "snow": 0.0, "snowdepth": 0.0, "windgust": 42.8, "windspeed": 25.9, "winddir": 50.8, "pressure": 1024.8, "cloudcover": 97.2, "visibility": 16.0, "solarradiation": 134.7, "solarenergy": 6.3, "sunrise": "07:13:09", "sunriseEpoch": 1570273989, "sunset": "18:53:30", "sunsetEpoch": 1570316010, "moonphase": 0.24, "conditions": "Rain, Overcast", "icon": "rain", "stations": ["KLHZ", "KTTA", "72306013722", "KRDU", "99999903758", "72220103723"], "source": "obs", "hours": null}], "stations": {"KLHZ": {"distance": 44171.0, "latitude": 36.02, "longitude": -78.33, "useCount": 0, "id": "KLHZ", "name": "KLHZ", "quality": 99, "contribution": 0.0}, "KTTA": {"distance": 42951.0, "latitude": 35.58, "longitude": -79.09, "useCount": 0, "id": "KTTA", "name": "KTTA", "quality": 98, "contribution": 0.0}, "72306013722": {"distance": 1712.0, "latitude": 35.892, "longitude": -78.782, "useCount": 0, "id": "72306013722", "name": "RALEIGH AIRPORT, NC US", "quality": 100, "contribution": 0.0}, "KRDU": {"distance": 2073.0, "latitude": 35.86, "longitude": -78.78, "useCount": 0, "id": "KRDU", "name": "KRDU", "quality": 100, "contribution": 0.0}, "99999903758": {"distance": 29426.0, "latitude": 35.971, "longitude": -79.093, "useCount": 0, "id": "99999903758", "name": "DURHAM 11 W, NC US", "quality": 100, "contribution": 0.0}, "72220103723": {"distance": 43410.0, "latitude": 35.582, "longitude": -79.101, "useCount": 0, "id": "72220103723", "name": "SANFORD LEE CO REGIONAL AIRPORT, NC US", "quality": 98, "contribution": 0.0}}}