{"queryCost": 1, "latitude": 39.49909973144531, "longitude": -119.76799774169922, "resolvedAddress": "39.49909973144531, -119.76799774169922", "address": "39.49909973144531, -119.76799774169922", "timezone": "America/Los_Angeles", "tzoffset": -7.0, "days": [{"datetime": "2018-08-15", "datetimeEpoch": 1534316400, "tempmax": 35.6, "tempmin": 20.6, "temp": 28.1, "feelslikemax": 33.0, "feelslikemin": 20.6, "feelslike": 27.0, "dew": 5.9, "humidity": 26.59, "precip": 0.0, "precipprob": null, "precipcover": 0.0, "preciptype": null, "snow": 0.0, "snowdepth": 0.0, "windgust": 44.1, "windspeed": 27.7, "winddir": 237.1, "pressure": 1010.7, "cloudcover": 49.4, "visibility": 16.0, "solarradiation": 441.4, "solarenergy": 22.2, "sunrise": "06:11:39", "sunriseEpoch": 1534338699, "sunset": "19:54:42", "sunsetEpoch": 1534388082, "moonphase": 0.11, "conditions": "Partially cloudy", "icon": "partly-cloudy-day", "stations": ["KMEV", "KRTS", "72083900279", "72488023185", "KRNO", "72055199999"], "source": "obs", "hours": null}], "stations": {"KMEV": {"distance": 58920.0, "latitude": 38.97, "longitude": -119.75, "useCount": 0, "id": "KMEV", "name": "KMEV", "quality": 98, "contribution": 0.0}, "KRTS": {"distance": 19353.0, "latitude": 39.65, "longitude": -119.88, "useCount": 0, "id": "KRTS", "name": "KRTS", "quality": 99, "contribution": 0.0}, "72083900279": {"distance": 20861.0, "latitude": 39.667, "longitude": -119.876, "useCount": 0, "id": "72083900279", "name": "RENO STEAD AIRPORT, NV US", "quality": 99, "contribution": 0.0}, "72488023185": {"distance": 1723.0, "latitude": 39.484, "longitude": -119.771, "useCount": 0, "id": "72488023185", "name": "RENO AIRPORT, NV US", "quality": 100, "contribution": 0.0}, "KRNO": {"distance": 1036.0, "latitude": 39.5, "longitude": -119.78, "useCount": 0, "id": "KRNO", "name": "KRNO", "quality": 100, "contribution": 0.0}, "72055199999": {"distance": 55545.0, "latitude": 39.0, "longitude": -119.751, "useCount": 0, "id": "72055199999", "name": "MINDEN TAHOE AIRPORT, NV US", "quality": 100, "contribution": 0.0}}}