{"queryCost": 1, "latitude": 39.49909973144531, "longitude": -119.76799774169922, "resolvedAddress": "39.49909973144531, -119.76799774169922", "address": "39.49909973144531, -119.76799774169922", "timezone": "America/Los_Angeles", "tzoffset": -7.0, "days": [{"datetime": "2018-04-19", "datetimeEpoch": 1524121200, "tempmax": 10.0, "tempmin": 1.1, "temp": 6.1, "feelslikemax": 8.3, "feelslikemin": -3.3, "feelslike": 3.6, "dew": -1.1, "humidity": 62.48, "precip": 2.0, "precipprob": null, "precipcover": 4.17, "preciptype": null, "snow": 0.0, "snowdepth": 0.0, "windgust": 50.0, "windspeed": 38.9, "winddir": 240.8, "pressure": 1015.5, "cloudcover": 84.8, "visibility": 15.9, "solarradiation": 251.5, "solarenergy": 11.8, "sunrise": "06:15:50", "sunriseEpoch": 1524143750, "sunset": "19:41:05", "sunsetEpoch": 1524192065, "moonphase": 0.07, "conditions": "Rain, Overcast", "icon": "rain", "stations": ["KMEV", "KRTS", "72083900279", "72488023185", "KRNO", "72055199999"], "source": "obs", "hours": null}], "stations": {"KMEV": {"distance": 58920.0, "latitude": 38.97, "longitude": -119.75, "useCount": 0, "id": "KMEV", "name": "KMEV", "quality": 98, "contribution": 0.0}, "KRTS": {"distance": 19353.0, "latitude": 39.65, "longitude": -119.88, "useCount": 0, "id": "KRTS", "name": "KRTS", "quality": 99, "contribution": 0.0}, "72083900279": {"distance": 20861.0, "latitude": 39.667, "longitude": -119.876, "useCount": 0, "id": "72083900279", "name": "RENO STEAD AIRPORT, NV US", "quality": 99, "contribution": 0.0}, "72488023185": {"distance": 1723.0, "latitude": 39.484, "longitude": -119.771, "useCount": 0, "id": "72488023185", "name": "RENO AIRPORT, NV US", "quality": 100, "contribution": 0.0}, "KRNO": {"distance": 1036.0, "latitude": 39.5, "longitude": -119.78, "useCount": 0, "id": "KRNO", "name": "KRNO", "quality": 100, "contribution": 0.0}, "72055199999": {"distance": 55545.0, "latitude": 39.0, "longitude": -119.751, "useCount": 0, "id": "72055199999", "name": "MINDEN TAHOE AIRPORT, NV US", "quality": 100, "contribution": 0.0}}}