{"queryCost": 1, "latitude": 37.3255, "longitude": -79.975403, "resolvedAddress": "37.3255, -79.975403", "address": "37.3255, -79.975403", "timezone": "America/New_York", "tzoffset": -5.0, "days": [{"datetime": "2020-01-04", "datetimeEpoch": 1578114000, "tempmax": 16.1, "tempmin": 3.8, "temp": 10.5, "feelslikemax": 16.1, "feelslikemin": -1.2, "feelslike": 9.2, "dew": 6.1, "humidity": 75.92, "precip": 0.6, "precipprob": null, "precipcover": 45.83, "preciptype": null, "snow": 0.0, "snowdepth": 0.0, "windgust": 68.3, "windspeed": 48.2, "winddir": 274.6, "pressure": 1007.5, "cloudcover": 66.9, "visibility": 13.4, "solarradiation": 80.2, "solarenergy": 2.9, "sunrise": "07:34:30", "sunriseEpoch": 1578141270, "sunset": "17:15:06", "sunsetEpoch": 1578176106, "moonphase": 0.31, "conditions": "Rain, Partially cloudy", "icon": "rain", "stations": ["72411013741", "KBCB", "72410013733", "KROA", "72411353881"], "source": "obs", "hours": null}], "stations": {"KROA": {"distance": 777.0, "latitude": 37.32, "longitude": -79.97, "useCount": 0, "id": "KROA", "name": "KROA", "quality": 100, "contribution": 0.0}, "72411013741": {"distance": 964.0, "latitude": 37.317, "longitude": -79.974, "useCount": 0, "id": "72411013741", "name": "ROANOKE INTERNATIONAL AIRPORT, VA US", "quality": 100, "contribution": 0.0}, "KBCB": {"distance": 41098.0, "latitude": 37.22, "longitude": -80.42, "useCount": 0, "id": "KBCB", "name": "KBCB", "quality": 99, "contribution": 0.0}, "72410013733": {"distance": 68051.0, "latitude": 37.321, "longitude": -79.207, "useCount": 0, "id": "72410013733", "name": "LYNCHBURG INTERNATIONAL AIRPORT, VA US", "quality": 100, "contribution": 0.0}, "72411353881": {"distance": 40496.0, "latitude": 37.208, "longitude": -80.408, "useCount": 0, "id": "72411353881", "name": "BLACKSBURG VIRGINIA TECH AIRPORT, VA US", "quality": 100, "contribution": 0.0}}}