{"queryCost": 1, "latitude": 37.3255, "longitude": -79.975403, "resolvedAddress": "37.3255, -79.975403", "address": "37.3255, -79.975403", "timezone": "America/New_York", "tzoffset": -4.0, "days": [{"datetime": "2018-06-11", "datetimeEpoch": 1528689600, "tempmax": 25.0, "tempmin": 16.5, "temp": 20.3, "feelslikemax": 25.0, "feelslikemin": 16.5, "feelslike": 20.3, "dew": 17.6, "humidity": 84.61, "precip": 0.9, "precipprob": null, "precipcover": 25.0, "preciptype": null, "snow": 0.0, "snowdepth": 0.0, "windgust": 37.1, "windspeed": 20.5, "winddir": 202.9, "pressure": 1014.6, "cloudcover": 75.3, "visibility": 15.4, "solarradiation": 158.9, "solarenergy": 8.6, "sunrise": "05:58:52", "sunriseEpoch": 1528711132, "sunset": "20:40:29", "sunsetEpoch": 1528764029, "moonphase": 0.97, "conditions": "Rain, Overcast", "icon": "rain", "stations": ["KLYH", "72411013741", "KBCB", "72410013733", "KROA", "72411353881"], "source": "obs", "hours": null}], "stations": {"KLYH": {"distance": 68640.0, "latitude": 37.33, "longitude": -79.2, "useCount": 0, "id": "KLYH", "name": "KLYH", "quality": 100, "contribution": 0.0}, "72411013741": {"distance": 964.0, "latitude": 37.317, "longitude": -79.974, "useCount": 0, "id": "72411013741", "name": "ROANOKE INTERNATIONAL AIRPORT, VA US", "quality": 100, "contribution": 0.0}, "KBCB": {"distance": 41098.0, "latitude": 37.22, "longitude": -80.42, "useCount": 0, "id": "KBCB", "name": "KBCB", "quality": 99, "contribution": 0.0}, "72410013733": {"distance": 68051.0, "latitude": 37.321, "longitude": -79.207, "useCount": 0, "id": "72410013733", "name": "LYNCHBURG INTERNATIONAL AIRPORT, VA US", "quality": 100, "contribution": 0.0}, "KROA": {"distance": 777.0, "latitude": 37.32, "longitude": -79.97, "useCount": 0, "id": "KROA", "name": "KROA", "quality": 100, "contribution": 0.0}, "72411353881": {"distance": 40496.0, "latitude": 37.208, "longitude": -80.408, "useCount": 0, "id": "72411353881", "name": "BLACKSBURG VIRGINIA TECH AIRPORT, VA US", "quality": 100, "contribution": 0.0}}}