{"queryCost": 1, "latitude": 43.118900299072266, "longitude": -77.67240142822266, "resolvedAddress": "43.118900299072266, -77.67240142822266", "address": "43.118900299072266, -77.67240142822266", "timezone": "America/New_York", "tzoffset": -5.0, "days": [{"datetime": "2020-01-04", "datetimeEpoch": 1578114000, "tempmax": 4.4, "tempmin": 0.0, "temp": 1.5, "feelslikemax": 1.3, "feelslikemin": -4.0, "feelslike": -2.0, "dew": -0.7, "humidity": 85.72, "precip": 6.08, "precipprob": null, "precipcover": 79.17, "preciptype": null, "snow": 3.12, "snowdepth": 3.12, "windgust": null, "windspeed": 18.4, "winddir": 194.2, "pressure": 1007.9, "cloudcover": 83.1, "visibility": 12.4, "solarradiation": 42.8, "solarenergy": 1.2, "sunrise": "07:42:36", "sunriseEpoch": 1578141756, "sunset": "16:48:37", "sunsetEpoch": 1578174517, "moonphase": 0.31, "conditions": "Snow, Overcast", "icon": "snow", "stations": ["72529014768", "KGVQ", "72519454778", "KROC", "72498894704", "KDSV"], "source": "obs", "hours": null}], "stations": {"72529014768": {"distance": 427.0, "latitude": 43.117, "longitude": -77.677, "useCount": 0, "id": "72529014768", "name": "ROCHESTER GREATER INTERNATIONAL, NY US", "quality": 100, "contribution": 0.0}, "KGVQ": {"distance": 40866.0, "latitude": 43.03, "longitude": -78.16, "useCount": 0, "id": "KGVQ", "name": "BATAVIA, NY", "quality": 100, "contribution": 0.0}, "72519454778": {"distance": 73057.0, "latitude": 42.643, "longitude": -77.056, "useCount": 0, "id": "72519454778", "name": "PENN YAN AIRPORT, NY US", "quality": 100, "contribution": 0.0}, "KROC": {"distance": 230.0, "latitude": 43.12, "longitude": -77.67, "useCount": 0, "id": "KROC", "name": "KROC", "quality": 100, "contribution": 0.0}, "72498894704": {"distance": 61105.0, "latitude": 42.571, "longitude": -77.713, "useCount": 0, "id": "72498894704", "name": "DANSVILLE MUNICIPAL AIRPORT, NY US", "quality": 100, "contribution": 0.0}, "KDSV": {"distance": 61227.0, "latitude": 42.57, "longitude": -77.72, "useCount": 0, "id": "KDSV", "name": "KDSV", "quality": 100, "contribution": 0.0}}}