{"queryCost": 1, "latitude": 26.53619956970215, "longitude": -81.75520324707031, "resolvedAddress": "26.53619956970215, -81.75520324707031", "address": "26.53619956970215, -81.75520324707031", "timezone": "America/New_York", "tzoffset": -5.0, "days": [{"datetime": "2020-01-05", "datetimeEpoch": 1578200400, "tempmax": 19.4, "tempmin": 10.7, "temp": 14.8, "feelslikemax": 19.4, "feelslikemin": 10.7, "feelslike": 14.8, "dew": 4.2, "humidity": 51.58, "precip": 0.0, "precipprob": null, "precipcover": 0.0, "preciptype": null, "snow": 0.0, "snowdepth": 0.0, "windgust": 33.5, "windspeed": 20.5, "winddir": 145.4, "pressure": 1024.5, "cloudcover": 3.7, "visibility": 16.0, "solarradiation": 347.9, "solarenergy": 15.0, "sunrise": "07:16:15", "sunriseEpoch": 1578226575, "sunset": "17:48:28", "sunsetEpoch": 1578264508, "moonphase": 0.36, "conditions": "Clear", "icon": "clear-day", "stations": ["72203812897", "KFMY", "72210612835", "72210812894", "KRSW", "KAPF"], "source": "obs", "hours": null}], "stations": {"72203812897": {"distance": 42482.0, "latitude": 26.155, "longitude": -81.775, "useCount": 0, "id": "72203812897", "name": "NAPLES MUNICIPAL AIRPORT, FL US", "quality": 100, "contribution": 0.0}, "KFMY": {"distance": 12427.0, "latitude": 26.58, "longitude": -81.87, "useCount": 0, "id": "KFMY", "name": "KFMY", "quality": 100, "contribution": 0.0}, "72210612835": {"distance": 11888.0, "latitude": 26.585, "longitude": -81.861, "useCount": 0, "id": "72210612835", "name": "FORT MYERS PAGE FIELD AIRPORT, FL US", "quality": 100, "contribution": 0.0}, "72210812894": {"distance": 23.0, "latitude": 26.536, "longitude": -81.755, "useCount": 0, "id": "72210812894", "name": "FORT MYERS SW FLORIDA REGIONAL AIRPORT, FL US", "quality": 100, "contribution": 0.0}, "KRSW": {"distance": 863.0, "latitude": 26.53, "longitude": -81.75, "useCount": 0, "id": "KRSW", "name": "KRSW", "quality": 100, "contribution": 0.0}, "KAPF": {"distance": 43017.0, "latitude": 26.15, "longitude": -81.77, "useCount": 0, "id": "KAPF", "name": "KAPF", "quality": 100, "contribution": 0.0}}}