{"queryCost": 1, "latitude": 26.53619956970215, "longitude": -81.75520324707031, "resolvedAddress": "26.53619956970215, -81.75520324707031", "address": "26.53619956970215, -81.75520324707031", "timezone": "America/New_York", "tzoffset": -4.0, "days": [{"datetime": "2019-07-21", "datetimeEpoch": 1563681600, "tempmax": 32.8, "tempmin": 22.9, "temp": 26.4, "feelslikemax": 37.0, "feelslikemin": 22.9, "feelslike": 27.8, "dew": 22.4, "humidity": 80.53, "precip": 51.0, "precipprob": null, "precipcover": 25.0, "preciptype": null, "snow": 0.0, "snowdepth": 0.0, "windgust": 79.6, "windspeed": 18.4, "winddir": 117.5, "pressure": 1017.2, "cloudcover": 20.0, "visibility": 14.9, "solarradiation": 417.4, "solarenergy": 21.0, "sunrise": "06:46:25", "sunriseEpoch": 1563705985, "sunset": "20:20:15", "sunsetEpoch": 1563754815, "moonphase": 0.6, "conditions": "Rain", "icon": "rain", "stations": ["72203812897", "KFMY", "72210612835", "72210812894", "KRSW"], "source": "obs", "hours": null}], "stations": {"72203812897": {"distance": 42482.0, "latitude": 26.155, "longitude": -81.775, "useCount": 0, "id": "72203812897", "name": "NAPLES MUNICIPAL AIRPORT, FL US", "quality": 100, "contribution": 0.0}, "KRSW": {"distance": 863.0, "latitude": 26.53, "longitude": -81.75, "useCount": 0, "id": "KRSW", "name": "KRSW", "quality": 100, "contribution": 0.0}, "KFMY": {"distance": 12427.0, "latitude": 26.58, "longitude": -81.87, "useCount": 0, "id": "KFMY", "name": "KFMY", "quality": 100, "contribution": 0.0}, "72210612835": {"distance": 11888.0, "latitude": 26.585, "longitude": -81.861, "useCount": 0, "id": "72210612835", "name": "FORT MYERS PAGE FIELD AIRPORT, FL US", "quality": 100, "contribution": 0.0}, "72210812894": {"distance": 23.0, "latitude": 26.536, "longitude": -81.755, "useCount": 0, "id": "72210812894", "name": "FORT MYERS SW FLORIDA REGIONAL AIRPORT, FL US", "quality": 100, "contribution": 0.0}}}