{"queryCost": 1, "latitude": 32.7336006165, "longitude": -117.190002441, "resolvedAddress": "32.7336006165, -117.190002441", "address": "32.7336006165, -117.190002441", "timezone": "America/Los_Angeles", "tzoffset": -7.0, "days": [{"datetime": "2019-06-20", "datetimeEpoch": 1561014000, "tempmax": 19.4, "tempmin": 17.2, "temp": 18.0, "feelslikemax": 19.4, "feelslikemin": 17.2, "feelslike": 18.1, "dew": 13.6, "humidity": 75.62, "precip": 0.0, "precipprob": null, "precipcover": 0.0, "preciptype": null, "snow": 0.0, "snowdepth": 0.0, "windgust": null, "windspeed": 14.7, "winddir": 228.2, "pressure": 1016.5, "cloudcover": 95.4, "visibility": 16.0, "solarradiation": 208.7, "solarenergy": 11.3, "sunrise": "05:41:09", "sunriseEpoch": 1561034469, "sunset": "19:59:35", "sunsetEpoch": 1561085975, "moonphase": 0.55, "conditions": "Overcast", "icon": "cloudy", "stations": ["KNZY", "KSAN", "72290693112", "72290023188", "KMYF", "72290303131"], "source": "obs", "hours": null}], "stations": {"KNZY": {"distance": 4678.0, "latitude": 32.7, "longitude": -117.22, "useCount": 0, "id": "KNZY", "name": "KNZY", "quality": 100, "contribution": 0.0}, "KSAN": {"distance": 1915.0, "latitude": 32.73, "longitude": -117.17, "useCount": 0, "id": "KSAN", "name": "SAN DIEGO/LINDBE, CA", "quality": 100, "contribution": 0.0}, "72290693112": {"distance": 3856.0, "latitude": 32.7, "longitude": -117.2, "useCount": 0, "id": "72290693112", "name": "NORTH ISLAND NAS, CA US", "quality": 100, "contribution": 0.0}, "72290023188": {"distance": 656.0, "latitude": 32.734, "longitude": -117.183, "useCount": 0, "id": "72290023188", "name": "SAN DIEGO INTERNATIONAL AIRPORT, CA US", "quality": 100, "contribution": 0.0}, "KMYF": {"distance": 11137.0, "latitude": 32.82, "longitude": -117.13, "useCount": 0, "id": "KMYF", "name": "KMYF", "quality": 100, "contribution": 0.0}, "72290303131": {"distance": 10321.0, "latitude": 32.816, "longitude": -117.139, "useCount": 0, "id": "72290303131", "name": "SAN DIEGO MONTGOMERY FIELD, CA US", "quality": 100, "contribution": 0.0}}}