{"queryCost": 1, "latitude": 29.533701, "longitude": -98.469803, "resolvedAddress": "29.533701, -98.469803", "address": "29.533701, -98.469803", "timezone": "America/Chicago", "tzoffset": -6.0, "days": [{"datetime": "2020-01-01", "datetimeEpoch": 1577858400, "tempmax": 11.7, "tempmin": 10.6, "temp": 11.1, "feelslikemax": 11.7, "feelslikemin": 10.6, "feelslike": 11.1, "dew": 2.4, "humidity": 57.58, "precip": 0.0, "precipprob": null, "precipcover": 0.0, "preciptype": null, "snow": 0.0, "snowdepth": 0.0, "windgust": null, "windspeed": 20.5, "winddir": 149.1, "pressure": 1013.9, "cloudcover": 95.2, "visibility": 15.7, "solarradiation": 40.1, "solarenergy": 1.6, "sunrise": "07:28:46", "sunriseEpoch": 1577885326, "sunset": "17:46:01", "sunsetEpoch": 1577922361, "moonphase": 0.17, "conditions": "Overcast", "icon": "cloudy", "stations": ["KSKF", "72253612911", "KSAT", "72253012921", "KRND", "72253512909"], "source": "obs", "hours": null}], "stations": {"KSKF": {"distance": 20170.0, "latitude": 29.38, "longitude": -98.58, "useCount": 0, "id": "KSKF", "name": "KSKF", "quality": 100, "contribution": 0.0}, "72253612911": {"distance": 20098.0, "latitude": 29.533, "longitude": -98.262, "useCount": 0, "id": "72253612911", "name": "RANDOLPH AFB, TX US", "quality": 99, "contribution": 0.0}, "KSAT": {"distance": 412.0, "latitude": 29.53, "longitude": -98.47, "useCount": 0, "id": "KSAT", "name": "KSAT", "quality": 100, "contribution": 0.0}, "72253012921": {"distance": 1804.0, "latitude": 29.544, "longitude": -98.484, "useCount": 0, "id": "72253012921", "name": "SAN ANTONIO INTERNATIONAL AIRPORT, TX US", "quality": 100, "contribution": 0.0}, "KRND": {"distance": 18388.0, "latitude": 29.53, "longitude": -98.28, "useCount": 0, "id": "KRND", "name": "KRND", "quality": 100, "contribution": 0.0}, "72253512909": {"distance": 20033.0, "latitude": 29.383, "longitude": -98.583, "useCount": 0, "id": "72253512909", "name": "SAN ANTONIO KELLY FIELD AFB, TX US", "quality": 98, "contribution": 0.0}}}