{"queryCost": 1, "latitude": 29.533701, "longitude": -98.469803, "resolvedAddress": "29.533701, -98.469803", "address": "29.533701, -98.469803", "timezone": "America/Chicago", "tzoffset": -6.0, "days": [{"datetime": "2019-12-21", "datetimeEpoch": 1576908000, "tempmax": 17.8, "tempmin": 6.7, "temp": 11.6, "feelslikemax": 17.8, "feelslikemin": 5.6, "feelslike": 11.2, "dew": 5.3, "humidity": 69.56, "precip": 0.01, "precipprob": null, "precipcover": 4.17, "preciptype": null, "snow": 0.0, "snowdepth": 0.0, "windgust": null, "windspeed": 16.6, "winddir": 168.4, "pressure": 1025.3, "cloudcover": 51.0, "visibility": 11.5, "solarradiation": 263.8, "solarenergy": 11.4, "sunrise": "07:24:32", "sunriseEpoch": 1576934672, "sunset": "17:39:24", "sunsetEpoch": 1576971564, "moonphase": 0.88, "conditions": "Rain, Partially cloudy", "icon": "rain", "stations": ["KSKF", "72253612911", "KSAT", "72253012921", "KRND", "72253512909"], "source": "obs", "hours": null}], "stations": {"KSKF": {"distance": 20170.0, "latitude": 29.38, "longitude": -98.58, "useCount": 0, "id": "KSKF", "name": "KSKF", "quality": 100, "contribution": 0.0}, "72253612911": {"distance": 20098.0, "latitude": 29.533, "longitude": -98.262, "useCount": 0, "id": "72253612911", "name": "RANDOLPH AFB, TX US", "quality": 99, "contribution": 0.0}, "KSAT": {"distance": 412.0, "latitude": 29.53, "longitude": -98.47, "useCount": 0, "id": "KSAT", "name": "KSAT", "quality": 100, "contribution": 0.0}, "72253012921": {"distance": 1804.0, "latitude": 29.544, "longitude": -98.484, "useCount": 0, "id": "72253012921", "name": "SAN ANTONIO INTERNATIONAL AIRPORT, TX US", "quality": 100, "contribution": 0.0}, "KRND": {"distance": 18388.0, "latitude": 29.53, "longitude": -98.28, "useCount": 0, "id": "KRND", "name": "KRND", "quality": 100, "contribution": 0.0}, "72253512909": {"distance": 20033.0, "latitude": 29.383, "longitude": -98.583, "useCount": 0, "id": "72253512909", "name": "SAN ANTONIO KELLY FIELD AFB, TX US", "quality": 98, "contribution": 0.0}}}