{"queryCost": 1, "latitude": 32.12760162, "longitude": -81.20210266, "resolvedAddress": "32.12760162, -81.20210266", "address": "32.12760162, -81.20210266", "timezone": "America/New_York", "tzoffset": -5.0, "days": [{"datetime": "2020-01-05", "datetimeEpoch": 1578200400, "tempmax": 14.3, "tempmin": 3.8, "temp": 8.7, "feelslikemax": 14.3, "feelslikemin": 0.4, "feelslike": 6.9, "dew": 0.0, "humidity": 55.67, "precip": 0.0, "precipprob": null, "precipcover": 0.0, "preciptype": null, "snow": 0.0, "snowdepth": 0.0, "windgust": 62.7, "windspeed": 38.9, "winddir": 283.3, "pressure": 1024.4, "cloudcover": 0.0, "visibility": 16.0, "solarradiation": 382.6, "solarenergy": 16.5, "sunrise": "07:26:24", "sunriseEpoch": 1578227184, "sunset": "17:33:55", "sunsetEpoch": 1578263635, "moonphase": 0.36, "conditions": "Clear", "icon": "wind", "stations": ["74780413824", "KSVN", "KLHW", "72209003875", "KSAV", "72207003822"], "source": "obs", "hours": null}], "stations": {"74780413824": {"distance": 13948.0, "latitude": 32.017, "longitude": -81.133, "useCount": 0, "id": "74780413824", "name": "SAVANNAH HUNTER FIELD, GA US", "quality": 99, "contribution": 0.0}, "KSVN": {"distance": 12947.0, "latitude": 32.02, "longitude": -81.15, "useCount": 0, "id": "KSVN", "name": "KSVN", "quality": 100, "contribution": 0.0}, "KLHW": {"distance": 43602.0, "latitude": 31.88, "longitude": -81.56, "useCount": 0, "id": "KLHW", "name": "KLHW", "quality": 100, "contribution": 0.0}, "72209003875": {"distance": 43865.0, "latitude": 31.883, "longitude": -81.567, "useCount": 0, "id": "72209003875", "name": "FORT STEWART WRIGHT, GA US", "quality": 99, "contribution": 0.0}, "KSAV": {"distance": 333.0, "latitude": 32.13, "longitude": -81.2, "useCount": 0, "id": "KSAV", "name": "KSAV", "quality": 100, "contribution": 0.0}, "72207003822": {"distance": 413.0, "latitude": 32.131, "longitude": -81.202, "useCount": 0, "id": "72207003822", "name": "SAVANNAH INTERNATIONAL AIRPORT, GA US", "quality": 100, "contribution": 0.0}}}