{"queryCost": 1, "latitude": 32.12760162, "longitude": -81.20210266, "resolvedAddress": "32.12760162, -81.20210266", "address": "32.12760162, -81.20210266", "timezone": "America/New_York", "tzoffset": -4.0, "days": [{"datetime": "2019-07-26", "datetimeEpoch": 1564113600, "tempmax": 31.7, "tempmin": 22.2, "temp": 26.7, "feelslikemax": 32.5, "feelslikemin": 22.2, "feelslike": 27.5, "dew": 19.8, "humidity": 68.37, "precip": 0.0, "precipprob": null, "precipcover": 0.0, "preciptype": null, "snow": 0.0, "snowdepth": 0.0, "windgust": 35.3, "windspeed": 22.3, "winddir": 50.4, "pressure": 1021.4, "cloudcover": 42.7, "visibility": 16.0, "solarradiation": 432.7, "solarenergy": 23.4, "sunrise": "06:35:50", "sunriseEpoch": 1564137350, "sunset": "20:26:30", "sunsetEpoch": 1564187190, "moonphase": 0.83, "conditions": "Partially cloudy", "icon": "partly-cloudy-day", "stations": ["74780413824", "KSVN", "KLHW", "72209003875", "KSAV", "72207003822"], "source": "obs", "hours": null}], "stations": {"74780413824": {"distance": 13948.0, "latitude": 32.017, "longitude": -81.133, "useCount": 0, "id": "74780413824", "name": "SAVANNAH HUNTER FIELD, GA US", "quality": 99, "contribution": 0.0}, "KSVN": {"distance": 12947.0, "latitude": 32.02, "longitude": -81.15, "useCount": 0, "id": "KSVN", "name": "KSVN", "quality": 100, "contribution": 0.0}, "KLHW": {"distance": 43602.0, "latitude": 31.88, "longitude": -81.56, "useCount": 0, "id": "KLHW", "name": "KLHW", "quality": 100, "contribution": 0.0}, "72209003875": {"distance": 43865.0, "latitude": 31.883, "longitude": -81.567, "useCount": 0, "id": "72209003875", "name": "FORT STEWART WRIGHT, GA US", "quality": 99, "contribution": 0.0}, "KSAV": {"distance": 333.0, "latitude": 32.13, "longitude": -81.2, "useCount": 0, "id": "KSAV", "name": "KSAV", "quality": 100, "contribution": 0.0}, "72207003822": {"distance": 413.0, "latitude": 32.131, "longitude": -81.202, "useCount": 0, "id": "72207003822", "name": "SAVANNAH INTERNATIONAL AIRPORT, GA US", "quality": 100, "contribution": 0.0}}}