{"queryCost": 1, "latitude": 41.70869827270508, "longitude": -86.31729888916016, "resolvedAddress": "41.70869827270508, -86.31729888916016", "address": "41.70869827270508, -86.31729888916016", "timezone": "America/Indiana/Indianapolis", "tzoffset": -5.0, "days": [{"datetime": "2020-01-03", "datetimeEpoch": 1578027600, "tempmax": 6.1, "tempmin": 0.7, "temp": 3.5, "feelslikemax": 4.6, "feelslikemin": -2.8, "feelslike": 1.0, "dew": 1.5, "humidity": 86.65, "precip": 0.0, "precipprob": null, "precipcover": 0.0, "preciptype": null, "snow": 0.63, "snowdepth": 1.2, "windgust": null, "windspeed": 16.6, "winddir": 245.8, "pressure": 1008.9, "cloudcover": 72.0, "visibility": 12.0, "solarradiation": 55.4, "solarenergy": 1.8, "sunrise": "08:12:38", "sunriseEpoch": 1578057158, "sunset": "17:26:50", "sunsetEpoch": 1578090410, "moonphase": 0.26, "conditions": "Partially cloudy", "icon": "snow", "stations": ["72635594871", "KSBN", "KPPO", "72102900347", "KBEH", "72535014848"], "source": "obs", "hours": null}], "stations": {"72635594871": {"distance": 47313.0, "latitude": 42.126, "longitude": -86.428, "useCount": 0, "id": "72635594871", "name": "BENTON HARBOR, MI US", "quality": 100, "contribution": 0.0}, "KSBN": {"distance": 267.0, "latitude": 41.71, "longitude": -86.32, "useCount": 0, "id": "KSBN", "name": "KSBN", "quality": 100, "contribution": 0.0}, "KPPO": {"distance": 37646.0, "latitude": 41.57, "longitude": -86.73, "useCount": 0, "id": "KPPO", "name": "KPPO", "quality": 100, "contribution": 0.0}, "72102900347": {"distance": 37935.0, "latitude": 41.572, "longitude": -86.735, "useCount": 0, "id": "72102900347", "name": "LA PORTE MUNICIPAL AIRPORT, IN US", "quality": 99, "contribution": 0.0}, "KBEH": {"distance": 47819.0, "latitude": 42.13, "longitude": -86.43, "useCount": 0, "id": "KBEH", "name": "KBEH", "quality": 100, "contribution": 0.0}, "72535014848": {"distance": 186.0, "latitude": 41.707, "longitude": -86.316, "useCount": 0, "id": "72535014848", "name": "SOUTH BEND AIRPORT, IN US", "quality": 100, "contribution": 0.0}}}