{"queryCost": 1, "latitude": 35.236801147499996, "longitude": -120.641998291, "resolvedAddress": "35.236801147499996, -120.641998291", "address": "35.236801147499996, -120.641998291", "timezone": "America/Los_Angeles", "tzoffset": -8.0, "days": [{"datetime": "2020-01-05", "datetimeEpoch": 1578211200, "tempmax": 17.8, "tempmin": 7.2, "temp": 12.5, "feelslikemax": 17.8, "feelslikemin": 6.6, "feelslike": 12.4, "dew": 5.6, "humidity": 64.63, "precip": 0.0, "precipprob": null, "precipcover": 0.0, "preciptype": null, "snow": 0.0, "snowdepth": 0.0, "windgust": 47.1, "windspeed": 29.5, "winddir": 211.8, "pressure": 1029.4, "cloudcover": 1.3, "visibility": 16.0, "solarradiation": 56.6, "solarenergy": 2.4, "sunrise": "07:11:46", "sunriseEpoch": 1578237106, "sunset": "17:04:11", "sunsetEpoch": 1578272651, "moonphase": 0.36, "conditions": "Clear", "icon": "clear-day", "stations": ["KSMX", "72394023273", "KSBP", "KPRB", "72289793206", "72396593209"], "source": "obs", "hours": null}], "stations": {"KSMX": {"distance": 41373.0, "latitude": 34.9, "longitude": -120.45, "useCount": 0, "id": "KSMX", "name": "KSMX", "quality": 100, "contribution": 0.0}, "72394023273": {"distance": 41472.0, "latitude": 34.899, "longitude": -120.449, "useCount": 0, "id": "72394023273", "name": "SANTA MARIA PUBLIC AIRPORT, CA US", "quality": 100, "contribution": 0.0}, "KSBP": {"distance": 2165.0, "latitude": 35.22, "longitude": -120.63, "useCount": 0, "id": "KSBP", "name": "KSBP", "quality": 99, "contribution": 0.0}, "KPRB": {"distance": 48236.0, "latitude": 35.67, "longitude": -120.63, "useCount": 0, "id": "KPRB", "name": "KPRB", "quality": 100, "contribution": 0.0}, "72289793206": {"distance": 101.0, "latitude": 35.237, "longitude": -120.641, "useCount": 0, "id": "72289793206", "name": "SAN LUIS OBISPO MCCHESNEY FIELD, CA US", "quality": 100, "contribution": 0.0}, "72396593209": {"distance": 48207.0, "latitude": 35.67, "longitude": -120.628, "useCount": 0, "id": "72396593209", "name": "PASO ROBLES MUNICIPAL AIRPORT, CA US", "quality": 100, "contribution": 0.0}}}