{"queryCost": 1, "latitude": 38.34049987792969, "longitude": -75.51029968261719, "resolvedAddress": "38.34049987792969, -75.51029968261719", "address": "38.34049987792969, -75.51029968261719", "timezone": "America/New_York", "tzoffset": -4.0, "days": [{"datetime": "2018-05-29", "datetimeEpoch": 1527566400, "tempmax": 26.7, "tempmin": 17.8, "temp": 22.0, "feelslikemax": 26.7, "feelslikemin": 17.8, "feelslike": 22.0, "dew": 20.2, "humidity": 90.07, "precip": 0.0, "precipprob": null, "precipcover": 0.0, "preciptype": null, "snow": 0.0, "snowdepth": 0.0, "windgust": null, "windspeed": 13.0, "winddir": 92.9, "pressure": 1016.4, "cloudcover": 58.0, "visibility": 11.9, "solarradiation": 286.1, "solarenergy": 15.5, "sunrise": "05:41:30", "sunriseEpoch": 1527586890, "sunset": "20:17:48", "sunsetEpoch": 1527639468, "moonphase": 0.5, "conditions": "Partially cloudy", "icon": "partly-cloudy-day", "stations": ["72398093720", "74594693786", "KGED", "KSBY", "72409313764", "KOXB"], "source": "obs", "hours": null}], "stations": {"72398093720": {"distance": 264.0, "latitude": 38.341, "longitude": -75.513, "useCount": 0, "id": "72398093720", "name": "SALISBURY WICOMICO REGIONAL AIRPORT, MD US", "quality": 100, "contribution": 0.0}, "74594693786": {"distance": 33935.0, "latitude": 38.308, "longitude": -75.124, "useCount": 0, "id": "74594693786", "name": "OCEAN CITY MUNICIPAL AIRPORT, MD US", "quality": 99, "contribution": 0.0}, "KGED": {"distance": 39720.0, "latitude": 38.68, "longitude": -75.37, "useCount": 0, "id": "KGED", "name": "KGED", "quality": 98, "contribution": 0.0}, "KSBY": {"distance": 1443.0, "latitude": 38.33, "longitude": -75.52, "useCount": 0, "id": "KSBY", "name": "KSBY", "quality": 100, "contribution": 0.0}, "72409313764": {"distance": 40949.0, "latitude": 38.69, "longitude": -75.362, "useCount": 0, "id": "72409313764", "name": "GEORGETOWN DELAWARE COASTAL AIRPORT, DE US", "quality": 99, "contribution": 0.0}, "KOXB": {"distance": 34254.0, "latitude": 38.31, "longitude": -75.12, "useCount": 0, "id": "KOXB", "name": "KOXB", "quality": 100, "contribution": 0.0}}}