{"queryCost": 1, "latitude": 37.894199371338, "longitude": -121.2379989624, "resolvedAddress": "37.894199371338, -121.2379989624", "address": "37.894199371338, -121.2379989624", "timezone": "America/Los_Angeles", "tzoffset": -8.0, "days": [{"datetime": "2020-01-03", "datetimeEpoch": 1578038400, "tempmax": 15.6, "tempmin": 6.1, "temp": 9.6, "feelslikemax": 15.6, "feelslikemin": 4.2, "feelslike": 8.5, "dew": 6.5, "humidity": 82.07, "precip": 0.0, "precipprob": null, "precipcover": 0.0, "preciptype": null, "snow": 0.0, "snowdepth": 0.0, "windgust": 33.5, "windspeed": 25.9, "winddir": 105.4, "pressure": 1023.3, "cloudcover": 0.0, "visibility": 5.9, "solarradiation": 192.4, "solarenergy": 7.6, "sunrise": "07:21:03", "sunriseEpoch": 1578064863, "sunset": "16:57:51", "sunsetEpoch": 1578099471, "moonphase": 0.26, "conditions": "Clear", "icon": "clear-day", "stations": ["KSCK", "KMOD", "KLVK", "72492723285", "72492623258", "72492023237"], "source": "obs", "hours": null}], "stations": {"KSCK": {"distance": 1236.0, "latitude": 37.9, "longitude": -121.25, "useCount": 0, "id": "KSCK", "name": "KSCK", "quality": 100, "contribution": 0.0}, "KMOD": {"distance": 38825.0, "latitude": 37.63, "longitude": -120.95, "useCount": 0, "id": "KMOD", "name": "KMOD", "quality": 100, "contribution": 0.0}, "KLVK": {"distance": 55572.0, "latitude": 37.7, "longitude": -121.82, "useCount": 0, "id": "KLVK", "name": "LIVERMORE, CA", "quality": 100, "contribution": 0.0}, "72492723285": {"distance": 55412.0, "latitude": 37.693, "longitude": -121.814, "useCount": 0, "id": "72492723285", "name": "LIVERMORE MUNICIPAL AIRPORT, CA US", "quality": 100, "contribution": 0.0}, "72492623258": {"distance": 39269.0, "latitude": 37.624, "longitude": -120.951, "useCount": 0, "id": "72492623258", "name": "MODESTO CITY CO AIRPORT, CA US", "quality": 100, "contribution": 0.0}, "72492023237": {"distance": 1197.0, "latitude": 37.889, "longitude": -121.226, "useCount": 0, "id": "72492023237", "name": "STOCKTON METROPOLITAN AIRPORT, CA US", "quality": 100, "contribution": 0.0}}}