{"queryCost": 1, "latitude": 38.1744, "longitude": -85.736, "resolvedAddress": "38.1744, -85.736", "address": "38.1744, -85.736", "timezone": "America/Kentucky/Louisville", "tzoffset": -4.0, "days": [{"datetime": "2019-06-06", "datetimeEpoch": 1559793600, "tempmax": 27.8, "tempmin": 20.6, "temp": 23.7, "feelslikemax": 29.5, "feelslikemin": 20.6, "feelslike": 24.0, "dew": 20.1, "humidity": 80.62, "precip": 1.3, "precipprob": null, "precipcover": 29.17, "preciptype": null, "snow": 0.0, "snowdepth": 0.0, "windgust": null, "windspeed": 16.5, "winddir": 153.0, "pressure": 1009.7, "cloudcover": 72.4, "visibility": 15.4, "solarradiation": 184.4, "solarenergy": 10.6, "sunrise": "06:20:11", "sunriseEpoch": 1559816411, "sunset": "21:03:20", "sunsetEpoch": 1559869400, "moonphase": 0.06, "conditions": "Rain, Partially cloudy", "icon": "rain", "stations": ["KFTK", "KLOU", "KSDF", "72423093821", "72424013807", "72423513810"], "source": "obs", "hours": null}], "stations": {"KFTK": {"distance": 36796.0, "latitude": 37.9, "longitude": -85.97, "useCount": 0, "id": "KFTK", "name": "KFTK", "quality": 100, "contribution": 0.0}, "KLOU": {"distance": 7688.0, "latitude": 38.22, "longitude": -85.67, "useCount": 0, "id": "KLOU", "name": "KLOU", "quality": 100, "contribution": 0.0}, "KSDF": {"distance": 815.0, "latitude": 38.18, "longitude": -85.73, "useCount": 0, "id": "KSDF", "name": "KSDF", "quality": 100, "contribution": 0.0}, "72423093821": {"distance": 794.0, "latitude": 38.181, "longitude": -85.739, "useCount": 0, "id": "72423093821", "name": "LOUISVILLE INTERNATIONAL AIRPORT, KY US", "quality": 100, "contribution": 0.0}, "72424013807": {"distance": 36636.0, "latitude": 37.9, "longitude": -85.967, "useCount": 0, "id": "72424013807", "name": "FORT KNOX GODMAN ARMY AIR FIELD, KY US", "quality": 99, "contribution": 0.0}, "72423513810": {"distance": 8709.0, "latitude": 38.228, "longitude": -85.664, "useCount": 0, "id": "72423513810", "name": "LOUISVILLE BOWMAN FIELD, KY US", "quality": 100, "contribution": 0.0}}}