{"queryCost": 1, "latitude": 47.449001, "longitude": -122.308998, "resolvedAddress": "47.449001, -122.308998", "address": "47.449001, -122.308998", "timezone": "America/Los_Angeles", "tzoffset": -7.0, "days": [{"datetime": "2018-06-10", "datetimeEpoch": 1528614000, "tempmax": 16.2, "tempmin": 8.9, "temp": 11.9, "feelslikemax": 16.2, "feelslikemin": 6.1, "feelslike": 11.6, "dew": 6.9, "humidity": 71.97, "precip": 1.32, "precipprob": null, "precipcover": 20.83, "preciptype": null, "snow": 0.0, "snowdepth": 0.0, "windgust": 51.8, "windspeed": 36.9, "winddir": 193.8, "pressure": 1018.3, "cloudcover": 73.1, "visibility": 15.6, "solarradiation": null, "solarenergy": null, "sunrise": "05:12:21", "sunriseEpoch": 1528632741, "sunset": "21:05:27", "sunsetEpoch": 1528689927, "moonphase": 0.93, "conditions": "Rain, Partially cloudy", "icon": "rain", "stations": ["72793024233", "KSEA", "KBFI", "72793524234", "72793494248", "KRNT"], "source": "obs", "hours": null}], "stations": {"72793024233": {"distance": 636.0, "latitude": 47.444, "longitude": -122.314, "useCount": 0, "id": "72793024233", "name": "SEATTLE TACOMA AIRPORT, WA US", "quality": 100, "contribution": 0.0}, "KSEA": {"distance": 686.0, "latitude": 47.45, "longitude": -122.3, "useCount": 0, "id": "KSEA", "name": "KSEA", "quality": 100, "contribution": 0.0}, "KBFI": {"distance": 9042.0, "latitude": 47.53, "longitude": -122.3, "useCount": 0, "id": "KBFI", "name": "KBFI", "quality": 100, "contribution": 0.0}, "72793524234": {"distance": 9070.0, "latitude": 47.53, "longitude": -122.301, "useCount": 0, "id": "72793524234", "name": "SEATTLE BOEING FIELD, WA US", "quality": 100, "contribution": 0.0}, "72793494248": {"distance": 8684.0, "latitude": 47.493, "longitude": -122.214, "useCount": 0, "id": "72793494248", "name": "RENTON MUNICIPAL AIRPORT, WA US", "quality": 100, "contribution": 0.0}, "KRNT": {"distance": 8779.0, "latitude": 47.5, "longitude": -122.22, "useCount": 0, "id": "KRNT", "name": "KRNT", "quality": 100, "contribution": 0.0}}}