{"queryCost": 1, "latitude": 47.449001, "longitude": -122.308998, "resolvedAddress": "47.449001, -122.308998", "address": "47.449001, -122.308998", "timezone": "America/Los_Angeles", "tzoffset": -8.0, "days": [{"datetime": "2019-01-19", "datetimeEpoch": 1547884800, "tempmax": 10.0, "tempmin": 5.7, "temp": 8.6, "feelslikemax": 10.0, "feelslikemin": 3.2, "feelslike": 6.2, "dew": 5.7, "humidity": 81.92, "precip": 3.1, "precipprob": null, "precipcover": 33.33, "preciptype": null, "snow": 0.0, "snowdepth": 0.0, "windgust": 44.6, "windspeed": 27.6, "winddir": 185.7, "pressure": 1019.4, "cloudcover": 63.6, "visibility": 13.6, "solarradiation": 85.1, "solarenergy": 2.8, "sunrise": "07:49:20", "sunriseEpoch": 1547912960, "sunset": "16:51:04", "sunsetEpoch": 1547945464, "moonphase": 0.48, "conditions": "Rain, Partially cloudy", "icon": "rain", "stations": ["72793024233", "KSEA", "KBFI", "72793524234", "72793494248", "KRNT"], "source": "obs", "hours": null}], "stations": {"72793024233": {"distance": 636.0, "latitude": 47.444, "longitude": -122.314, "useCount": 0, "id": "72793024233", "name": "SEATTLE TACOMA AIRPORT, WA US", "quality": 100, "contribution": 0.0}, "KSEA": {"distance": 686.0, "latitude": 47.45, "longitude": -122.3, "useCount": 0, "id": "KSEA", "name": "KSEA", "quality": 100, "contribution": 0.0}, "KBFI": {"distance": 9042.0, "latitude": 47.53, "longitude": -122.3, "useCount": 0, "id": "KBFI", "name": "KBFI", "quality": 100, "contribution": 0.0}, "72793524234": {"distance": 9070.0, "latitude": 47.53, "longitude": -122.301, "useCount": 0, "id": "72793524234", "name": "SEATTLE BOEING FIELD, WA US", "quality": 100, "contribution": 0.0}, "72793494248": {"distance": 8684.0, "latitude": 47.493, "longitude": -122.214, "useCount": 0, "id": "72793494248", "name": "RENTON MUNICIPAL AIRPORT, WA US", "quality": 100, "contribution": 0.0}, "KRNT": {"distance": 8779.0, "latitude": 47.5, "longitude": -122.22, "useCount": 0, "id": "KRNT", "name": "KRNT", "quality": 100, "contribution": 0.0}}}