{"queryCost": 1, "latitude": 47.449001, "longitude": -122.308998, "resolvedAddress": "47.449001, -122.308998", "address": "47.449001, -122.308998", "timezone": "America/Los_Angeles", "tzoffset": -8.0, "days": [{"datetime": "2019-02-08", "datetimeEpoch": 1549612800, "tempmax": 2.2, "tempmin": -1.6, "temp": 0.2, "feelslikemax": -1.0, "feelslikemin": -6.7, "feelslike": -3.2, "dew": -2.7, "humidity": 81.25, "precip": 10.57, "precipprob": null, "precipcover": 45.83, "preciptype": null, "snow": 5.22, "snowdepth": 15.0, "windgust": 25.9, "windspeed": 20.5, "winddir": 117.3, "pressure": 1016.3, "cloudcover": 81.1, "visibility": 9.4, "solarradiation": 79.4, "solarenergy": 2.6, "sunrise": "07:25:44", "sunriseEpoch": 1549639544, "sunset": "17:21:44", "sunsetEpoch": 1549675304, "moonphase": 0.06, "conditions": "Snow, Overcast", "icon": "snow", "stations": ["72793024233", "KSEA", "KBFI", "72793524234", "72793494248", "KRNT"], "source": "obs", "hours": null}], "stations": {"72793024233": {"distance": 636.0, "latitude": 47.444, "longitude": -122.314, "useCount": 0, "id": "72793024233", "name": "SEATTLE TACOMA AIRPORT, WA US", "quality": 100, "contribution": 0.0}, "KSEA": {"distance": 686.0, "latitude": 47.45, "longitude": -122.3, "useCount": 0, "id": "KSEA", "name": "KSEA", "quality": 100, "contribution": 0.0}, "KBFI": {"distance": 9042.0, "latitude": 47.53, "longitude": -122.3, "useCount": 0, "id": "KBFI", "name": "KBFI", "quality": 100, "contribution": 0.0}, "72793524234": {"distance": 9070.0, "latitude": 47.53, "longitude": -122.301, "useCount": 0, "id": "72793524234", "name": "SEATTLE BOEING FIELD, WA US", "quality": 100, "contribution": 0.0}, "72793494248": {"distance": 8684.0, "latitude": 47.493, "longitude": -122.214, "useCount": 0, "id": "72793494248", "name": "RENTON MUNICIPAL AIRPORT, WA US", "quality": 100, "contribution": 0.0}, "KRNT": {"distance": 8779.0, "latitude": 47.5, "longitude": -122.22, "useCount": 0, "id": "KRNT", "name": "KRNT", "quality": 100, "contribution": 0.0}}}