{"queryCost": 1, "latitude": 47.449001, "longitude": -122.308998, "resolvedAddress": "47.449001, -122.308998", "address": "47.449001, -122.308998", "timezone": "America/Los_Angeles", "tzoffset": -8.0, "days": [{"datetime": "2020-01-06", "datetimeEpoch": 1578297600, "tempmax": 10.6, "tempmin": 5.0, "temp": 8.4, "feelslikemax": 10.6, "feelslikemin": 1.5, "feelslike": 6.6, "dew": 7.0, "humidity": 91.14, "precip": 27.46, "precipprob": null, "precipcover": 95.83, "preciptype": null, "snow": 0.0, "snowdepth": 0.0, "windgust": 53.5, "windspeed": 36.9, "winddir": 181.7, "pressure": 1021.0, "cloudcover": 88.6, "visibility": 8.6, "solarradiation": 43.1, "solarenergy": 1.4, "sunrise": "07:56:22", "sunriseEpoch": 1578326182, "sunset": "16:33:53", "sunsetEpoch": 1578357233, "moonphase": 0.4, "conditions": "Rain, Overcast", "icon": "rain", "stations": ["72793024233", "KSEA", "KBFI", "72793524234", "72793494248", "KRNT"], "source": "obs", "hours": null}], "stations": {"72793024233": {"distance": 636.0, "latitude": 47.444, "longitude": -122.314, "useCount": 0, "id": "72793024233", "name": "SEATTLE TACOMA AIRPORT, WA US", "quality": 100, "contribution": 0.0}, "KSEA": {"distance": 686.0, "latitude": 47.45, "longitude": -122.3, "useCount": 0, "id": "KSEA", "name": "KSEA", "quality": 100, "contribution": 0.0}, "KBFI": {"distance": 9042.0, "latitude": 47.53, "longitude": -122.3, "useCount": 0, "id": "KBFI", "name": "KBFI", "quality": 100, "contribution": 0.0}, "72793524234": {"distance": 9070.0, "latitude": 47.53, "longitude": -122.301, "useCount": 0, "id": "72793524234", "name": "SEATTLE BOEING FIELD, WA US", "quality": 100, "contribution": 0.0}, "72793494248": {"distance": 8684.0, "latitude": 47.493, "longitude": -122.214, "useCount": 0, "id": "72793494248", "name": "RENTON MUNICIPAL AIRPORT, WA US", "quality": 100, "contribution": 0.0}, "KRNT": {"distance": 8779.0, "latitude": 47.5, "longitude": -122.22, "useCount": 0, "id": "KRNT", "name": "KRNT", "quality": 100, "contribution": 0.0}}}