{"queryCost": 1, "latitude": 47.449001, "longitude": -122.308998, "resolvedAddress": "47.449001, -122.308998", "address": "47.449001, -122.308998", "timezone": "America/Los_Angeles", "tzoffset": -8.0, "days": [{"datetime": "2018-02-28", "datetimeEpoch": 1519804800, "tempmax": 8.3, "tempmin": 4.3, "temp": 6.0, "feelslikemax": 7.2, "feelslikemin": 0.5, "feelslike": 3.1, "dew": 2.3, "humidity": 77.07, "precip": 3.91, "precipprob": null, "precipcover": 45.83, "preciptype": null, "snow": 0.0, "snowdepth": 0.0, "windgust": 42.4, "windspeed": 25.8, "winddir": 160.4, "pressure": 1008.8, "cloudcover": 98.6, "visibility": 15.6, "solarradiation": null, "solarenergy": null, "sunrise": "06:51:08", "sunriseEpoch": 1519829468, "sunset": "17:53:01", "sunsetEpoch": 1519869181, "moonphase": 0.48, "conditions": "Rain, Overcast", "icon": "rain", "stations": ["72793024233", "KSEA", "KBFI", "72793524234", "72793494248", "KRNT"], "source": "obs", "hours": null}], "stations": {"72793024233": {"distance": 636.0, "latitude": 47.444, "longitude": -122.314, "useCount": 0, "id": "72793024233", "name": "SEATTLE TACOMA AIRPORT, WA US", "quality": 100, "contribution": 0.0}, "KSEA": {"distance": 686.0, "latitude": 47.45, "longitude": -122.3, "useCount": 0, "id": "KSEA", "name": "KSEA", "quality": 100, "contribution": 0.0}, "KBFI": {"distance": 9042.0, "latitude": 47.53, "longitude": -122.3, "useCount": 0, "id": "KBFI", "name": "KBFI", "quality": 100, "contribution": 0.0}, "72793524234": {"distance": 9070.0, "latitude": 47.53, "longitude": -122.301, "useCount": 0, "id": "72793524234", "name": "SEATTLE BOEING FIELD, WA US", "quality": 100, "contribution": 0.0}, "72793494248": {"distance": 8684.0, "latitude": 47.493, "longitude": -122.214, "useCount": 0, "id": "72793494248", "name": "RENTON MUNICIPAL AIRPORT, WA US", "quality": 100, "contribution": 0.0}, "KRNT": {"distance": 8779.0, "latitude": 47.5, "longitude": -122.22, "useCount": 0, "id": "KRNT", "name": "KRNT", "quality": 100, "contribution": 0.0}}}