{"queryCost": 1, "latitude": 47.449001, "longitude": -122.308998, "resolvedAddress": "47.449001, -122.308998", "address": "47.449001, -122.308998", "timezone": "America/Los_Angeles", "tzoffset": -8.0, "days": [{"datetime": "2019-02-09", "datetimeEpoch": 1549699200, "tempmax": 0.0, "tempmin": -2.8, "temp": -1.3, "feelslikemax": -5.5, "feelslikemin": -9.6, "feelslike": -7.1, "dew": -4.4, "humidity": 80.13, "precip": 5.32, "precipprob": null, "precipcover": 33.33, "preciptype": null, "snow": 1.88, "snowdepth": 16.88, "windgust": 53.6, "windspeed": 36.8, "winddir": 168.8, "pressure": 1006.4, "cloudcover": 61.1, "visibility": 9.7, "solarradiation": 16.8, "solarenergy": 0.6, "sunrise": "07:24:14", "sunriseEpoch": 1549725854, "sunset": "17:23:19", "sunsetEpoch": 1549761799, "moonphase": 0.09, "conditions": "Snow, Partially cloudy", "icon": "snow", "stations": ["72793024233", "KSEA", "KBFI", "72793524234", "72793494248", "KRNT"], "source": "obs", "hours": null}], "stations": {"72793024233": {"distance": 636.0, "latitude": 47.444, "longitude": -122.314, "useCount": 0, "id": "72793024233", "name": "SEATTLE TACOMA AIRPORT, WA US", "quality": 100, "contribution": 0.0}, "KSEA": {"distance": 686.0, "latitude": 47.45, "longitude": -122.3, "useCount": 0, "id": "KSEA", "name": "KSEA", "quality": 100, "contribution": 0.0}, "KBFI": {"distance": 9042.0, "latitude": 47.53, "longitude": -122.3, "useCount": 0, "id": "KBFI", "name": "KBFI", "quality": 100, "contribution": 0.0}, "72793524234": {"distance": 9070.0, "latitude": 47.53, "longitude": -122.301, "useCount": 0, "id": "72793524234", "name": "SEATTLE BOEING FIELD, WA US", "quality": 100, "contribution": 0.0}, "72793494248": {"distance": 8684.0, "latitude": 47.493, "longitude": -122.214, "useCount": 0, "id": "72793494248", "name": "RENTON MUNICIPAL AIRPORT, WA US", "quality": 100, "contribution": 0.0}, "KRNT": {"distance": 8779.0, "latitude": 47.5, "longitude": -122.22, "useCount": 0, "id": "KRNT", "name": "KRNT", "quality": 100, "contribution": 0.0}}}