{"queryCost": 1, "latitude": 47.449001, "longitude": -122.308998, "resolvedAddress": "47.449001, -122.308998", "address": "47.449001, -122.308998", "timezone": "America/Los_Angeles", "tzoffset": -8.0, "days": [{"datetime": "2019-02-11", "datetimeEpoch": 1549872000, "tempmax": 2.8, "tempmin": -1.6, "temp": 0.6, "feelslikemax": 0.7, "feelslikemin": -5.7, "feelslike": -2.8, "dew": -1.7, "humidity": 84.91, "precip": 28.85, "precipprob": null, "precipcover": 45.83, "preciptype": null, "snow": 1.87, "snowdepth": 16.87, "windgust": 29.5, "windspeed": 18.3, "winddir": 127.3, "pressure": 1006.8, "cloudcover": 73.1, "visibility": 7.3, "solarradiation": 26.0, "solarenergy": 0.8, "sunrise": "07:21:09", "sunriseEpoch": 1549898469, "sunset": "17:26:27", "sunsetEpoch": 1549934787, "moonphase": 0.18, "conditions": "Snow, Partially cloudy", "icon": "snow", "stations": ["72793024233", "KSEA", "KBFI", "72793524234", "72793494248", "KRNT"], "source": "obs", "hours": null}], "stations": {"72793024233": {"distance": 636.0, "latitude": 47.444, "longitude": -122.314, "useCount": 0, "id": "72793024233", "name": "SEATTLE TACOMA AIRPORT, WA US", "quality": 100, "contribution": 0.0}, "KSEA": {"distance": 686.0, "latitude": 47.45, "longitude": -122.3, "useCount": 0, "id": "KSEA", "name": "KSEA", "quality": 100, "contribution": 0.0}, "KBFI": {"distance": 9042.0, "latitude": 47.53, "longitude": -122.3, "useCount": 0, "id": "KBFI", "name": "KBFI", "quality": 100, "contribution": 0.0}, "72793524234": {"distance": 9070.0, "latitude": 47.53, "longitude": -122.301, "useCount": 0, "id": "72793524234", "name": "SEATTLE BOEING FIELD, WA US", "quality": 100, "contribution": 0.0}, "72793494248": {"distance": 8684.0, "latitude": 47.493, "longitude": -122.214, "useCount": 0, "id": "72793494248", "name": "RENTON MUNICIPAL AIRPORT, WA US", "quality": 100, "contribution": 0.0}, "KRNT": {"distance": 8779.0, "latitude": 47.5, "longitude": -122.22, "useCount": 0, "id": "KRNT", "name": "KRNT", "quality": 100, "contribution": 0.0}}}