{"queryCost": 1, "latitude": 47.449001, "longitude": -122.308998, "resolvedAddress": "47.449001, -122.308998", "address": "47.449001, -122.308998", "timezone": "America/Los_Angeles", "tzoffset": -8.0, "days": [{"datetime": "2019-12-19", "datetimeEpoch": 1576742400, "tempmax": 11.7, "tempmin": 5.6, "temp": 8.1, "feelslikemax": 11.7, "feelslikemin": 2.3, "feelslike": 6.2, "dew": 5.8, "humidity": 85.73, "precip": 29.9, "precipprob": null, "precipcover": 62.5, "preciptype": null, "snow": 0.0, "snowdepth": 0.0, "windgust": 45.4, "windspeed": 29.4, "winddir": 141.0, "pressure": 1006.7, "cloudcover": 86.7, "visibility": 11.5, "solarradiation": 30.3, "solarenergy": 1.0, "sunrise": "07:52:53", "sunriseEpoch": 1576770773, "sunset": "16:19:48", "sunsetEpoch": 1576801188, "moonphase": 0.77, "conditions": "Rain, Overcast", "icon": "rain", "stations": ["72793024233", "KSEA", "KBFI", "72793524234", "72793494248", "KRNT"], "source": "obs", "hours": null}], "stations": {"72793024233": {"distance": 636.0, "latitude": 47.444, "longitude": -122.314, "useCount": 0, "id": "72793024233", "name": "SEATTLE TACOMA AIRPORT, WA US", "quality": 100, "contribution": 0.0}, "KSEA": {"distance": 686.0, "latitude": 47.45, "longitude": -122.3, "useCount": 0, "id": "KSEA", "name": "KSEA", "quality": 100, "contribution": 0.0}, "KBFI": {"distance": 9042.0, "latitude": 47.53, "longitude": -122.3, "useCount": 0, "id": "KBFI", "name": "KBFI", "quality": 100, "contribution": 0.0}, "72793524234": {"distance": 9070.0, "latitude": 47.53, "longitude": -122.301, "useCount": 0, "id": "72793524234", "name": "SEATTLE BOEING FIELD, WA US", "quality": 100, "contribution": 0.0}, "72793494248": {"distance": 8684.0, "latitude": 47.493, "longitude": -122.214, "useCount": 0, "id": "72793494248", "name": "RENTON MUNICIPAL AIRPORT, WA US", "quality": 100, "contribution": 0.0}, "KRNT": {"distance": 8779.0, "latitude": 47.5, "longitude": -122.22, "useCount": 0, "id": "KRNT", "name": "KRNT", "quality": 100, "contribution": 0.0}}}