{"queryCost": 1, "latitude": 47.449001, "longitude": -122.308998, "resolvedAddress": "47.449001, -122.308998", "address": "47.449001, -122.308998", "timezone": "America/Los_Angeles", "tzoffset": -7.0, "days": [{"datetime": "2019-08-29", "datetimeEpoch": 1567062000, "tempmax": 25.0, "tempmin": 15.0, "temp": 19.0, "feelslikemax": 25.0, "feelslikemin": 15.0, "feelslike": 19.1, "dew": 14.0, "humidity": 73.59, "precip": 1.54, "precipprob": null, "precipcover": 8.33, "preciptype": null, "snow": 0.0, "snowdepth": 0.0, "windgust": 29.5, "windspeed": 20.4, "winddir": 191.6, "pressure": 1015.4, "cloudcover": 57.7, "visibility": 15.5, "solarradiation": 251.3, "solarenergy": 11.8, "sunrise": "06:23:49", "sunriseEpoch": 1567085029, "sunset": "19:55:36", "sunsetEpoch": 1567133736, "moonphase": 1.0, "conditions": "Rain, Partially cloudy", "icon": "rain", "stations": ["72793024233", "KSEA", "KBFI", "72793524234", "72793494248", "KRNT"], "source": "obs", "hours": null}], "stations": {"72793024233": {"distance": 636.0, "latitude": 47.444, "longitude": -122.314, "useCount": 0, "id": "72793024233", "name": "SEATTLE TACOMA AIRPORT, WA US", "quality": 100, "contribution": 0.0}, "KSEA": {"distance": 686.0, "latitude": 47.45, "longitude": -122.3, "useCount": 0, "id": "KSEA", "name": "KSEA", "quality": 100, "contribution": 0.0}, "KBFI": {"distance": 9042.0, "latitude": 47.53, "longitude": -122.3, "useCount": 0, "id": "KBFI", "name": "KBFI", "quality": 100, "contribution": 0.0}, "72793524234": {"distance": 9070.0, "latitude": 47.53, "longitude": -122.301, "useCount": 0, "id": "72793524234", "name": "SEATTLE BOEING FIELD, WA US", "quality": 100, "contribution": 0.0}, "72793494248": {"distance": 8684.0, "latitude": 47.493, "longitude": -122.214, "useCount": 0, "id": "72793494248", "name": "RENTON MUNICIPAL AIRPORT, WA US", "quality": 100, "contribution": 0.0}, "KRNT": {"distance": 8779.0, "latitude": 47.5, "longitude": -122.22, "useCount": 0, "id": "KRNT", "name": "KRNT", "quality": 100, "contribution": 0.0}}}