{"queryCost": 1, "latitude": 47.449001, "longitude": -122.308998, "resolvedAddress": "47.449001, -122.308998", "address": "47.449001, -122.308998", "timezone": "America/Los_Angeles", "tzoffset": -8.0, "days": [{"datetime": "2018-02-22", "datetimeEpoch": 1519286400, "tempmax": 3.4, "tempmin": -3.3, "temp": -0.1, "feelslikemax": -1.4, "feelslikemin": -8.4, "feelslike": -4.4, "dew": -6.0, "humidity": 66.8, "precip": 0.0, "precipprob": null, "precipcover": 0.0, "preciptype": null, "snow": 1.04, "snowdepth": 3.0, "windgust": 25.9, "windspeed": 25.8, "winddir": 201.3, "pressure": 1026.9, "cloudcover": 45.5, "visibility": 15.5, "solarradiation": null, "solarenergy": null, "sunrise": "07:02:10", "sunriseEpoch": 1519311730, "sunset": "17:43:55", "sunsetEpoch": 1519350235, "moonphase": 0.2, "conditions": "Snow, Partially cloudy", "icon": "snow", "stations": ["72793024233", "KSEA", "KBFI", "72793524234", "72793494248", "KRNT"], "source": "obs", "hours": null}], "stations": {"72793024233": {"distance": 636.0, "latitude": 47.444, "longitude": -122.314, "useCount": 0, "id": "72793024233", "name": "SEATTLE TACOMA AIRPORT, WA US", "quality": 100, "contribution": 0.0}, "KSEA": {"distance": 686.0, "latitude": 47.45, "longitude": -122.3, "useCount": 0, "id": "KSEA", "name": "KSEA", "quality": 100, "contribution": 0.0}, "KBFI": {"distance": 9042.0, "latitude": 47.53, "longitude": -122.3, "useCount": 0, "id": "KBFI", "name": "KBFI", "quality": 100, "contribution": 0.0}, "72793524234": {"distance": 9070.0, "latitude": 47.53, "longitude": -122.301, "useCount": 0, "id": "72793524234", "name": "SEATTLE BOEING FIELD, WA US", "quality": 100, "contribution": 0.0}, "72793494248": {"distance": 8684.0, "latitude": 47.493, "longitude": -122.214, "useCount": 0, "id": "72793494248", "name": "RENTON MUNICIPAL AIRPORT, WA US", "quality": 100, "contribution": 0.0}, "KRNT": {"distance": 8779.0, "latitude": 47.5, "longitude": -122.22, "useCount": 0, "id": "KRNT", "name": "KRNT", "quality": 100, "contribution": 0.0}}}