{"queryCost": 1, "latitude": 47.449001, "longitude": -122.308998, "resolvedAddress": "47.449001, -122.308998", "address": "47.449001, -122.308998", "timezone": "America/Los_Angeles", "tzoffset": -7.0, "days": [{"datetime": "2019-09-25", "datetimeEpoch": 1569394800, "tempmax": 20.6, "tempmin": 13.3, "temp": 16.6, "feelslikemax": 20.6, "feelslikemin": 13.3, "feelslike": 16.6, "dew": 9.4, "humidity": 63.19, "precip": 0.0, "precipprob": null, "precipcover": 0.0, "preciptype": null, "snow": 0.0, "snowdepth": 0.0, "windgust": null, "windspeed": 16.5, "winddir": 150.9, "pressure": 1024.6, "cloudcover": 55.9, "visibility": 16.0, "solarradiation": 328.3, "solarenergy": 15.4, "sunrise": "06:59:50", "sunriseEpoch": 1569419990, "sunset": "19:01:09", "sunsetEpoch": 1569463269, "moonphase": 0.93, "conditions": "Partially cloudy", "icon": "partly-cloudy-day", "stations": ["72793024233", "KSEA", "KBFI", "72793524234", "72793494248", "KRNT"], "source": "obs", "hours": null}], "stations": {"72793024233": {"distance": 636.0, "latitude": 47.444, "longitude": -122.314, "useCount": 0, "id": "72793024233", "name": "SEATTLE TACOMA AIRPORT, WA US", "quality": 100, "contribution": 0.0}, "KSEA": {"distance": 686.0, "latitude": 47.45, "longitude": -122.3, "useCount": 0, "id": "KSEA", "name": "KSEA", "quality": 100, "contribution": 0.0}, "KBFI": {"distance": 9042.0, "latitude": 47.53, "longitude": -122.3, "useCount": 0, "id": "KBFI", "name": "KBFI", "quality": 100, "contribution": 0.0}, "72793524234": {"distance": 9070.0, "latitude": 47.53, "longitude": -122.301, "useCount": 0, "id": "72793524234", "name": "SEATTLE BOEING FIELD, WA US", "quality": 100, "contribution": 0.0}, "72793494248": {"distance": 8684.0, "latitude": 47.493, "longitude": -122.214, "useCount": 0, "id": "72793494248", "name": "RENTON MUNICIPAL AIRPORT, WA US", "quality": 100, "contribution": 0.0}, "KRNT": {"distance": 8779.0, "latitude": 47.5, "longitude": -122.22, "useCount": 0, "id": "KRNT", "name": "KRNT", "quality": 100, "contribution": 0.0}}}