{"queryCost": 1, "latitude": 47.449001, "longitude": -122.308998, "resolvedAddress": "47.449001, -122.308998", "address": "47.449001, -122.308998", "timezone": "America/Los_Angeles", "tzoffset": -7.0, "days": [{"datetime": "2018-05-02", "datetimeEpoch": 1525244400, "tempmax": 20.0, "tempmin": 7.2, "temp": 13.8, "feelslikemax": 20.0, "feelslikemin": 7.2, "feelslike": 13.7, "dew": 7.2, "humidity": 67.33, "precip": 0.0, "precipprob": null, "precipcover": 0.0, "preciptype": null, "snow": 0.0, "snowdepth": 0.0, "windgust": null, "windspeed": 18.3, "winddir": 188.9, "pressure": 1020.2, "cloudcover": 39.9, "visibility": 15.5, "solarradiation": null, "solarenergy": null, "sunrise": "05:50:41", "sunriseEpoch": 1525265441, "sunset": "20:22:35", "sunsetEpoch": 1525317755, "moonphase": 0.53, "conditions": "Partially cloudy", "icon": "partly-cloudy-day", "stations": ["72793024233", "KSEA", "KBFI", "72793524234", "72793494248", "KRNT"], "source": "obs", "hours": null}], "stations": {"72793024233": {"distance": 636.0, "latitude": 47.444, "longitude": -122.314, "useCount": 0, "id": "72793024233", "name": "SEATTLE TACOMA AIRPORT, WA US", "quality": 100, "contribution": 0.0}, "KSEA": {"distance": 686.0, "latitude": 47.45, "longitude": -122.3, "useCount": 0, "id": "KSEA", "name": "KSEA", "quality": 100, "contribution": 0.0}, "KBFI": {"distance": 9042.0, "latitude": 47.53, "longitude": -122.3, "useCount": 0, "id": "KBFI", "name": "KBFI", "quality": 100, "contribution": 0.0}, "72793524234": {"distance": 9070.0, "latitude": 47.53, "longitude": -122.301, "useCount": 0, "id": "72793524234", "name": "SEATTLE BOEING FIELD, WA US", "quality": 100, "contribution": 0.0}, "72793494248": {"distance": 8684.0, "latitude": 47.493, "longitude": -122.214, "useCount": 0, "id": "72793494248", "name": "RENTON MUNICIPAL AIRPORT, WA US", "quality": 100, "contribution": 0.0}, "KRNT": {"distance": 8779.0, "latitude": 47.5, "longitude": -122.22, "useCount": 0, "id": "KRNT", "name": "KRNT", "quality": 100, "contribution": 0.0}}}