{"queryCost": 1, "latitude": 47.449001, "longitude": -122.308998, "resolvedAddress": "47.449001, -122.308998", "address": "47.449001, -122.308998", "timezone": "America/Los_Angeles", "tzoffset": -8.0, "days": [{"datetime": "2019-02-05", "datetimeEpoch": 1549353600, "tempmax": 1.2, "tempmin": -6.2, "temp": -2.3, "feelslikemax": 1.2, "feelslikemin": -9.9, "feelslike": -4.8, "dew": -8.2, "humidity": 64.52, "precip": 0.0, "precipprob": null, "precipcover": 0.0, "preciptype": null, "snow": 1.74, "snowdepth": 8.0, "windgust": null, "windspeed": 13.0, "winddir": 115.5, "pressure": 1013.6, "cloudcover": 33.4, "visibility": 16.0, "solarradiation": 207.6, "solarenergy": 8.2, "sunrise": "07:30:06", "sunriseEpoch": 1549380606, "sunset": "17:17:01", "sunsetEpoch": 1549415821, "moonphase": 0.0, "conditions": "Snow, Partially cloudy", "icon": "snow", "stations": ["72793024233", "KSEA", "KBFI", "72793524234", "72793494248", "KRNT"], "source": "obs", "hours": null}], "stations": {"72793024233": {"distance": 636.0, "latitude": 47.444, "longitude": -122.314, "useCount": 0, "id": "72793024233", "name": "SEATTLE TACOMA AIRPORT, WA US", "quality": 100, "contribution": 0.0}, "KSEA": {"distance": 686.0, "latitude": 47.45, "longitude": -122.3, "useCount": 0, "id": "KSEA", "name": "KSEA", "quality": 100, "contribution": 0.0}, "KBFI": {"distance": 9042.0, "latitude": 47.53, "longitude": -122.3, "useCount": 0, "id": "KBFI", "name": "KBFI", "quality": 100, "contribution": 0.0}, "72793524234": {"distance": 9070.0, "latitude": 47.53, "longitude": -122.301, "useCount": 0, "id": "72793524234", "name": "SEATTLE BOEING FIELD, WA US", "quality": 100, "contribution": 0.0}, "72793494248": {"distance": 8684.0, "latitude": 47.493, "longitude": -122.214, "useCount": 0, "id": "72793494248", "name": "RENTON MUNICIPAL AIRPORT, WA US", "quality": 100, "contribution": 0.0}, "KRNT": {"distance": 8779.0, "latitude": 47.5, "longitude": -122.22, "useCount": 0, "id": "KRNT", "name": "KRNT", "quality": 100, "contribution": 0.0}}}