{"queryCost": 1, "latitude": 47.449001, "longitude": -122.308998, "resolvedAddress": "47.449001, -122.308998", "address": "47.449001, -122.308998", "timezone": "America/Los_Angeles", "tzoffset": -7.0, "days": [{"datetime": "2019-10-17", "datetimeEpoch": 1571295600, "tempmax": 13.4, "tempmin": 10.7, "temp": 11.9, "feelslikemax": 13.4, "feelslikemin": 10.7, "feelslike": 11.9, "dew": 8.2, "humidity": 78.2, "precip": 3.97, "precipprob": null, "precipcover": 37.5, "preciptype": null, "snow": 0.0, "snowdepth": 0.0, "windgust": 46.7, "windspeed": 35.1, "winddir": 186.4, "pressure": 1006.0, "cloudcover": 74.5, "visibility": 15.2, "solarradiation": 125.3, "solarenergy": 5.4, "sunrise": "07:30:32", "sunriseEpoch": 1571322632, "sunset": "18:17:52", "sunsetEpoch": 1571361472, "moonphase": 0.56, "conditions": "Rain, Partially cloudy", "icon": "rain", "stations": ["72793024233", "KSEA", "KBFI", "72793524234", "72793494248", "KRNT"], "source": "obs", "hours": null}], "stations": {"72793024233": {"distance": 636.0, "latitude": 47.444, "longitude": -122.314, "useCount": 0, "id": "72793024233", "name": "SEATTLE TACOMA AIRPORT, WA US", "quality": 100, "contribution": 0.0}, "KSEA": {"distance": 686.0, "latitude": 47.45, "longitude": -122.3, "useCount": 0, "id": "KSEA", "name": "KSEA", "quality": 100, "contribution": 0.0}, "KBFI": {"distance": 9042.0, "latitude": 47.53, "longitude": -122.3, "useCount": 0, "id": "KBFI", "name": "KBFI", "quality": 100, "contribution": 0.0}, "72793524234": {"distance": 9070.0, "latitude": 47.53, "longitude": -122.301, "useCount": 0, "id": "72793524234", "name": "SEATTLE BOEING FIELD, WA US", "quality": 100, "contribution": 0.0}, "72793494248": {"distance": 8684.0, "latitude": 47.493, "longitude": -122.214, "useCount": 0, "id": "72793494248", "name": "RENTON MUNICIPAL AIRPORT, WA US", "quality": 100, "contribution": 0.0}, "KRNT": {"distance": 8779.0, "latitude": 47.5, "longitude": -122.22, "useCount": 0, "id": "KRNT", "name": "KRNT", "quality": 100, "contribution": 0.0}}}