{"queryCost": 1, "latitude": 47.449001, "longitude": -122.308998, "resolvedAddress": "47.449001, -122.308998", "address": "47.449001, -122.308998", "timezone": "America/Los_Angeles", "tzoffset": -8.0, "days": [{"datetime": "2019-02-01", "datetimeEpoch": 1549008000, "tempmax": 10.0, "tempmin": 7.2, "temp": 8.7, "feelslikemax": 10.0, "feelslikemin": 4.9, "feelslike": 7.0, "dew": 6.2, "humidity": 84.78, "precip": 17.07, "precipprob": null, "precipcover": 66.67, "preciptype": null, "snow": 0.0, "snowdepth": 0.0, "windgust": 29.5, "windspeed": 20.4, "winddir": 185.8, "pressure": 1003.8, "cloudcover": 75.7, "visibility": 11.7, "solarradiation": 41.5, "solarenergy": 1.5, "sunrise": "07:35:30", "sunriseEpoch": 1549035330, "sunset": "17:10:44", "sunsetEpoch": 1549069844, "moonphase": 0.95, "conditions": "Rain, Overcast", "icon": "rain", "stations": ["72793024233", "KSEA", "KBFI", "72793524234", "72793494248", "KRNT"], "source": "obs", "hours": null}], "stations": {"72793024233": {"distance": 636.0, "latitude": 47.444, "longitude": -122.314, "useCount": 0, "id": "72793024233", "name": "SEATTLE TACOMA AIRPORT, WA US", "quality": 100, "contribution": 0.0}, "KSEA": {"distance": 686.0, "latitude": 47.45, "longitude": -122.3, "useCount": 0, "id": "KSEA", "name": "KSEA", "quality": 100, "contribution": 0.0}, "KBFI": {"distance": 9042.0, "latitude": 47.53, "longitude": -122.3, "useCount": 0, "id": "KBFI", "name": "KBFI", "quality": 100, "contribution": 0.0}, "72793524234": {"distance": 9070.0, "latitude": 47.53, "longitude": -122.301, "useCount": 0, "id": "72793524234", "name": "SEATTLE BOEING FIELD, WA US", "quality": 100, "contribution": 0.0}, "72793494248": {"distance": 8684.0, "latitude": 47.493, "longitude": -122.214, "useCount": 0, "id": "72793494248", "name": "RENTON MUNICIPAL AIRPORT, WA US", "quality": 100, "contribution": 0.0}, "KRNT": {"distance": 8779.0, "latitude": 47.5, "longitude": -122.22, "useCount": 0, "id": "KRNT", "name": "KRNT", "quality": 100, "contribution": 0.0}}}