{"queryCost": 1, "latitude": 47.449001, "longitude": -122.308998, "resolvedAddress": "47.449001, -122.308998", "address": "47.449001, -122.308998", "timezone": "America/Los_Angeles", "tzoffset": -7.0, "days": [{"datetime": "2019-10-21", "datetimeEpoch": 1571641200, "tempmax": 15.0, "tempmin": 11.2, "temp": 12.8, "feelslikemax": 15.0, "feelslikemin": 11.2, "feelslike": 12.8, "dew": 9.8, "humidity": 82.33, "precip": 9.09, "precipprob": null, "precipcover": 37.5, "preciptype": null, "snow": 0.0, "snowdepth": 0.0, "windgust": 46.4, "windspeed": 27.6, "winddir": 186.0, "pressure": 1021.2, "cloudcover": 81.1, "visibility": 12.2, "solarradiation": 39.3, "solarenergy": 1.4, "sunrise": "07:36:21", "sunriseEpoch": 1571668581, "sunset": "18:10:35", "sunsetEpoch": 1571706635, "moonphase": 0.75, "conditions": "Rain, Overcast", "icon": "rain", "stations": ["72793024233", "KSEA", "KBFI", "72793524234", "72793494248", "KRNT"], "source": "obs", "hours": null}], "stations": {"72793024233": {"distance": 636.0, "latitude": 47.444, "longitude": -122.314, "useCount": 0, "id": "72793024233", "name": "SEATTLE TACOMA AIRPORT, WA US", "quality": 100, "contribution": 0.0}, "KSEA": {"distance": 686.0, "latitude": 47.45, "longitude": -122.3, "useCount": 0, "id": "KSEA", "name": "KSEA", "quality": 100, "contribution": 0.0}, "KBFI": {"distance": 9042.0, "latitude": 47.53, "longitude": -122.3, "useCount": 0, "id": "KBFI", "name": "KBFI", "quality": 100, "contribution": 0.0}, "72793524234": {"distance": 9070.0, "latitude": 47.53, "longitude": -122.301, "useCount": 0, "id": "72793524234", "name": "SEATTLE BOEING FIELD, WA US", "quality": 100, "contribution": 0.0}, "72793494248": {"distance": 8684.0, "latitude": 47.493, "longitude": -122.214, "useCount": 0, "id": "72793494248", "name": "RENTON MUNICIPAL AIRPORT, WA US", "quality": 100, "contribution": 0.0}, "KRNT": {"distance": 8779.0, "latitude": 47.5, "longitude": -122.22, "useCount": 0, "id": "KRNT", "name": "KRNT", "quality": 100, "contribution": 0.0}}}