{"queryCost": 1, "latitude": 47.449001, "longitude": -122.308998, "resolvedAddress": "47.449001, -122.308998", "address": "47.449001, -122.308998", "timezone": "America/Los_Angeles", "tzoffset": -8.0, "days": [{"datetime": "2018-01-25", "datetimeEpoch": 1516867200, "tempmax": 6.2, "tempmin": 3.8, "temp": 4.7, "feelslikemax": 5.0, "feelslikemin": -0.4, "feelslike": 1.4, "dew": 2.0, "humidity": 82.56, "precip": 3.88, "precipprob": null, "precipcover": 45.83, "preciptype": null, "snow": 0.0, "snowdepth": 0.0, "windgust": 40.7, "windspeed": 29.4, "winddir": 153.3, "pressure": 1007.9, "cloudcover": 96.8, "visibility": 14.8, "solarradiation": null, "solarenergy": null, "sunrise": "07:43:26", "sunriseEpoch": 1516895006, "sunset": "17:00:18", "sunsetEpoch": 1516928418, "moonphase": 0.28, "conditions": "Rain, Overcast", "icon": "rain", "stations": ["72793024233", "KSEA", "KBFI", "72793524234", "72793494248", "KRNT"], "source": "obs", "hours": null}], "stations": {"72793024233": {"distance": 636.0, "latitude": 47.444, "longitude": -122.314, "useCount": 0, "id": "72793024233", "name": "SEATTLE TACOMA AIRPORT, WA US", "quality": 100, "contribution": 0.0}, "KSEA": {"distance": 686.0, "latitude": 47.45, "longitude": -122.3, "useCount": 0, "id": "KSEA", "name": "KSEA", "quality": 100, "contribution": 0.0}, "KBFI": {"distance": 9042.0, "latitude": 47.53, "longitude": -122.3, "useCount": 0, "id": "KBFI", "name": "KBFI", "quality": 100, "contribution": 0.0}, "72793524234": {"distance": 9070.0, "latitude": 47.53, "longitude": -122.301, "useCount": 0, "id": "72793524234", "name": "SEATTLE BOEING FIELD, WA US", "quality": 100, "contribution": 0.0}, "72793494248": {"distance": 8684.0, "latitude": 47.493, "longitude": -122.214, "useCount": 0, "id": "72793494248", "name": "RENTON MUNICIPAL AIRPORT, WA US", "quality": 100, "contribution": 0.0}, "KRNT": {"distance": 8779.0, "latitude": 47.5, "longitude": -122.22, "useCount": 0, "id": "KRNT", "name": "KRNT", "quality": 100, "contribution": 0.0}}}