{"queryCost": 1, "latitude": 28.777599334716797, "longitude": -81.23750305175781, "resolvedAddress": "28.777599334716797, -81.23750305175781", "address": "28.777599334716797, -81.23750305175781", "timezone": "America/New_York", "tzoffset": -5.0, "days": [{"datetime": "2020-01-04", "datetimeEpoch": 1578114000, "tempmax": 26.2, "tempmin": 16.2, "temp": 21.1, "feelslikemax": 26.2, "feelslikemin": 16.2, "feelslike": 21.1, "dew": 17.9, "humidity": 81.89, "precip": 8.51, "precipprob": null, "precipcover": 12.5, "preciptype": null, "snow": 0.0, "snowdepth": 0.0, "windgust": 60.1, "windspeed": 33.1, "winddir": 220.0, "pressure": 1016.3, "cloudcover": 36.3, "visibility": 15.2, "solarradiation": 55.3, "solarenergy": 3.8, "sunrise": "07:18:48", "sunriseEpoch": 1578140328, "sunset": "17:40:53", "sunsetEpoch": 1578177653, "moonphase": 0.31, "conditions": "Rain, Partially cloudy", "icon": "rain", "stations": ["72205312841", "72205712854", "KSFB", "KDED", "KORL", "72090400299"], "source": "obs", "hours": null}], "stations": {"72205312841": {"distance": 27494.0, "latitude": 28.545, "longitude": -81.333, "useCount": 0, "id": "72205312841", "name": "ORLANDO EXECUTIVE AIRPORT, FL US", "quality": 100, "contribution": 0.0}, "72205712854": {"distance": 639.0, "latitude": 28.78, "longitude": -81.244, "useCount": 0, "id": "72205712854", "name": "ORLANDO SANFORD AIRPORT, FL US", "quality": 100, "contribution": 0.0}, "KSFB": {"distance": 779.0, "latitude": 28.78, "longitude": -81.23, "useCount": 0, "id": "KSFB", "name": "KSFB", "quality": 100, "contribution": 0.0}, "KDED": {"distance": 31708.0, "latitude": 29.06, "longitude": -81.28, "useCount": 0, "id": "KDED", "name": "KDED", "quality": 96, "contribution": 0.0}, "KORL": {"distance": 26899.0, "latitude": 28.55, "longitude": -81.33, "useCount": 0, "id": "KORL", "name": "KORL", "quality": 100, "contribution": 0.0}, "72090400299": {"distance": 32520.0, "latitude": 29.067, "longitude": -81.283, "useCount": 0, "id": "72090400299", "name": "DELAND MUNICIPAL AIRPORT SYDNEY H TAYLOR FIELD, FL US", "quality": 100, "contribution": 0.0}}}