{"queryCost": 1, "latitude": 28.777599334716797, "longitude": -81.23750305175781, "resolvedAddress": "28.777599334716797, -81.23750305175781", "address": "28.777599334716797, -81.23750305175781", "timezone": "America/New_York", "tzoffset": -4.0, "days": [{"datetime": "2019-04-23", "datetimeEpoch": 1555992000, "tempmax": 28.8, "tempmin": 13.4, "temp": 21.0, "feelslikemax": 28.0, "feelslikemin": 13.4, "feelslike": 20.9, "dew": 13.6, "humidity": 66.28, "precip": 0.0, "precipprob": null, "precipcover": 0.0, "preciptype": null, "snow": 0.0, "snowdepth": 0.0, "windgust": null, "windspeed": 18.4, "winddir": 85.3, "pressure": 1019.5, "cloudcover": 2.3, "visibility": 16.0, "solarradiation": 512.9, "solarenergy": 25.9, "sunrise": "06:51:21", "sunriseEpoch": 1556016681, "sunset": "19:55:38", "sunsetEpoch": 1556063738, "moonphase": 0.6, "conditions": "Clear", "icon": "clear-day", "stations": ["72205312841", "72205712854", "KSFB", "KDED", "KORL", "72090400299"], "source": "obs", "hours": null}], "stations": {"72205312841": {"distance": 27494.0, "latitude": 28.545, "longitude": -81.333, "useCount": 0, "id": "72205312841", "name": "ORLANDO EXECUTIVE AIRPORT, FL US", "quality": 100, "contribution": 0.0}, "72205712854": {"distance": 639.0, "latitude": 28.78, "longitude": -81.244, "useCount": 0, "id": "72205712854", "name": "ORLANDO SANFORD AIRPORT, FL US", "quality": 100, "contribution": 0.0}, "KSFB": {"distance": 779.0, "latitude": 28.78, "longitude": -81.23, "useCount": 0, "id": "KSFB", "name": "KSFB", "quality": 100, "contribution": 0.0}, "KDED": {"distance": 31708.0, "latitude": 29.06, "longitude": -81.28, "useCount": 0, "id": "KDED", "name": "KDED", "quality": 96, "contribution": 0.0}, "KORL": {"distance": 26899.0, "latitude": 28.55, "longitude": -81.33, "useCount": 0, "id": "KORL", "name": "KORL", "quality": 100, "contribution": 0.0}, "72090400299": {"distance": 32520.0, "latitude": 29.067, "longitude": -81.283, "useCount": 0, "id": "72090400299", "name": "DELAND MUNICIPAL AIRPORT SYDNEY H TAYLOR FIELD, FL US", "quality": 100, "contribution": 0.0}}}