{"queryCost": 1, "latitude": 28.777599334716797, "longitude": -81.23750305175781, "resolvedAddress": "28.777599334716797, -81.23750305175781", "address": "28.777599334716797, -81.23750305175781", "timezone": "America/New_York", "tzoffset": -5.0, "days": [{"datetime": "2019-02-21", "datetimeEpoch": 1550725200, "tempmax": 27.8, "tempmin": 18.3, "temp": 22.9, "feelslikemax": 29.8, "feelslikemin": 18.3, "feelslike": 23.2, "dew": 20.6, "humidity": 87.82, "precip": 0.5, "precipprob": null, "precipcover": 12.5, "preciptype": null, "snow": 0.0, "snowdepth": 0.0, "windgust": 51.8, "windspeed": 16.6, "winddir": 136.8, "pressure": 1019.6, "cloudcover": 32.8, "visibility": 14.1, "solarradiation": 279.1, "solarenergy": 12.1, "sunrise": "06:58:11", "sunriseEpoch": 1550750291, "sunset": "18:19:19", "sunsetEpoch": 1550791159, "moonphase": 0.53, "conditions": "Rain, Partially cloudy", "icon": "rain", "stations": ["72205312841", "72205712854", "KSFB", "KDED", "KORL", "72090400299"], "source": "obs", "hours": null}], "stations": {"72205312841": {"distance": 27494.0, "latitude": 28.545, "longitude": -81.333, "useCount": 0, "id": "72205312841", "name": "ORLANDO EXECUTIVE AIRPORT, FL US", "quality": 100, "contribution": 0.0}, "72205712854": {"distance": 639.0, "latitude": 28.78, "longitude": -81.244, "useCount": 0, "id": "72205712854", "name": "ORLANDO SANFORD AIRPORT, FL US", "quality": 100, "contribution": 0.0}, "KSFB": {"distance": 779.0, "latitude": 28.78, "longitude": -81.23, "useCount": 0, "id": "KSFB", "name": "KSFB", "quality": 100, "contribution": 0.0}, "KDED": {"distance": 31708.0, "latitude": 29.06, "longitude": -81.28, "useCount": 0, "id": "KDED", "name": "KDED", "quality": 96, "contribution": 0.0}, "KORL": {"distance": 26899.0, "latitude": 28.55, "longitude": -81.33, "useCount": 0, "id": "KORL", "name": "KORL", "quality": 100, "contribution": 0.0}, "72090400299": {"distance": 32520.0, "latitude": 29.067, "longitude": -81.283, "useCount": 0, "id": "72090400299", "name": "DELAND MUNICIPAL AIRPORT SYDNEY H TAYLOR FIELD, FL US", "quality": 100, "contribution": 0.0}}}