{"queryCost": 1, "latitude": 37.61899948120117, "longitude": -122.375, "resolvedAddress": "37.61899948120117, -122.375", "address": "37.61899948120117, -122.375", "timezone": "America/Los_Angeles", "tzoffset": -8.0, "days": [{"datetime": "2020-01-03", "datetimeEpoch": 1578038400, "tempmax": 13.9, "tempmin": 7.2, "temp": 11.2, "feelslikemax": 13.9, "feelslikemin": 7.2, "feelslike": 11.1, "dew": 7.4, "humidity": 77.54, "precip": 0.0, "precipprob": null, "precipcover": 0.0, "preciptype": null, "snow": 0.0, "snowdepth": 0.0, "windgust": null, "windspeed": 20.5, "winddir": 157.6, "pressure": 1022.8, "cloudcover": 55.9, "visibility": 16.0, "solarradiation": 127.2, "solarenergy": 5.0, "sunrise": "07:24:50", "sunriseEpoch": 1578065090, "sunset": "17:03:10", "sunsetEpoch": 1578099790, "moonphase": 0.26, "conditions": "Partially cloudy", "icon": "partly-cloudy-day", "stations": ["KHAF", "KSFO", "72493023230", "72064600228", "KOAK", "72494023234"], "source": "obs", "hours": null}], "stations": {"KHAF": {"distance": 17238.0, "latitude": 37.5, "longitude": -122.5, "useCount": 0, "id": "KHAF", "name": "KHAF", "quality": 100, "contribution": 0.0}, "KSFO": {"distance": 1095.0, "latitude": 37.61, "longitude": -122.38, "useCount": 0, "id": "KSFO", "name": "KSFO", "quality": 100, "contribution": 0.0}, "72493023230": {"distance": 17722.0, "latitude": 37.721, "longitude": -122.221, "useCount": 0, "id": "72493023230", "name": "OAKLAND METROPOLITAN, CA US", "quality": 100, "contribution": 0.0}, "72064600228": {"distance": 16212.0, "latitude": 37.513, "longitude": -122.501, "useCount": 0, "id": "72064600228", "name": "HALF MOON BAY AIRPORT, CA US", "quality": 100, "contribution": 0.0}, "KOAK": {"distance": 17690.0, "latitude": 37.72, "longitude": -122.22, "useCount": 0, "id": "KOAK", "name": "KOAK", "quality": 100, "contribution": 0.0}, "72494023234": {"distance": 885.0, "latitude": 37.62, "longitude": -122.365, "useCount": 0, "id": "72494023234", "name": "SAN FRANCISCO INTERNATIONAL AIRPORT, CA US", "quality": 100, "contribution": 0.0}}}