{"queryCost": 1, "latitude": 37.61899948120117, "longitude": -122.375, "resolvedAddress": "37.61899948120117, -122.375", "address": "37.61899948120117, -122.375", "timezone": "America/Los_Angeles", "tzoffset": -8.0, "days": [{"datetime": "2018-01-27", "datetimeEpoch": 1517040000, "tempmax": 15.6, "tempmin": 5.6, "temp": 10.5, "feelslikemax": 15.6, "feelslikemin": 3.6, "feelslike": 10.1, "dew": 6.3, "humidity": 75.95, "precip": 0.0, "precipprob": null, "precipcover": 20.83, "preciptype": null, "snow": 0.0, "snowdepth": 0.0, "windgust": 31.7, "windspeed": 16.5, "winddir": 229.3, "pressure": 1029.7, "cloudcover": 51.5, "visibility": 16.0, "solarradiation": 264.9, "solarenergy": 11.4, "sunrise": "07:17:00", "sunriseEpoch": 1517066220, "sunset": "17:28:00", "sunsetEpoch": 1517102880, "moonphase": 0.39, "conditions": "Partially cloudy", "icon": "partly-cloudy-day", "stations": ["KHAF", "KSFO", "72493023230", "72064600228", "KOAK", "72494023234"], "source": "obs", "hours": null}], "stations": {"KHAF": {"distance": 17238.0, "latitude": 37.5, "longitude": -122.5, "useCount": 0, "id": "KHAF", "name": "KHAF", "quality": 100, "contribution": 0.0}, "KSFO": {"distance": 1095.0, "latitude": 37.61, "longitude": -122.38, "useCount": 0, "id": "KSFO", "name": "KSFO", "quality": 100, "contribution": 0.0}, "72493023230": {"distance": 17722.0, "latitude": 37.721, "longitude": -122.221, "useCount": 0, "id": "72493023230", "name": "OAKLAND METROPOLITAN, CA US", "quality": 100, "contribution": 0.0}, "72064600228": {"distance": 16212.0, "latitude": 37.513, "longitude": -122.501, "useCount": 0, "id": "72064600228", "name": "HALF MOON BAY AIRPORT, CA US", "quality": 100, "contribution": 0.0}, "KOAK": {"distance": 17690.0, "latitude": 37.72, "longitude": -122.22, "useCount": 0, "id": "KOAK", "name": "KOAK", "quality": 100, "contribution": 0.0}, "72494023234": {"distance": 885.0, "latitude": 37.62, "longitude": -122.365, "useCount": 0, "id": "72494023234", "name": "SAN FRANCISCO INTERNATIONAL AIRPORT, CA US", "quality": 100, "contribution": 0.0}}}