{"queryCost": 1, "latitude": 37.61899948120117, "longitude": -122.375, "resolvedAddress": "37.61899948120117, -122.375", "address": "37.61899948120117, -122.375", "timezone": "America/Los_Angeles", "tzoffset": -7.0, "days": [{"datetime": "2019-07-22", "datetimeEpoch": 1563778800, "tempmax": 23.3, "tempmin": 13.9, "temp": 17.4, "feelslikemax": 23.3, "feelslikemin": 13.9, "feelslike": 17.4, "dew": 12.3, "humidity": 72.61, "precip": 0.0, "precipprob": null, "precipcover": 0.0, "preciptype": null, "snow": 0.0, "snowdepth": 0.0, "windgust": null, "windspeed": 35.2, "winddir": 278.3, "pressure": 1014.1, "cloudcover": 25.1, "visibility": 16.0, "solarradiation": 554.2, "solarenergy": 27.9, "sunrise": "06:05:11", "sunriseEpoch": 1563800711, "sunset": "20:26:21", "sunsetEpoch": 1563852381, "moonphase": 0.64, "conditions": "Partially cloudy", "icon": "wind", "stations": ["KHAF", "KSFO", "72493023230", "72064600228", "KOAK", "72494023234"], "source": "obs", "hours": null}], "stations": {"KHAF": {"distance": 17238.0, "latitude": 37.5, "longitude": -122.5, "useCount": 0, "id": "KHAF", "name": "KHAF", "quality": 100, "contribution": 0.0}, "KSFO": {"distance": 1095.0, "latitude": 37.61, "longitude": -122.38, "useCount": 0, "id": "KSFO", "name": "KSFO", "quality": 100, "contribution": 0.0}, "72493023230": {"distance": 17722.0, "latitude": 37.721, "longitude": -122.221, "useCount": 0, "id": "72493023230", "name": "OAKLAND METROPOLITAN, CA US", "quality": 100, "contribution": 0.0}, "72064600228": {"distance": 16212.0, "latitude": 37.513, "longitude": -122.501, "useCount": 0, "id": "72064600228", "name": "HALF MOON BAY AIRPORT, CA US", "quality": 100, "contribution": 0.0}, "KOAK": {"distance": 17690.0, "latitude": 37.72, "longitude": -122.22, "useCount": 0, "id": "KOAK", "name": "KOAK", "quality": 100, "contribution": 0.0}, "72494023234": {"distance": 885.0, "latitude": 37.62, "longitude": -122.365, "useCount": 0, "id": "72494023234", "name": "SAN FRANCISCO INTERNATIONAL AIRPORT, CA US", "quality": 100, "contribution": 0.0}}}