{"queryCost": 1, "latitude": 37.61899948120117, "longitude": -122.375, "resolvedAddress": "37.61899948120117, -122.375", "address": "37.61899948120117, -122.375", "timezone": "America/Los_Angeles", "tzoffset": -8.0, "days": [{"datetime": "2019-01-19", "datetimeEpoch": 1547884800, "tempmax": 18.3, "tempmin": 13.8, "temp": 16.0, "feelslikemax": 18.3, "feelslikemin": 13.8, "feelslike": 16.0, "dew": 9.3, "humidity": 64.73, "precip": 0.0, "precipprob": null, "precipcover": 4.17, "preciptype": null, "snow": 0.0, "snowdepth": 0.0, "windgust": null, "windspeed": 12.9, "winddir": 95.3, "pressure": 1025.9, "cloudcover": 74.2, "visibility": 15.9, "solarradiation": 231.5, "solarenergy": 9.2, "sunrise": "07:21:51", "sunriseEpoch": 1547911311, "sunset": "17:18:58", "sunsetEpoch": 1547947138, "moonphase": 0.48, "conditions": "Partially cloudy", "icon": "partly-cloudy-day", "stations": ["KHAF", "KSFO", "72493023230", "72064600228", "KOAK", "72494023234"], "source": "obs", "hours": null}], "stations": {"KHAF": {"distance": 17238.0, "latitude": 37.5, "longitude": -122.5, "useCount": 0, "id": "KHAF", "name": "KHAF", "quality": 100, "contribution": 0.0}, "KSFO": {"distance": 1095.0, "latitude": 37.61, "longitude": -122.38, "useCount": 0, "id": "KSFO", "name": "KSFO", "quality": 100, "contribution": 0.0}, "72493023230": {"distance": 17722.0, "latitude": 37.721, "longitude": -122.221, "useCount": 0, "id": "72493023230", "name": "OAKLAND METROPOLITAN, CA US", "quality": 100, "contribution": 0.0}, "72064600228": {"distance": 16212.0, "latitude": 37.513, "longitude": -122.501, "useCount": 0, "id": "72064600228", "name": "HALF MOON BAY AIRPORT, CA US", "quality": 100, "contribution": 0.0}, "KOAK": {"distance": 17690.0, "latitude": 37.72, "longitude": -122.22, "useCount": 0, "id": "KOAK", "name": "KOAK", "quality": 100, "contribution": 0.0}, "72494023234": {"distance": 885.0, "latitude": 37.62, "longitude": -122.365, "useCount": 0, "id": "72494023234", "name": "SAN FRANCISCO INTERNATIONAL AIRPORT, CA US", "quality": 100, "contribution": 0.0}}}