{"queryCost": 1, "latitude": 38.2638015747, "longitude": -78.8964004517, "resolvedAddress": "38.2638015747, -78.8964004517", "address": "38.2638015747, -78.8964004517", "timezone": "America/New_York", "tzoffset": -5.0, "days": [{"datetime": "2020-01-04", "datetimeEpoch": 1578114000, "tempmax": 15.7, "tempmin": 4.7, "temp": 10.9, "feelslikemax": 15.7, "feelslikemin": 0.6, "feelslike": 10.1, "dew": 7.5, "humidity": 80.55, "precip": 2.71, "precipprob": null, "precipcover": 33.33, "preciptype": null, "snow": 0.0, "snowdepth": 0.0, "windgust": 43.6, "windspeed": 24.1, "winddir": 264.2, "pressure": 1004.4, "cloudcover": 93.7, "visibility": 16.0, "solarradiation": 105.2, "solarenergy": 3.8, "sunrise": "07:32:46", "sunriseEpoch": 1578141166, "sunset": "17:08:13", "sunsetEpoch": 1578175693, "moonphase": 0.31, "conditions": "Rain, Overcast", "icon": "rain", "stations": ["KVBW", "KSHD", "72410593760", "KCHO", "KW13", "72401693736"], "source": "obs", "hours": null}], "stations": {"KVBW": {"distance": 11687.0, "latitude": 38.36, "longitude": -78.95, "useCount": 0, "id": "KVBW", "name": "KVBW", "quality": 99, "contribution": 0.0}, "KSHD": {"distance": 758.0, "latitude": 38.27, "longitude": -78.9, "useCount": 0, "id": "KSHD", "name": "KSHD", "quality": 99, "contribution": 0.0}, "72410593760": {"distance": 22.0, "latitude": 38.264, "longitude": -78.896, "useCount": 0, "id": "72410593760", "name": "STAUNTON, VA US", "quality": 100, "contribution": 0.0}, "KCHO": {"distance": 41797.0, "latitude": 38.13, "longitude": -78.45, "useCount": 0, "id": "KCHO", "name": "KCHO", "quality": 100, "contribution": 0.0}, "KW13": {"distance": 20992.0, "latitude": 38.08, "longitude": -78.95, "useCount": 0, "id": "KW13", "name": "KW13", "quality": 99, "contribution": 0.0}, "72401693736": {"distance": 41081.0, "latitude": 38.137, "longitude": -78.455, "useCount": 0, "id": "72401693736", "name": "CHARLOTTESVILLE ALBEMARLE AIRPORT, VA US", "quality": 100, "contribution": 0.0}}}