{"queryCost": 1, "latitude": 38.2638015747, "longitude": -78.8964004517, "resolvedAddress": "38.2638015747, -78.8964004517", "address": "38.2638015747, -78.8964004517", "timezone": "America/New_York", "tzoffset": -5.0, "days": [{"datetime": "2020-01-06", "datetimeEpoch": 1578286800, "tempmax": 11.0, "tempmin": -4.0, "temp": 3.5, "feelslikemax": 11.0, "feelslikemin": -4.0, "feelslike": 3.0, "dew": -6.5, "humidity": 53.44, "precip": 2.5, "precipprob": null, "precipcover": 4.17, "preciptype": null, "snow": 0.0, "snowdepth": 0.0, "windgust": 35.3, "windspeed": 16.6, "winddir": 277.4, "pressure": 1017.1, "cloudcover": 7.7, "visibility": 16.0, "solarradiation": 277.6, "solarenergy": 11.0, "sunrise": "07:32:49", "sunriseEpoch": 1578313969, "sunset": "17:09:59", "sunsetEpoch": 1578348599, "moonphase": 0.4, "conditions": "Rain", "icon": "rain", "stations": ["KVBW", "KSHD", "72410593760", "KCHO", "KW13", "72401693736"], "source": "obs", "hours": null}], "stations": {"KVBW": {"distance": 11687.0, "latitude": 38.36, "longitude": -78.95, "useCount": 0, "id": "KVBW", "name": "KVBW", "quality": 99, "contribution": 0.0}, "KSHD": {"distance": 758.0, "latitude": 38.27, "longitude": -78.9, "useCount": 0, "id": "KSHD", "name": "KSHD", "quality": 99, "contribution": 0.0}, "72410593760": {"distance": 22.0, "latitude": 38.264, "longitude": -78.896, "useCount": 0, "id": "72410593760", "name": "STAUNTON, VA US", "quality": 100, "contribution": 0.0}, "KCHO": {"distance": 41797.0, "latitude": 38.13, "longitude": -78.45, "useCount": 0, "id": "KCHO", "name": "KCHO", "quality": 100, "contribution": 0.0}, "KW13": {"distance": 20992.0, "latitude": 38.08, "longitude": -78.95, "useCount": 0, "id": "KW13", "name": "KW13", "quality": 99, "contribution": 0.0}, "72401693736": {"distance": 41081.0, "latitude": 38.137, "longitude": -78.455, "useCount": 0, "id": "72401693736", "name": "CHARLOTTESVILLE ALBEMARLE AIRPORT, VA US", "quality": 100, "contribution": 0.0}}}