{"queryCost": 1, "latitude": 32.446602, "longitude": -93.8256, "resolvedAddress": "32.446602, -93.8256", "address": "32.446602, -93.8256", "timezone": "America/Chicago", "tzoffset": -6.0, "days": [{"datetime": "2020-01-07", "datetimeEpoch": 1578376800, "tempmax": 17.2, "tempmin": 3.4, "temp": 9.3, "feelslikemax": 17.2, "feelslikemin": 0.4, "feelslike": 8.4, "dew": -1.6, "humidity": 51.55, "precip": 0.0, "precipprob": null, "precipcover": 0.0, "preciptype": null, "snow": 0.0, "snowdepth": 0.0, "windgust": 27.7, "windspeed": 16.6, "winddir": 212.5, "pressure": 1027.3, "cloudcover": 7.5, "visibility": 16.0, "solarradiation": 233.1, "solarenergy": 6.7, "uvindex": 5.0, "sunrise": "07:17:48", "sunriseEpoch": 1578403068, "sunset": "17:25:18", "sunsetEpoch": 1578439518, "moonphase": 0.44, "conditions": "Clear", "description": "Clear conditions.", "icon": "clear-day", "stations": ["KDTN", "72248513944", "72248013957", "KSHV", "72248453905", "KBAD"], "source": "obs", "hours": null}], "stations": {"KDTN": {"distance": 11687.0, "latitude": 32.53, "longitude": -93.75, "useCount": 0, "id": "KDTN", "name": "KDTN", "quality": 100, "contribution": 0.0}, "72248513944": {"distance": 16063.0, "latitude": 32.5, "longitude": -93.667, "useCount": 0, "id": "72248513944", "name": "SHREVEPORT BARKSDALE AFB, LA US", "quality": 98, "contribution": 0.0}, "72248013957": {"distance": 131.0, "latitude": 32.447, "longitude": -93.824, "useCount": 0, "id": "72248013957", "name": "SHREVEPORT REGIONAL AIRPORT, LA US", "quality": 100, "contribution": 0.0}, "KSHV": {"distance": 2657.0, "latitude": 32.47, "longitude": -93.82, "useCount": 0, "id": "KSHV", "name": "KSHV", "quality": 100, "contribution": 0.0}, "72248453905": {"distance": 13113.0, "latitude": 32.543, "longitude": -93.745, "useCount": 0, "id": "72248453905", "name": "SHREVEPORT DOWNTOWN AIRPORT, LA US", "quality": 100, "contribution": 0.0}, "KBAD": {"distance": 15776.0, "latitude": 32.5, "longitude": -93.67, "useCount": 0, "id": "KBAD", "name": "KBAD", "quality": 100, "contribution": 0.0}}}