{"queryCost": 1, "latitude": 57.04710006713867, "longitude": -135.36199951171875, "resolvedAddress": "57.04710006713867, -135.36199951171875", "address": "57.04710006713867, -135.36199951171875", "timezone": "America/Sitka", "tzoffset": -9.0, "days": [{"datetime": "2020-01-07", "datetimeEpoch": 1578387600, "tempmax": 1.1, "tempmin": -0.7, "temp": 0.5, "feelslikemax": 0.6, "feelslikemin": -4.9, "feelslike": -2.7, "dew": -1.0, "humidity": 89.75, "precip": 12.47, "precipprob": null, "precipcover": 58.33, "preciptype": null, "snow": 9.86, "snowdepth": 26.12, "windgust": 46.8, "windspeed": 23.9, "winddir": 132.1, "pressure": 1009.9, "cloudcover": 91.6, "visibility": 9.1, "solarradiation": null, "solarenergy": null, "uvindex": 0.0, "sunrise": "08:36:52", "sunriseEpoch": 1578418612, "sunset": "15:38:48", "sunsetEpoch": 1578443928, "moonphase": 0.44, "conditions": "Snow, Overcast", "description": "Cloudy skies with late afternoon rain or snow.", "icon": "snow", "stations": ["PASI", "99999925379", "70371025333", "46084", "PAGN", "70383025310"], "source": "obs", "hours": null}], "stations": {"PASI": {"distance": 2651.0, "latitude": 57.07, "longitude": -135.35, "useCount": 0, "id": "PASI", "name": "SITKA, AK", "quality": 100, "contribution": 0.0}, "99999925379": {"distance": 2409.0, "latitude": 57.057, "longitude": -135.327, "useCount": 0, "id": "99999925379", "name": "SITKA 1 NE, AK US", "quality": 100, "contribution": 0.0}, "70371025333": {"distance": 213.0, "latitude": 57.048, "longitude": -135.365, "useCount": 0, "id": "70371025333", "name": "SITKA AIRPORT, AK US", "quality": 100, "contribution": 0.0}, "46084": {"distance": 67068.0, "latitude": 56.6, "longitude": -136.1, "useCount": 0, "id": "46084", "name": "46084 (maritime)", "quality": 50, "contribution": 0.0}, "PAGN": {"distance": 68968.0, "latitude": 57.5, "longitude": -134.58, "useCount": 0, "id": "PAGN", "name": "ANGOON SEAPLANE, AK", "quality": 96, "contribution": 0.0}, "70383025310": {"distance": 68633.0, "latitude": 57.499, "longitude": -134.586, "useCount": 0, "id": "70383025310", "name": "ANGOON, AK US", "quality": 94, "contribution": 0.0}}}