{"queryCost": 1, "latitude": 37.362598, "longitude": -121.929001, "resolvedAddress": "37.362598, -121.929001", "address": "37.362598, -121.929001", "timezone": "America/Los_Angeles", "tzoffset": -7.0, "days": [{"datetime": "2019-06-19", "datetimeEpoch": 1560927600, "tempmax": 26.1, "tempmin": 14.4, "temp": 19.1, "feelslikemax": 26.1, "feelslikemin": 14.4, "feelslike": 19.1, "dew": 15.0, "humidity": 78.8, "precip": 0.0, "precipprob": null, "precipcover": 0.0, "preciptype": null, "snow": 0.0, "snowdepth": 0.0, "windgust": 38.9, "windspeed": 25.9, "winddir": 256.9, "pressure": 1013.2, "cloudcover": 21.0, "visibility": 16.0, "solarradiation": 514.9, "solarenergy": 27.8, "sunrise": "05:46:59", "sunriseEpoch": 1560948419, "sunset": "20:31:14", "sunsetEpoch": 1561001474, "moonphase": 0.53, "conditions": "Clear", "icon": "clear-day", "stations": ["72585093228", "KSJC", "KLVK", "72492723285", "KHWD", "72494523293"], "source": "obs", "hours": null}], "stations": {"72585093228": {"distance": 36380.0, "latitude": 37.654, "longitude": -122.115, "useCount": 0, "id": "72585093228", "name": "HAYWARD AIR TERMINAL, CA US", "quality": 100, "contribution": 0.0}, "KSJC": {"distance": 847.0, "latitude": 37.36, "longitude": -121.92, "useCount": 0, "id": "KSJC", "name": "KSJC", "quality": 100, "contribution": 0.0}, "KLVK": {"distance": 38772.0, "latitude": 37.7, "longitude": -121.82, "useCount": 0, "id": "KLVK", "name": "LIVERMORE, CA", "quality": 100, "contribution": 0.0}, "72492723285": {"distance": 38124.0, "latitude": 37.693, "longitude": -121.814, "useCount": 0, "id": "72492723285", "name": "LIVERMORE MUNICIPAL AIRPORT, CA US", "quality": 100, "contribution": 0.0}, "KHWD": {"distance": 38150.0, "latitude": 37.67, "longitude": -122.12, "useCount": 0, "id": "KHWD", "name": "KHWD", "quality": 100, "contribution": 0.0}, "72494523293": {"distance": 589.0, "latitude": 37.359, "longitude": -121.924, "useCount": 0, "id": "72494523293", "name": "SAN JOSE, CA US", "quality": 100, "contribution": 0.0}}}