{"queryCost": 1, "latitude": 37.362598, "longitude": -121.929001, "resolvedAddress": "37.362598, -121.929001", "address": "37.362598, -121.929001", "timezone": "America/Los_Angeles", "tzoffset": -8.0, "days": [{"datetime": "2020-01-03", "datetimeEpoch": 1578038400, "tempmax": 20.0, "tempmin": 5.6, "temp": 10.6, "feelslikemax": 20.0, "feelslikemin": 4.7, "feelslike": 10.5, "dew": 5.1, "humidity": 70.51, "precip": 0.0, "precipprob": null, "precipcover": 0.0, "preciptype": null, "snow": 0.0, "snowdepth": 0.0, "windgust": null, "windspeed": 14.8, "winddir": 147.9, "pressure": 1022.7, "cloudcover": 42.9, "visibility": 15.5, "solarradiation": 49.9, "solarenergy": 4.1, "sunrise": "07:22:21", "sunriseEpoch": 1578064941, "sunset": "17:02:05", "sunsetEpoch": 1578099725, "moonphase": 0.26, "conditions": "Partially cloudy", "icon": "partly-cloudy-day", "stations": ["72585093228", "KSJC", "KLVK", "72492723285", "KHWD", "72494523293"], "source": "obs", "hours": null}], "stations": {"72585093228": {"distance": 36380.0, "latitude": 37.654, "longitude": -122.115, "useCount": 0, "id": "72585093228", "name": "HAYWARD AIR TERMINAL, CA US", "quality": 100, "contribution": 0.0}, "KSJC": {"distance": 847.0, "latitude": 37.36, "longitude": -121.92, "useCount": 0, "id": "KSJC", "name": "KSJC", "quality": 100, "contribution": 0.0}, "KLVK": {"distance": 38772.0, "latitude": 37.7, "longitude": -121.82, "useCount": 0, "id": "KLVK", "name": "LIVERMORE, CA", "quality": 100, "contribution": 0.0}, "72492723285": {"distance": 38124.0, "latitude": 37.693, "longitude": -121.814, "useCount": 0, "id": "72492723285", "name": "LIVERMORE MUNICIPAL AIRPORT, CA US", "quality": 100, "contribution": 0.0}, "KHWD": {"distance": 38150.0, "latitude": 37.67, "longitude": -122.12, "useCount": 0, "id": "KHWD", "name": "KHWD", "quality": 100, "contribution": 0.0}, "72494523293": {"distance": 589.0, "latitude": 37.359, "longitude": -121.924, "useCount": 0, "id": "72494523293", "name": "SAN JOSE, CA US", "quality": 100, "contribution": 0.0}}}