{"queryCost": 1, "latitude": 37.362598, "longitude": -121.929001, "resolvedAddress": "37.362598, -121.929001", "address": "37.362598, -121.929001", "timezone": "America/Los_Angeles", "tzoffset": -7.0, "days": [{"datetime": "2019-10-11", "datetimeEpoch": 1570777200, "tempmax": 26.7, "tempmin": 10.0, "temp": 17.7, "feelslikemax": 26.1, "feelslikemin": 10.0, "feelslike": 17.6, "dew": 1.2, "humidity": 35.01, "precip": 0.0, "precipprob": null, "precipcover": 0.0, "preciptype": null, "snow": 0.0, "snowdepth": 0.0, "windgust": null, "windspeed": 13.0, "winddir": 200.8, "pressure": 1015.2, "cloudcover": 48.8, "visibility": 16.0, "solarradiation": 79.7, "solarenergy": 3.7, "sunrise": "07:11:52", "sunriseEpoch": 1570803112, "sunset": "18:36:27", "sunsetEpoch": 1570844187, "moonphase": 0.47, "conditions": "Partially cloudy", "icon": "partly-cloudy-day", "stations": ["72585093228", "KSJC", "KLVK", "72492723285", "KHWD", "72494523293"], "source": "obs", "hours": null}], "stations": {"72585093228": {"distance": 36380.0, "latitude": 37.654, "longitude": -122.115, "useCount": 0, "id": "72585093228", "name": "HAYWARD AIR TERMINAL, CA US", "quality": 100, "contribution": 0.0}, "KSJC": {"distance": 847.0, "latitude": 37.36, "longitude": -121.92, "useCount": 0, "id": "KSJC", "name": "KSJC", "quality": 100, "contribution": 0.0}, "KLVK": {"distance": 38772.0, "latitude": 37.7, "longitude": -121.82, "useCount": 0, "id": "KLVK", "name": "LIVERMORE, CA", "quality": 100, "contribution": 0.0}, "72492723285": {"distance": 38124.0, "latitude": 37.693, "longitude": -121.814, "useCount": 0, "id": "72492723285", "name": "LIVERMORE MUNICIPAL AIRPORT, CA US", "quality": 100, "contribution": 0.0}, "KHWD": {"distance": 38150.0, "latitude": 37.67, "longitude": -122.12, "useCount": 0, "id": "KHWD", "name": "KHWD", "quality": 100, "contribution": 0.0}, "72494523293": {"distance": 589.0, "latitude": 37.359, "longitude": -121.924, "useCount": 0, "id": "72494523293", "name": "SAN JOSE, CA US", "quality": 100, "contribution": 0.0}}}