{"queryCost": 1, "latitude": 37.362598, "longitude": -121.929001, "resolvedAddress": "37.362598, -121.929001", "address": "37.362598, -121.929001", "timezone": "America/Los_Angeles", "tzoffset": -8.0, "days": [{"datetime": "2019-01-06", "datetimeEpoch": 1546761600, "tempmax": 14.3, "tempmin": 7.8, "temp": 10.2, "feelslikemax": 14.3, "feelslikemin": 5.3, "feelslike": 9.7, "dew": 8.5, "humidity": 89.0, "precip": 19.29, "precipprob": null, "precipcover": 66.67, "preciptype": null, "snow": 0.0, "snowdepth": 0.0, "windgust": 59.2, "windspeed": 44.6, "winddir": 143.3, "pressure": 1011.8, "cloudcover": 59.7, "visibility": 12.6, "solarradiation": 26.5, "solarenergy": 1.1, "sunrise": "07:22:29", "sunriseEpoch": 1546788149, "sunset": "17:04:53", "sunsetEpoch": 1546823093, "moonphase": 0.0, "conditions": "Rain, Partially cloudy", "icon": "rain", "stations": ["72585093228", "KSJC", "KLVK", "72492723285", "KHWD", "72494523293"], "source": "obs", "hours": null}], "stations": {"72585093228": {"distance": 36380.0, "latitude": 37.654, "longitude": -122.115, "useCount": 0, "id": "72585093228", "name": "HAYWARD AIR TERMINAL, CA US", "quality": 100, "contribution": 0.0}, "KSJC": {"distance": 847.0, "latitude": 37.36, "longitude": -121.92, "useCount": 0, "id": "KSJC", "name": "KSJC", "quality": 100, "contribution": 0.0}, "KLVK": {"distance": 38772.0, "latitude": 37.7, "longitude": -121.82, "useCount": 0, "id": "KLVK", "name": "LIVERMORE, CA", "quality": 100, "contribution": 0.0}, "72492723285": {"distance": 38124.0, "latitude": 37.693, "longitude": -121.814, "useCount": 0, "id": "72492723285", "name": "LIVERMORE MUNICIPAL AIRPORT, CA US", "quality": 100, "contribution": 0.0}, "KHWD": {"distance": 38150.0, "latitude": 37.67, "longitude": -122.12, "useCount": 0, "id": "KHWD", "name": "KHWD", "quality": 100, "contribution": 0.0}, "72494523293": {"distance": 589.0, "latitude": 37.359, "longitude": -121.924, "useCount": 0, "id": "72494523293", "name": "SAN JOSE, CA US", "quality": 100, "contribution": 0.0}}}