{"queryCost": 1, "latitude": 37.362598, "longitude": -121.929001, "resolvedAddress": "37.362598, -121.929001", "address": "37.362598, -121.929001", "timezone": "America/Los_Angeles", "tzoffset": -8.0, "days": [{"datetime": "2018-12-16", "datetimeEpoch": 1544947200, "tempmax": 16.7, "tempmin": 11.1, "temp": 13.8, "feelslikemax": 16.7, "feelslikemin": 11.1, "feelslike": 13.8, "dew": 9.9, "humidity": 77.74, "precip": 5.77, "precipprob": null, "precipcover": 33.33, "preciptype": null, "snow": 0.0, "snowdepth": 0.0, "windgust": 40.7, "windspeed": 27.7, "winddir": 155.0, "pressure": 1017.6, "cloudcover": 81.6, "visibility": 15.5, "solarradiation": 39.3, "solarenergy": 1.4, "sunrise": "07:15:33", "sunriseEpoch": 1544973333, "sunset": "16:51:21", "sunsetEpoch": 1545007881, "moonphase": 0.3, "conditions": "Rain, Overcast", "icon": "rain", "stations": ["72585093228", "KSJC", "KLVK", "72492723285", "KHWD", "72494523293"], "source": "obs", "hours": null}], "stations": {"72585093228": {"distance": 36380.0, "latitude": 37.654, "longitude": -122.115, "useCount": 0, "id": "72585093228", "name": "HAYWARD AIR TERMINAL, CA US", "quality": 100, "contribution": 0.0}, "KSJC": {"distance": 847.0, "latitude": 37.36, "longitude": -121.92, "useCount": 0, "id": "KSJC", "name": "KSJC", "quality": 100, "contribution": 0.0}, "KLVK": {"distance": 38772.0, "latitude": 37.7, "longitude": -121.82, "useCount": 0, "id": "KLVK", "name": "LIVERMORE, CA", "quality": 100, "contribution": 0.0}, "72492723285": {"distance": 38124.0, "latitude": 37.693, "longitude": -121.814, "useCount": 0, "id": "72492723285", "name": "LIVERMORE MUNICIPAL AIRPORT, CA US", "quality": 100, "contribution": 0.0}, "KHWD": {"distance": 38150.0, "latitude": 37.67, "longitude": -122.12, "useCount": 0, "id": "KHWD", "name": "KHWD", "quality": 100, "contribution": 0.0}, "72494523293": {"distance": 589.0, "latitude": 37.359, "longitude": -121.924, "useCount": 0, "id": "72494523293", "name": "SAN JOSE, CA US", "quality": 100, "contribution": 0.0}}}