{"queryCost": 1, "latitude": 40.78839874267578, "longitude": -111.97799682617188, "resolvedAddress": "40.78839874267578, -111.97799682617188", "address": "40.78839874267578, -111.97799682617188", "timezone": "America/Denver", "tzoffset": -7.0, "days": [{"datetime": "2020-01-07", "datetimeEpoch": 1578380400, "tempmax": 9.3, "tempmin": 0.7, "temp": 4.3, "feelslikemax": 7.1, "feelslikemin": -3.8, "feelslike": 0.8, "dew": -6.6, "humidity": 46.4, "precip": 0.0, "precipprob": null, "precipcover": 0.0, "preciptype": null, "snow": 1.88, "snowdepth": 6.88, "windgust": null, "windspeed": 29.5, "winddir": 144.5, "pressure": 1024.1, "cloudcover": 61.4, "visibility": 16.0, "solarradiation": 197.2, "solarenergy": 7.8, "uvindex": 4.0, "sunrise": "07:52:18", "sunriseEpoch": 1578408738, "sunset": "17:16:07", "sunsetEpoch": 1578442567, "moonphase": 0.44, "conditions": "Partially cloudy", "description": "Partly cloudly.", "icon": "snow", "stations": ["72572024127", "72575524101", "KHIF", "A0002804116", "72057299999", "KSLC"], "source": "obs", "hours": null}], "stations": {"72572024127": {"distance": 1375.0, "latitude": 40.778, "longitude": -111.969, "useCount": 0, "id": "72572024127", "name": "SALT LAKE CITY INTERNATIONAL AIRPORT, UT US", "quality": 100, "contribution": 0.0}, "72575524101": {"distance": 36558.0, "latitude": 41.117, "longitude": -111.967, "useCount": 0, "id": "72575524101", "name": "OGDEN HILL AFB, UT US", "quality": 96, "contribution": 0.0}, "KHIF": {"distance": 36920.0, "latitude": 41.12, "longitude": -111.97, "useCount": 0, "id": "KHIF", "name": "KHIF", "quality": 100, "contribution": 0.0}, "A0002804116": {"distance": 18855.0, "latitude": 40.619, "longitude": -111.993, "useCount": 0, "id": "A0002804116", "name": "SALT LAKE CITY MUNICIPAL AIRPORT 2, UT US", "quality": 98, "contribution": 0.0}, "72057299999": {"distance": 37084.0, "latitude": 40.612, "longitude": -112.351, "useCount": 0, "id": "72057299999", "name": "BOLINDER FIELD TOOELE VALLEY, UT US", "quality": 100, "contribution": 0.0}, "KSLC": {"distance": 1153.0, "latitude": 40.78, "longitude": -111.97, "useCount": 0, "id": "KSLC", "name": "KSLC", "quality": 100, "contribution": 0.0}}}