{"queryCost": 1, "latitude": 40.78839874267578, "longitude": -111.97799682617188, "resolvedAddress": "40.78839874267578, -111.97799682617188", "address": "40.78839874267578, -111.97799682617188", "timezone": "America/Denver", "tzoffset": -7.0, "days": [{"datetime": "2020-01-01", "datetimeEpoch": 1577862000, "tempmax": 2.8, "tempmin": -1.7, "temp": 0.9, "feelslikemax": 2.2, "feelslikemin": -7.5, "feelslike": -2.9, "dew": -2.3, "humidity": 79.81, "precip": 4.01, "precipprob": null, "precipcover": 37.5, "preciptype": null, "snow": 9.38, "snowdepth": 14.25, "windgust": 42.5, "windspeed": 31.7, "winddir": 182.9, "pressure": 1013.4, "cloudcover": 66.7, "visibility": 13.6, "solarradiation": 105.0, "solarenergy": 3.8, "sunrise": "07:52:15", "sunriseEpoch": 1577890335, "sunset": "17:10:40", "sunsetEpoch": 1577923840, "moonphase": 0.17, "conditions": "Snow, Partially cloudy", "icon": "snow", "stations": ["72572024127", "72575524101", "KHIF", "A0002804116", "72057299999", "KSLC"], "source": "obs", "hours": null}], "stations": {"72572024127": {"distance": 1375.0, "latitude": 40.778, "longitude": -111.969, "useCount": 0, "id": "72572024127", "name": "SALT LAKE CITY INTERNATIONAL AIRPORT, UT US", "quality": 100, "contribution": 0.0}, "72575524101": {"distance": 36558.0, "latitude": 41.117, "longitude": -111.967, "useCount": 0, "id": "72575524101", "name": "OGDEN HILL AFB, UT US", "quality": 96, "contribution": 0.0}, "KHIF": {"distance": 36920.0, "latitude": 41.12, "longitude": -111.97, "useCount": 0, "id": "KHIF", "name": "KHIF", "quality": 100, "contribution": 0.0}, "A0002804116": {"distance": 18855.0, "latitude": 40.619, "longitude": -111.993, "useCount": 0, "id": "A0002804116", "name": "SALT LAKE CITY MUNICIPAL AIRPORT 2, UT US", "quality": 98, "contribution": 0.0}, "72057299999": {"distance": 37084.0, "latitude": 40.612, "longitude": -112.351, "useCount": 0, "id": "72057299999", "name": "BOLINDER FIELD TOOELE VALLEY, UT US", "quality": 100, "contribution": 0.0}, "KSLC": {"distance": 1153.0, "latitude": 40.78, "longitude": -111.97, "useCount": 0, "id": "KSLC", "name": "KSLC", "quality": 100, "contribution": 0.0}}}