{"queryCost": 1, "latitude": 40.78839874267578, "longitude": -111.97799682617188, "resolvedAddress": "40.78839874267578, -111.97799682617188", "address": "40.78839874267578, -111.97799682617188", "timezone": "America/Denver", "tzoffset": -7.0, "days": [{"datetime": "2019-01-12", "datetimeEpoch": 1547276400, "tempmax": 0.0, "tempmin": -1.2, "temp": -0.7, "feelslikemax": 0.0, "feelslikemin": -5.0, "feelslike": -3.3, "dew": -2.6, "humidity": 87.17, "precip": 0.0, "precipprob": null, "precipcover": 0.0, "preciptype": null, "snow": 0.0, "snowdepth": 0.0, "windgust": null, "windspeed": 11.2, "winddir": 243.4, "pressure": 1025.9, "cloudcover": 94.2, "visibility": 9.6, "solarradiation": 22.8, "solarenergy": 2.0, "sunrise": "07:51:13", "sunriseEpoch": 1547304673, "sunset": "17:21:32", "sunsetEpoch": 1547338892, "moonphase": 0.16, "conditions": "Overcast", "icon": "cloudy", "stations": ["72572024127", "72575524101", "KHIF", "A0002804116", "72057299999", "KSLC"], "source": "obs", "hours": null}], "stations": {"72572024127": {"distance": 1375.0, "latitude": 40.778, "longitude": -111.969, "useCount": 0, "id": "72572024127", "name": "SALT LAKE CITY INTERNATIONAL AIRPORT, UT US", "quality": 100, "contribution": 0.0}, "72575524101": {"distance": 36558.0, "latitude": 41.117, "longitude": -111.967, "useCount": 0, "id": "72575524101", "name": "OGDEN HILL AFB, UT US", "quality": 96, "contribution": 0.0}, "KHIF": {"distance": 36920.0, "latitude": 41.12, "longitude": -111.97, "useCount": 0, "id": "KHIF", "name": "KHIF", "quality": 100, "contribution": 0.0}, "A0002804116": {"distance": 18855.0, "latitude": 40.619, "longitude": -111.993, "useCount": 0, "id": "A0002804116", "name": "SALT LAKE CITY MUNICIPAL AIRPORT 2, UT US", "quality": 98, "contribution": 0.0}, "72057299999": {"distance": 37084.0, "latitude": 40.612, "longitude": -112.351, "useCount": 0, "id": "72057299999", "name": "BOLINDER FIELD TOOELE VALLEY, UT US", "quality": 100, "contribution": 0.0}, "KSLC": {"distance": 1153.0, "latitude": 40.78, "longitude": -111.97, "useCount": 0, "id": "KSLC", "name": "KSLC", "quality": 100, "contribution": 0.0}}}