{"queryCost": 1, "latitude": 38.69540023803711, "longitude": -121.59100341796875, "resolvedAddress": "38.69540023803711, -121.59100341796875", "address": "38.69540023803711, -121.59100341796875", "timezone": "America/Los_Angeles", "tzoffset": -7.0, "days": [{"datetime": "2019-09-30", "datetimeEpoch": 1569826800, "tempmax": 20.0, "tempmin": 8.4, "temp": 13.3, "feelslikemax": 20.0, "feelslikemin": 7.1, "feelslike": 13.2, "dew": 6.3, "humidity": 65.69, "precip": 0.0, "precipprob": null, "precipcover": 0.0, "preciptype": null, "snow": 0.0, "snowdepth": 0.0, "windgust": null, "windspeed": 16.6, "winddir": 201.8, "pressure": 1013.8, "cloudcover": 18.3, "visibility": 15.9, "solarradiation": 432.1, "solarenergy": 20.2, "sunrise": "07:01:09", "sunriseEpoch": 1569852069, "sunset": "18:50:57", "sunsetEpoch": 1569894657, "moonphase": 0.02, "conditions": "Clear", "icon": "clear-day", "stations": ["KSMF", "72061400205", "72483023232", "72483993225", "KEDU", "KSAC"], "source": "obs", "hours": null}], "stations": {"KSMF": {"distance": 1084.0, "latitude": 38.7, "longitude": -121.58, "useCount": 0, "id": "KSMF", "name": "SACRAMENTO METRO, CA", "quality": 100, "contribution": 0.0}, "72061400205": {"distance": 31605.0, "latitude": 38.909, "longitude": -121.351, "useCount": 0, "id": "72061400205", "name": "LINCOLN REGIONAL AIRPORT KARL HARDER FIELD, CA US", "quality": 100, "contribution": 0.0}, "72483023232": {"distance": 22585.0, "latitude": 38.507, "longitude": -121.495, "useCount": 0, "id": "72483023232", "name": "SACRAMENTO EXECUTIVE AIRPORT, CA US", "quality": 100, "contribution": 0.0}, "72483993225": {"distance": 90.0, "latitude": 38.696, "longitude": -121.59, "useCount": 0, "id": "72483993225", "name": "SACRAMENTO METROPOLITAN AIRPORT, CA US", "quality": 100, "contribution": 0.0}, "KEDU": {"distance": 25271.0, "latitude": 38.53, "longitude": -121.79, "useCount": 0, "id": "KEDU", "name": "KEDU", "quality": 97, "contribution": 0.0}, "KSAC": {"distance": 21069.0, "latitude": 38.52, "longitude": -121.5, "useCount": 0, "id": "KSAC", "name": "KSAC", "quality": 100, "contribution": 0.0}}}