{"queryCost": 1, "latitude": 33.67570114, "longitude": -117.8679962, "resolvedAddress": "33.67570114, -117.8679962", "address": "33.67570114, -117.8679962", "timezone": "America/Los_Angeles", "tzoffset": -7.0, "days": [{"datetime": "2019-05-27", "datetimeEpoch": 1558940400, "tempmax": 18.4, "tempmin": 12.2, "temp": 15.3, "feelslikemax": 18.4, "feelslikemin": 12.2, "feelslike": 15.3, "dew": 7.8, "humidity": 61.65, "precip": 0.0, "precipprob": null, "precipcover": 0.0, "preciptype": null, "snow": 0.0, "snowdepth": 0.0, "windgust": 35.3, "windspeed": 25.9, "winddir": 210.7, "pressure": 1016.0, "cloudcover": 41.1, "visibility": 16.0, "solarradiation": 559.7, "solarenergy": 30.2, "sunrise": "05:43:58", "sunriseEpoch": 1558961038, "sunset": "19:53:39", "sunsetEpoch": 1559012019, "moonphase": 0.79, "conditions": "Partially cloudy", "icon": "partly-cloudy-day", "stations": ["KFUL", "72297793184", "KSNA", "72297603166", "72297023129", "KLGB"], "source": "obs", "hours": null}], "stations": {"KFUL": {"distance": 22986.0, "latitude": 33.86, "longitude": -117.98, "useCount": 0, "id": "KFUL", "name": "KFUL", "quality": 100, "contribution": 0.0}, "72297793184": {"distance": 513.0, "latitude": 33.68, "longitude": -117.866, "useCount": 0, "id": "72297793184", "name": "SANTA ANA JOHN WAYNE AIRPORT, CA US", "quality": 100, "contribution": 0.0}, "KSNA": {"distance": 513.0, "latitude": 33.68, "longitude": -117.87, "useCount": 0, "id": "KSNA", "name": "KSNA", "quality": 100, "contribution": 0.0}, "72297603166": {"distance": 24136.0, "latitude": 33.872, "longitude": -117.979, "useCount": 0, "id": "72297603166", "name": "FULLERTON MUNICIPAL AIRPORT, CA US", "quality": 100, "contribution": 0.0}, "72297023129": {"distance": 29851.0, "latitude": 33.812, "longitude": -118.146, "useCount": 0, "id": "72297023129", "name": "LONG BEACH DAUGHERTY AIRPORT, CA US", "quality": 100, "contribution": 0.0}, "KLGB": {"distance": 30649.0, "latitude": 33.82, "longitude": -118.15, "useCount": 0, "id": "KLGB", "name": "KLGB", "quality": 100, "contribution": 0.0}}}