{"queryCost": 1, "latitude": 39.84410095, "longitude": -89.67790222, "resolvedAddress": "39.84410095, -89.67790222", "address": "39.84410095, -89.67790222", "timezone": "America/Chicago", "tzoffset": -6.0, "days": [{"datetime": "2020-01-06", "datetimeEpoch": 1578290400, "tempmax": 7.2, "tempmin": -3.8, "temp": 0.9, "feelslikemax": 6.4, "feelslikemin": -7.1, "feelslike": -1.0, "dew": -6.0, "humidity": 62.33, "precip": 0.0, "precipprob": null, "precipcover": 0.0, "preciptype": null, "snow": 0.0, "snowdepth": 0.0, "windgust": null, "windspeed": 14.8, "winddir": 166.3, "pressure": 1022.6, "cloudcover": 10.3, "visibility": 16.0, "solarradiation": 178.8, "solarenergy": 7.1, "sunrise": "07:20:24", "sunriseEpoch": 1578316824, "sunset": "16:48:40", "sunsetEpoch": 1578350920, "moonphase": 0.4, "conditions": "Clear", "icon": "clear-day", "stations": ["KTAZ", "74466263817", "KSPI", "KAAA", "72439093822", "74467204862"], "source": "obs", "hours": null}], "stations": {"KTAZ": {"distance": 45944.0, "latitude": 39.53, "longitude": -89.33, "useCount": 0, "id": "KTAZ", "name": "KTAZ", "quality": 100, "contribution": 0.0}, "74466263817": {"distance": 45712.0, "latitude": 39.534, "longitude": -89.328, "useCount": 0, "id": "74466263817", "name": "TAYLORVILLE MUNICIPAL AIRPORT, IL US", "quality": 100, "contribution": 0.0}, "KSPI": {"distance": 942.0, "latitude": 39.85, "longitude": -89.67, "useCount": 0, "id": "KSPI", "name": "KSPI", "quality": 100, "contribution": 0.0}, "KAAA": {"distance": 45164.0, "latitude": 40.15, "longitude": -89.33, "useCount": 0, "id": "KAAA", "name": "KAAA", "quality": 100, "contribution": 0.0}, "72439093822": {"distance": 517.0, "latitude": 39.845, "longitude": -89.684, "useCount": 0, "id": "72439093822", "name": "SPRINGFIELD ABRAHAM LINCOLN CAPITAL AIRPORT, IL US", "quality": 100, "contribution": 0.0}, "74467204862": {"distance": 45606.0, "latitude": 40.158, "longitude": -89.335, "useCount": 0, "id": "74467204862", "name": "LINCOLN LOGAN CO AIRPORT, IL US", "quality": 100, "contribution": 0.0}}}