{"queryCost": 1, "latitude": 39.84410095, "longitude": -89.67790222, "resolvedAddress": "39.84410095, -89.67790222", "address": "39.84410095, -89.67790222", "timezone": "America/Chicago", "tzoffset": -6.0, "days": [{"datetime": "2020-01-04", "datetimeEpoch": 1578117600, "tempmax": 2.2, "tempmin": -3.8, "temp": -0.4, "feelslikemax": -0.1, "feelslikemin": -6.1, "feelslike": -3.6, "dew": -2.6, "humidity": 85.32, "precip": 0.67, "precipprob": null, "precipcover": 29.17, "preciptype": null, "snow": 0.0, "snowdepth": 0.0, "windgust": 48.8, "windspeed": 29.5, "winddir": 273.4, "pressure": 1018.8, "cloudcover": 74.1, "visibility": 10.9, "solarradiation": 50.0, "solarenergy": 2.0, "sunrise": "07:20:26", "sunriseEpoch": 1578144026, "sunset": "16:46:51", "sunsetEpoch": 1578178011, "moonphase": 0.31, "conditions": "Snow, Partially cloudy", "icon": "snow", "stations": ["KTAZ", "74466263817", "KSPI", "KAAA", "72439093822", "74467204862"], "source": "obs", "hours": null}], "stations": {"KTAZ": {"distance": 45944.0, "latitude": 39.53, "longitude": -89.33, "useCount": 0, "id": "KTAZ", "name": "KTAZ", "quality": 100, "contribution": 0.0}, "74466263817": {"distance": 45712.0, "latitude": 39.534, "longitude": -89.328, "useCount": 0, "id": "74466263817", "name": "TAYLORVILLE MUNICIPAL AIRPORT, IL US", "quality": 100, "contribution": 0.0}, "KSPI": {"distance": 942.0, "latitude": 39.85, "longitude": -89.67, "useCount": 0, "id": "KSPI", "name": "KSPI", "quality": 100, "contribution": 0.0}, "KAAA": {"distance": 45164.0, "latitude": 40.15, "longitude": -89.33, "useCount": 0, "id": "KAAA", "name": "KAAA", "quality": 100, "contribution": 0.0}, "72439093822": {"distance": 517.0, "latitude": 39.845, "longitude": -89.684, "useCount": 0, "id": "72439093822", "name": "SPRINGFIELD ABRAHAM LINCOLN CAPITAL AIRPORT, IL US", "quality": 100, "contribution": 0.0}, "74467204862": {"distance": 45606.0, "latitude": 40.158, "longitude": -89.335, "useCount": 0, "id": "74467204862", "name": "LINCOLN LOGAN CO AIRPORT, IL US", "quality": 100, "contribution": 0.0}}}