{"queryCost": 1, "latitude": 27.39539909362793, "longitude": -82.55439758300781, "resolvedAddress": "27.39539909362793, -82.55439758300781", "address": "27.39539909362793, -82.55439758300781", "timezone": "America/New_York", "tzoffset": -5.0, "days": [{"datetime": "2020-01-02", "datetimeEpoch": 1577941200, "tempmax": 26.7, "tempmin": 14.4, "temp": 20.7, "feelslikemax": 28.0, "feelslikemin": 14.4, "feelslike": 20.8, "dew": 15.2, "humidity": 71.72, "precip": 0.0, "precipprob": null, "precipcover": 0.0, "preciptype": null, "snow": 0.0, "snowdepth": 0.0, "windgust": null, "windspeed": 27.7, "winddir": 141.3, "pressure": 1016.2, "cloudcover": 1.1, "visibility": 16.0, "solarradiation": 290.7, "solarenergy": 12.6, "sunrise": "07:20:37", "sunriseEpoch": 1577967637, "sunset": "17:47:44", "sunsetEpoch": 1578005264, "moonphase": 0.22, "conditions": "Clear", "icon": "clear-day", "stations": ["KSRQ", "72210492806", "KMCF", "KSPG", "72211512871"], "source": "obs", "hours": null}], "stations": {"KSRQ": {"distance": 672.0, "latitude": 27.4, "longitude": -82.55, "useCount": 0, "id": "KSRQ", "name": "KSRQ", "quality": 100, "contribution": 0.0}, "72210492806": {"distance": 41738.0, "latitude": 27.765, "longitude": -82.627, "useCount": 0, "id": "72210492806", "name": "ST PETERSBURG ALBERT WHITTED AIRPORT, FL US", "quality": 100, "contribution": 0.0}, "KSPG": {"distance": 42362.0, "latitude": 27.77, "longitude": -82.63, "useCount": 0, "id": "KSPG", "name": "KSPG", "quality": 100, "contribution": 0.0}, "72211512871": {"distance": 787.0, "latitude": 27.401, "longitude": -82.559, "useCount": 0, "id": "72211512871", "name": "SARASOTA BRADENTON AIRPORT, FL US", "quality": 100, "contribution": 0.0}, "KMCF": {"distance": 50720.0, "latitude": 27.85, "longitude": -82.52, "useCount": 0, "id": "KMCF", "name": "KMCF", "quality": 100, "contribution": 0.0}}}