{"queryCost": 1, "latitude": 27.39539909362793, "longitude": -82.55439758300781, "resolvedAddress": "27.39539909362793, -82.55439758300781", "address": "27.39539909362793, -82.55439758300781", "timezone": "America/New_York", "tzoffset": -5.0, "days": [{"datetime": "2020-01-05", "datetimeEpoch": 1578200400, "tempmax": 18.8, "tempmin": 11.2, "temp": 14.5, "feelslikemax": 18.8, "feelslikemin": 11.2, "feelslike": 14.5, "dew": 3.5, "humidity": 49.78, "precip": 0.0, "precipprob": null, "precipcover": 0.0, "preciptype": null, "snow": 0.0, "snowdepth": 0.0, "windgust": 49.0, "windspeed": 25.9, "winddir": 180.8, "pressure": 1024.7, "cloudcover": 1.1, "visibility": 16.0, "solarradiation": 324.3, "solarenergy": 14.0, "sunrise": "07:21:16", "sunriseEpoch": 1578226876, "sunset": "17:49:51", "sunsetEpoch": 1578264591, "moonphase": 0.36, "conditions": "Clear", "icon": "clear-day", "stations": ["72211800482", "KSRQ", "72210492806", "KMCF", "KSPG", "72211512871"], "source": "obs", "hours": null}], "stations": {"72211800482": {"distance": 37773.0, "latitude": 27.072, "longitude": -82.44, "useCount": 0, "id": "72211800482", "name": "VENICE MUNICIPAL AIRPORT, FL US", "quality": 100, "contribution": 0.0}, "KSRQ": {"distance": 672.0, "latitude": 27.4, "longitude": -82.55, "useCount": 0, "id": "KSRQ", "name": "KSRQ", "quality": 100, "contribution": 0.0}, "72210492806": {"distance": 41738.0, "latitude": 27.765, "longitude": -82.627, "useCount": 0, "id": "72210492806", "name": "ST PETERSBURG ALBERT WHITTED AIRPORT, FL US", "quality": 100, "contribution": 0.0}, "KMCF": {"distance": 50720.0, "latitude": 27.85, "longitude": -82.52, "useCount": 0, "id": "KMCF", "name": "KMCF", "quality": 100, "contribution": 0.0}, "KSPG": {"distance": 42362.0, "latitude": 27.77, "longitude": -82.63, "useCount": 0, "id": "KSPG", "name": "KSPG", "quality": 100, "contribution": 0.0}, "72211512871": {"distance": 787.0, "latitude": 27.401, "longitude": -82.559, "useCount": 0, "id": "72211512871", "name": "SARASOTA BRADENTON AIRPORT, FL US", "quality": 100, "contribution": 0.0}}}