{"queryCost": 1, "latitude": 38.748697, "longitude": -90.370003, "resolvedAddress": "38.748697, -90.370003", "address": "38.748697, -90.370003", "timezone": "America/Chicago", "tzoffset": -5.0, "days": [{"datetime": "2018-09-09", "datetimeEpoch": 1536469200, "tempmax": 23.9, "tempmin": 15.7, "temp": 19.2, "feelslikemax": 23.9, "feelslikemin": 15.7, "feelslike": 19.2, "dew": 15.0, "humidity": 78.27, "precip": 0.9, "precipprob": null, "precipcover": 16.67, "preciptype": null, "snow": 0.0, "snowdepth": 0.0, "windgust": 40.7, "windspeed": 22.3, "winddir": 75.0, "pressure": 1013.6, "cloudcover": 94.6, "visibility": 13.8, "solarradiation": 127.1, "solarenergy": 5.9, "sunrise": "06:37:35", "sunriseEpoch": 1536493055, "sunset": "19:19:15", "sunsetEpoch": 1536538755, "moonphase": 1.0, "conditions": "Rain, Overcast", "icon": "rain", "stations": ["KSTL", "KSET", "KSUS", "72434503966", "72434013994", "72434753904"], "source": "obs", "hours": null}], "stations": {"KSTL": {"distance": 145.0, "latitude": 38.75, "longitude": -90.37, "useCount": 0, "id": "KSTL", "name": "KSTL", "quality": 100, "contribution": 0.0}, "KSET": {"distance": 20842.0, "latitude": 38.93, "longitude": -90.43, "useCount": 0, "id": "KSET", "name": "KSET", "quality": 99, "contribution": 0.0}, "KSUS": {"distance": 25852.0, "latitude": 38.67, "longitude": -90.65, "useCount": 0, "id": "KSUS", "name": "KSUS", "quality": 100, "contribution": 0.0}, "72434503966": {"distance": 26836.0, "latitude": 38.657, "longitude": -90.656, "useCount": 0, "id": "72434503966", "name": "ST LOUIS SPIRIT OF ST LOUIS AIRPORT, MO US", "quality": 100, "contribution": 0.0}, "72434013994": {"distance": 526.0, "latitude": 38.753, "longitude": -90.374, "useCount": 0, "id": "72434013994", "name": "ST LOUIS LAMBERT INTERNATIONAL AIRPORT, MO US", "quality": 100, "contribution": 0.0}, "72434753904": {"distance": 20651.0, "latitude": 38.929, "longitude": -90.428, "useCount": 0, "id": "72434753904", "name": "ST CHARLES CO AIRPORT, MO US", "quality": 98, "contribution": 0.0}}}