{"queryCost": 1, "latitude": 38.748697, "longitude": -90.370003, "resolvedAddress": "38.748697, -90.370003", "address": "38.748697, -90.370003", "timezone": "America/Chicago", "tzoffset": -5.0, "days": [{"datetime": "2018-10-16", "datetimeEpoch": 1539666000, "tempmax": 15.0, "tempmin": 2.8, "temp": 8.3, "feelslikemax": 15.0, "feelslikemin": 1.5, "feelslike": 7.8, "dew": 1.1, "humidity": 64.77, "precip": 0.0, "precipprob": null, "precipcover": 0.0, "preciptype": null, "snow": 0.0, "snowdepth": 0.0, "windgust": 31.7, "windspeed": 18.4, "winddir": 260.0, "pressure": 1025.7, "cloudcover": 64.6, "visibility": 16.0, "solarradiation": 255.9, "solarenergy": 11.1, "sunrise": "07:11:44", "sunriseEpoch": 1539691904, "sunset": "18:21:39", "sunsetEpoch": 1539732099, "moonphase": 0.24, "conditions": "Partially cloudy", "icon": "partly-cloudy-day", "stations": ["KSTL", "KSET", "KSUS", "72434503966", "72434013994", "72434753904"], "source": "obs", "hours": null}], "stations": {"KSTL": {"distance": 145.0, "latitude": 38.75, "longitude": -90.37, "useCount": 0, "id": "KSTL", "name": "KSTL", "quality": 100, "contribution": 0.0}, "KSET": {"distance": 20842.0, "latitude": 38.93, "longitude": -90.43, "useCount": 0, "id": "KSET", "name": "KSET", "quality": 99, "contribution": 0.0}, "KSUS": {"distance": 25852.0, "latitude": 38.67, "longitude": -90.65, "useCount": 0, "id": "KSUS", "name": "KSUS", "quality": 100, "contribution": 0.0}, "72434503966": {"distance": 26836.0, "latitude": 38.657, "longitude": -90.656, "useCount": 0, "id": "72434503966", "name": "ST LOUIS SPIRIT OF ST LOUIS AIRPORT, MO US", "quality": 100, "contribution": 0.0}, "72434013994": {"distance": 526.0, "latitude": 38.753, "longitude": -90.374, "useCount": 0, "id": "72434013994", "name": "ST LOUIS LAMBERT INTERNATIONAL AIRPORT, MO US", "quality": 100, "contribution": 0.0}, "72434753904": {"distance": 20651.0, "latitude": 38.929, "longitude": -90.428, "useCount": 0, "id": "72434753904", "name": "ST CHARLES CO AIRPORT, MO US", "quality": 98, "contribution": 0.0}}}