{"queryCost": 1, "latitude": 38.50899887, "longitude": -122.8130035, "resolvedAddress": "38.50899887, -122.8130035", "address": "38.50899887, -122.8130035", "timezone": "America/Los_Angeles", "tzoffset": -7.0, "days": [{"datetime": "2018-04-26", "datetimeEpoch": 1524726000, "tempmax": 18.3, "tempmin": 8.4, "temp": 11.9, "feelslikemax": 18.3, "feelslikemin": 7.2, "feelslike": 11.7, "dew": 8.4, "humidity": 80.61, "precip": 0.0, "precipprob": null, "precipcover": 0.0, "preciptype": null, "snow": 0.0, "snowdepth": 0.0, "windgust": 35.3, "windspeed": 18.4, "winddir": 227.8, "pressure": 1015.3, "cloudcover": 52.4, "visibility": 15.4, "solarradiation": 392.2, "solarenergy": 15.5, "sunrise": "06:20:06", "sunriseEpoch": 1524748806, "sunset": "19:58:31", "sunsetEpoch": 1524797911, "moonphase": 0.43, "conditions": "Partially cloudy", "icon": "partly-cloudy-day", "stations": ["72495723213", "99999993245", "KDVO", "KSTS", "KO69", "72040600135"], "source": "obs", "hours": null}], "stations": {"72495723213": {"distance": 635.0, "latitude": 38.504, "longitude": -122.81, "useCount": 0, "id": "72495723213", "name": "SANTA ROSA SONOMA CO AIRPORT, CA US", "quality": 100, "contribution": 0.0}, "99999993245": {"distance": 31002.0, "latitude": 38.321, "longitude": -123.075, "useCount": 0, "id": "99999993245", "name": "BODEGA 6 WSW, CA US", "quality": 100, "contribution": 0.0}, "KDVO": {"distance": 46642.0, "latitude": 38.14, "longitude": -122.56, "useCount": 0, "id": "KDVO", "name": "KDVO", "quality": 100, "contribution": 0.0}, "KSTS": {"distance": 1173.0, "latitude": 38.5, "longitude": -122.82, "useCount": 0, "id": "KSTS", "name": "KSTS", "quality": 100, "contribution": 0.0}, "KO69": {"distance": 34304.0, "latitude": 38.25, "longitude": -122.6, "useCount": 0, "id": "KO69", "name": "KO69", "quality": 97, "contribution": 0.0}, "72040600135": {"distance": 46093.0, "latitude": 38.15, "longitude": -122.55, "useCount": 0, "id": "72040600135", "name": "GNOSS FIELD AIRPORT, CA US", "quality": 100, "contribution": 0.0}}}