{"queryCost": 1, "latitude": 42.402599, "longitude": -96.384399, "resolvedAddress": "42.402599, -96.384399", "address": "42.402599, -96.384399", "timezone": "America/Chicago", "tzoffset": -6.0, "days": [{"datetime": "2020-01-07", "datetimeEpoch": 1578376800, "tempmax": 3.8, "tempmin": -6.6, "temp": -1.2, "feelslikemax": 3.3, "feelslikemin": -10.7, "feelslike": -5.2, "dew": -5.1, "humidity": 75.65, "precip": 0.0, "precipprob": null, "precipcover": 0.0, "preciptype": null, "snow": 0.0, "snowdepth": 0.0, "windgust": 42.5, "windspeed": 29.5, "winddir": 273.8, "pressure": 1021.9, "cloudcover": 34.1, "visibility": 15.9, "solarradiation": null, "solarenergy": null, "uvindex": 0.0, "sunrise": "07:54:52", "sunriseEpoch": 1578405292, "sunset": "17:08:47", "sunsetEpoch": 1578438527, "moonphase": 0.44, "conditions": "Partially cloudy", "description": "Partly cloudly.", "icon": "partly-cloudy-day", "stations": ["72224154925", "72548404942", "KLCG", "KSUX", "72557014943"], "source": "obs", "hours": null}], "stations": {"KSUX": {"distance": 463.0, "latitude": 42.4, "longitude": -96.38, "useCount": 0, "id": "KSUX", "name": "KSUX", "quality": 100, "contribution": 0.0}, "72224154925": {"distance": 52412.0, "latitude": 42.242, "longitude": -96.983, "useCount": 0, "id": "72224154925", "name": "WAYNE MUNICIPAL AIRPORT, NE US", "quality": 100, "contribution": 0.0}, "72548404942": {"distance": 44598.0, "latitude": 42.778, "longitude": -96.194, "useCount": 0, "id": "72548404942", "name": "LE MARS MUNICIPAL AIRPORT, IA US", "quality": 100, "contribution": 0.0}, "KLCG": {"distance": 52257.0, "latitude": 42.24, "longitude": -96.98, "useCount": 0, "id": "KLCG", "name": "KLCG", "quality": 99, "contribution": 0.0}, "72557014943": {"distance": 1331.0, "latitude": 42.391, "longitude": -96.379, "useCount": 0, "id": "72557014943", "name": "SIOUX CITY AIRPORT, IA US", "quality": 100, "contribution": 0.0}}}