{"queryCost": 1, "latitude": 42.402599, "longitude": -96.384399, "resolvedAddress": "42.402599, -96.384399", "address": "42.402599, -96.384399", "timezone": "America/Chicago", "tzoffset": -6.0, "days": [{"datetime": "2020-01-05", "datetimeEpoch": 1578204000, "tempmax": 6.1, "tempmin": -2.2, "temp": 3.1, "feelslikemax": 1.0, "feelslikemin": -5.2, "feelslike": -1.6, "dew": -2.6, "humidity": 66.75, "precip": 0.0, "precipprob": null, "precipcover": 0.0, "preciptype": null, "snow": 0.0, "snowdepth": 0.0, "windgust": 71.1, "windspeed": 48.2, "winddir": 292.9, "pressure": 1019.6, "cloudcover": 4.7, "visibility": 16.0, "solarradiation": null, "solarenergy": null, "sunrise": "07:55:04", "sunriseEpoch": 1578232504, "sunset": "17:06:48", "sunsetEpoch": 1578265608, "moonphase": 0.36, "conditions": "Clear", "icon": "wind", "stations": ["72224154925", "72548404942", "KLCG", "KSUX", "72557014943"], "source": "obs", "hours": null}], "stations": {"KSUX": {"distance": 463.0, "latitude": 42.4, "longitude": -96.38, "useCount": 0, "id": "KSUX", "name": "KSUX", "quality": 100, "contribution": 0.0}, "72224154925": {"distance": 52412.0, "latitude": 42.242, "longitude": -96.983, "useCount": 0, "id": "72224154925", "name": "WAYNE MUNICIPAL AIRPORT, NE US", "quality": 100, "contribution": 0.0}, "72548404942": {"distance": 44598.0, "latitude": 42.778, "longitude": -96.194, "useCount": 0, "id": "72548404942", "name": "LE MARS MUNICIPAL AIRPORT, IA US", "quality": 100, "contribution": 0.0}, "KLCG": {"distance": 52257.0, "latitude": 42.24, "longitude": -96.98, "useCount": 0, "id": "KLCG", "name": "KLCG", "quality": 99, "contribution": 0.0}, "72557014943": {"distance": 1331.0, "latitude": 42.391, "longitude": -96.379, "useCount": 0, "id": "72557014943", "name": "SIOUX CITY AIRPORT, IA US", "quality": 100, "contribution": 0.0}}}