{"queryCost": 1, "latitude": 41.504101, "longitude": -74.104797, "resolvedAddress": "41.504101, -74.104797", "address": "41.504101, -74.104797", "timezone": "America/New_York", "tzoffset": -5.0, "days": [{"datetime": "2020-01-04", "datetimeEpoch": 1578114000, "tempmax": 7.4, "tempmin": 3.8, "temp": 5.8, "feelslikemax": 7.1, "feelslikemin": -0.3, "feelslike": 4.4, "dew": 4.6, "humidity": 92.59, "precip": 7.06, "precipprob": null, "precipcover": 45.83, "preciptype": null, "snow": 0.0, "snowdepth": 0.0, "windgust": 37.1, "windspeed": 19.4, "winddir": 146.0, "pressure": 1003.2, "cloudcover": 81.3, "visibility": 7.2, "solarradiation": 27.6, "solarenergy": 1.0, "sunrise": "07:23:09", "sunriseEpoch": 1578140589, "sunset": "16:39:30", "sunsetEpoch": 1578173970, "moonphase": 0.31, "conditions": "Rain, Overcast", "icon": "rain", "stations": ["72503614757", "99999964756", "72501504789", "KMGJ", "KPOU"], "source": "obs", "hours": null}], "stations": {"KPOU": {"distance": 23387.0, "latitude": 41.63, "longitude": -73.88, "useCount": 0, "id": "KPOU", "name": "KPOU", "quality": 100, "contribution": 0.0}, "72503614757": {"distance": 22996.0, "latitude": 41.626, "longitude": -73.882, "useCount": 0, "id": "72503614757", "name": "POUGHKEEPSIE AIRPORT, NY US", "quality": 100, "contribution": 0.0}, "99999964756": {"distance": 43503.0, "latitude": 41.786, "longitude": -73.742, "useCount": 0, "id": "99999964756", "name": "MILLBROOK 3 W, NY US", "quality": 100, "contribution": 0.0}, "72501504789": {"distance": 13367.0, "latitude": 41.509, "longitude": -74.265, "useCount": 0, "id": "72501504789", "name": "MONTGOMERY ORANGE CO AIRPORT, NY US", "quality": 99, "contribution": 0.0}, "KMGJ": {"distance": 13884.0, "latitude": 41.52, "longitude": -74.27, "useCount": 0, "id": "KMGJ", "name": "KMGJ", "quality": 100, "contribution": 0.0}}}