{"queryCost": 1, "latitude": 41.504101, "longitude": -74.104797, "resolvedAddress": "41.504101, -74.104797", "address": "41.504101, -74.104797", "timezone": "America/New_York", "tzoffset": -5.0, "days": [{"datetime": "2020-01-03", "datetimeEpoch": 1578027600, "tempmax": 7.1, "tempmin": 3.0, "temp": 5.3, "feelslikemax": 6.6, "feelslikemin": 0.9, "feelslike": 3.9, "dew": 3.0, "humidity": 85.29, "precip": 1.09, "precipprob": null, "precipcover": 12.5, "preciptype": null, "snow": 0.0, "snowdepth": 0.0, "windgust": null, "windspeed": 10.0, "winddir": 214.7, "pressure": 1008.7, "cloudcover": 86.5, "visibility": 14.7, "solarradiation": 52.2, "solarenergy": 1.9, "sunrise": "07:23:08", "sunriseEpoch": 1578054188, "sunset": "16:38:36", "sunsetEpoch": 1578087516, "moonphase": 0.26, "conditions": "Rain, Overcast", "icon": "rain", "stations": ["72503614757", "99999964756", "72501504789", "KMGJ", "KPOU"], "source": "obs", "hours": null}], "stations": {"KPOU": {"distance": 23387.0, "latitude": 41.63, "longitude": -73.88, "useCount": 0, "id": "KPOU", "name": "KPOU", "quality": 100, "contribution": 0.0}, "72503614757": {"distance": 22996.0, "latitude": 41.626, "longitude": -73.882, "useCount": 0, "id": "72503614757", "name": "POUGHKEEPSIE AIRPORT, NY US", "quality": 100, "contribution": 0.0}, "99999964756": {"distance": 43503.0, "latitude": 41.786, "longitude": -73.742, "useCount": 0, "id": "99999964756", "name": "MILLBROOK 3 W, NY US", "quality": 100, "contribution": 0.0}, "72501504789": {"distance": 13367.0, "latitude": 41.509, "longitude": -74.265, "useCount": 0, "id": "72501504789", "name": "MONTGOMERY ORANGE CO AIRPORT, NY US", "quality": 99, "contribution": 0.0}, "KMGJ": {"distance": 13884.0, "latitude": 41.52, "longitude": -74.27, "useCount": 0, "id": "KMGJ", "name": "KMGJ", "quality": 100, "contribution": 0.0}}}