{"queryCost": 1, "latitude": 41.504101, "longitude": -74.104797, "resolvedAddress": "41.504101, -74.104797", "address": "41.504101, -74.104797", "timezone": "America/New_York", "tzoffset": -5.0, "days": [{"datetime": "2020-01-06", "datetimeEpoch": 1578286800, "tempmax": 5.4, "tempmin": -3.0, "temp": 0.0, "feelslikemax": 1.8, "feelslikemin": -6.2, "feelslike": -2.6, "dew": -3.6, "humidity": 77.91, "precip": 0.62, "precipprob": null, "precipcover": 12.5, "preciptype": null, "snow": 0.0, "snowdepth": 0.0, "windgust": 53.6, "windspeed": 21.3, "winddir": 221.5, "pressure": 1013.2, "cloudcover": 53.8, "visibility": 14.6, "solarradiation": 121.9, "solarenergy": 4.4, "sunrise": "07:23:04", "sunriseEpoch": 1578313384, "sunset": "16:41:24", "sunsetEpoch": 1578346884, "moonphase": 0.4, "conditions": "Rain, Partially cloudy", "icon": "rain", "stations": ["72503614757", "99999964756", "72501504789", "KMGJ", "KPOU"], "source": "obs", "hours": null}], "stations": {"KPOU": {"distance": 23387.0, "latitude": 41.63, "longitude": -73.88, "useCount": 0, "id": "KPOU", "name": "KPOU", "quality": 100, "contribution": 0.0}, "72503614757": {"distance": 22996.0, "latitude": 41.626, "longitude": -73.882, "useCount": 0, "id": "72503614757", "name": "POUGHKEEPSIE AIRPORT, NY US", "quality": 100, "contribution": 0.0}, "99999964756": {"distance": 43503.0, "latitude": 41.786, "longitude": -73.742, "useCount": 0, "id": "99999964756", "name": "MILLBROOK 3 W, NY US", "quality": 100, "contribution": 0.0}, "72501504789": {"distance": 13367.0, "latitude": 41.509, "longitude": -74.265, "useCount": 0, "id": "72501504789", "name": "MONTGOMERY ORANGE CO AIRPORT, NY US", "quality": 99, "contribution": 0.0}, "KMGJ": {"distance": 13884.0, "latitude": 41.52, "longitude": -74.27, "useCount": 0, "id": "KMGJ", "name": "KMGJ", "quality": 100, "contribution": 0.0}}}