{"queryCost": 1, "latitude": 27.975500106811523, "longitude": -82.533203125, "resolvedAddress": "27.975500106811523, -82.533203125", "address": "27.975500106811523, -82.533203125", "timezone": "America/New_York", "tzoffset": -5.0, "days": [{"datetime": "2018-01-12", "datetimeEpoch": 1515733200, "tempmax": 23.3, "tempmin": 17.2, "temp": 19.7, "feelslikemax": 23.3, "feelslikemin": 17.2, "feelslike": 19.7, "dew": 17.9, "humidity": 89.55, "precip": 1.01, "precipprob": null, "precipcover": 12.5, "preciptype": null, "snow": 0.0, "snowdepth": 0.0, "windgust": 51.8, "windspeed": 26.0, "winddir": 182.6, "pressure": 1012.7, "cloudcover": 74.7, "visibility": 13.0, "solarradiation": 73.4, "solarenergy": 5.8, "sunrise": "07:22:56", "sunriseEpoch": 1515759776, "sunset": "17:54:17", "sunsetEpoch": 1515797657, "moonphase": 0.92, "conditions": "Rain, Partially cloudy", "icon": "rain", "stations": ["74788012810", "KPIE", "KMCF", "72211612873", "KTPA", "72211012842"], "source": "obs", "hours": null}], "stations": {"74788012810": {"distance": 14065.0, "latitude": 27.85, "longitude": -82.517, "useCount": 0, "id": "74788012810", "name": "MACDILL AFB, FL US", "quality": 99, "contribution": 0.0}, "KPIE": {"distance": 15702.0, "latitude": 27.92, "longitude": -82.68, "useCount": 0, "id": "KPIE", "name": "KPIE", "quality": 100, "contribution": 0.0}, "KMCF": {"distance": 14031.0, "latitude": 27.85, "longitude": -82.52, "useCount": 0, "id": "KMCF", "name": "KMCF", "quality": 100, "contribution": 0.0}, "72211612873": {"distance": 16806.0, "latitude": 27.911, "longitude": -82.687, "useCount": 0, "id": "72211612873", "name": "ST PETERSBURG CLEARWATER INTERNATIONAL AIRPORT, FL US", "quality": 100, "contribution": 0.0}, "KTPA": {"distance": 689.0, "latitude": 27.97, "longitude": -82.53, "useCount": 0, "id": "KTPA", "name": "KTPA", "quality": 100, "contribution": 0.0}, "72211012842": {"distance": 1667.0, "latitude": 27.962, "longitude": -82.54, "useCount": 0, "id": "72211012842", "name": "TAMPA INTERNATIONAL AIRPORT, FL US", "quality": 100, "contribution": 0.0}}}