{"queryCost": 1, "latitude": 27.975500106811523, "longitude": -82.533203125, "resolvedAddress": "27.975500106811523, -82.533203125", "address": "27.975500106811523, -82.533203125", "timezone": "America/New_York", "tzoffset": -4.0, "days": [{"datetime": "2018-10-25", "datetimeEpoch": 1540440000, "tempmax": 28.9, "tempmin": 20.0, "temp": 24.3, "feelslikemax": 30.6, "feelslikemin": 20.0, "feelslike": 24.8, "dew": 18.9, "humidity": 72.85, "precip": 1.4, "precipprob": null, "precipcover": 12.5, "preciptype": null, "snow": 0.0, "snowdepth": 0.0, "windgust": 31.7, "windspeed": 14.8, "winddir": 125.6, "pressure": 1014.0, "cloudcover": 50.8, "visibility": 15.9, "solarradiation": 388.9, "solarenergy": 18.2, "sunrise": "07:36:34", "sunriseEpoch": 1540467394, "sunset": "18:51:22", "sunsetEpoch": 1540507882, "moonphase": 0.51, "conditions": "Rain, Partially cloudy", "icon": "rain", "stations": ["74788012810", "KPIE", "KMCF", "72211612873", "72211012842", "KTPA"], "source": "obs", "hours": null}], "stations": {"74788012810": {"distance": 14065.0, "latitude": 27.85, "longitude": -82.517, "useCount": 0, "id": "74788012810", "name": "MACDILL AFB, FL US", "quality": 99, "contribution": 0.0}, "KPIE": {"distance": 15702.0, "latitude": 27.92, "longitude": -82.68, "useCount": 0, "id": "KPIE", "name": "KPIE", "quality": 100, "contribution": 0.0}, "KMCF": {"distance": 14031.0, "latitude": 27.85, "longitude": -82.52, "useCount": 0, "id": "KMCF", "name": "KMCF", "quality": 100, "contribution": 0.0}, "72211612873": {"distance": 16806.0, "latitude": 27.911, "longitude": -82.687, "useCount": 0, "id": "72211612873", "name": "ST PETERSBURG CLEARWATER INTERNATIONAL AIRPORT, FL US", "quality": 100, "contribution": 0.0}, "72211012842": {"distance": 1667.0, "latitude": 27.962, "longitude": -82.54, "useCount": 0, "id": "72211012842", "name": "TAMPA INTERNATIONAL AIRPORT, FL US", "quality": 100, "contribution": 0.0}, "KTPA": {"distance": 689.0, "latitude": 27.97, "longitude": -82.53, "useCount": 0, "id": "KTPA", "name": "KTPA", "quality": 100, "contribution": 0.0}}}