{"queryCost": 1, "latitude": 27.975500106811523, "longitude": -82.533203125, "resolvedAddress": "27.975500106811523, -82.533203125", "address": "27.975500106811523, -82.533203125", "timezone": "America/New_York", "tzoffset": -4.0, "days": [{"datetime": "2018-09-03", "datetimeEpoch": 1535947200, "tempmax": 31.0, "tempmin": 25.1, "temp": 27.2, "feelslikemax": 36.3, "feelslikemin": 25.1, "feelslike": 29.1, "dew": 22.9, "humidity": 77.62, "precip": 10.61, "precipprob": null, "precipcover": 12.5, "preciptype": null, "snow": 0.0, "snowdepth": 0.0, "windgust": 52.9, "windspeed": 23.3, "winddir": 74.8, "pressure": 1017.6, "cloudcover": 63.8, "visibility": 15.8, "solarradiation": 232.3, "solarenergy": 11.7, "sunrise": "07:09:38", "sunriseEpoch": 1535972978, "sunset": "19:48:49", "sunsetEpoch": 1536018529, "moonphase": 0.78, "conditions": "Rain, Partially cloudy", "icon": "rain", "stations": ["74788012810", "KPIE", "KMCF", "72211612873", "KTPA", "72211012842"], "source": "obs", "hours": null}], "stations": {"74788012810": {"distance": 14065.0, "latitude": 27.85, "longitude": -82.517, "useCount": 0, "id": "74788012810", "name": "MACDILL AFB, FL US", "quality": 99, "contribution": 0.0}, "KPIE": {"distance": 15702.0, "latitude": 27.92, "longitude": -82.68, "useCount": 0, "id": "KPIE", "name": "KPIE", "quality": 100, "contribution": 0.0}, "KMCF": {"distance": 14031.0, "latitude": 27.85, "longitude": -82.52, "useCount": 0, "id": "KMCF", "name": "KMCF", "quality": 100, "contribution": 0.0}, "72211612873": {"distance": 16806.0, "latitude": 27.911, "longitude": -82.687, "useCount": 0, "id": "72211612873", "name": "ST PETERSBURG CLEARWATER INTERNATIONAL AIRPORT, FL US", "quality": 100, "contribution": 0.0}, "KTPA": {"distance": 689.0, "latitude": 27.97, "longitude": -82.53, "useCount": 0, "id": "KTPA", "name": "KTPA", "quality": 100, "contribution": 0.0}, "72211012842": {"distance": 1667.0, "latitude": 27.962, "longitude": -82.54, "useCount": 0, "id": "72211012842", "name": "TAMPA INTERNATIONAL AIRPORT, FL US", "quality": 100, "contribution": 0.0}}}