{"queryCost": 1, "latitude": 27.975500106811523, "longitude": -82.533203125, "resolvedAddress": "27.975500106811523, -82.533203125", "address": "27.975500106811523, -82.533203125", "timezone": "America/New_York", "tzoffset": -4.0, "days": [{"datetime": "2018-07-24", "datetimeEpoch": 1532404800, "tempmax": 31.7, "tempmin": 25.7, "temp": 28.8, "feelslikemax": 36.8, "feelslikemin": 25.7, "feelslike": 32.5, "dew": 23.3, "humidity": 72.55, "precip": 7.07, "precipprob": null, "precipcover": 29.17, "preciptype": null, "snow": 0.0, "snowdepth": 0.0, "windgust": 51.8, "windspeed": 20.5, "winddir": 231.7, "pressure": 1012.6, "cloudcover": 76.7, "visibility": 15.5, "solarradiation": 474.3, "solarenergy": 23.9, "sunrise": "06:48:25", "sunriseEpoch": 1532429305, "sunset": "20:24:36", "sunsetEpoch": 1532478276, "moonphase": 0.45, "conditions": "Rain, Overcast", "icon": "rain", "stations": ["74788012810", "KPIE", "KMCF", "72211612873", "KTPA", "72211012842"], "source": "obs", "hours": null}], "stations": {"74788012810": {"distance": 14065.0, "latitude": 27.85, "longitude": -82.517, "useCount": 0, "id": "74788012810", "name": "MACDILL AFB, FL US", "quality": 99, "contribution": 0.0}, "KPIE": {"distance": 15702.0, "latitude": 27.92, "longitude": -82.68, "useCount": 0, "id": "KPIE", "name": "KPIE", "quality": 100, "contribution": 0.0}, "KMCF": {"distance": 14031.0, "latitude": 27.85, "longitude": -82.52, "useCount": 0, "id": "KMCF", "name": "KMCF", "quality": 100, "contribution": 0.0}, "72211612873": {"distance": 16806.0, "latitude": 27.911, "longitude": -82.687, "useCount": 0, "id": "72211612873", "name": "ST PETERSBURG CLEARWATER INTERNATIONAL AIRPORT, FL US", "quality": 100, "contribution": 0.0}, "KTPA": {"distance": 689.0, "latitude": 27.97, "longitude": -82.53, "useCount": 0, "id": "KTPA", "name": "KTPA", "quality": 100, "contribution": 0.0}, "72211012842": {"distance": 1667.0, "latitude": 27.962, "longitude": -82.54, "useCount": 0, "id": "72211012842", "name": "TAMPA INTERNATIONAL AIRPORT, FL US", "quality": 100, "contribution": 0.0}}}