{"queryCost": 1, "latitude": 27.975500106811523, "longitude": -82.533203125, "resolvedAddress": "27.975500106811523, -82.533203125", "address": "27.975500106811523, -82.533203125", "timezone": "America/New_York", "tzoffset": -5.0, "days": [{"datetime": "2019-02-16", "datetimeEpoch": 1550293200, "tempmax": 23.9, "tempmin": 16.7, "temp": 20.1, "feelslikemax": 23.9, "feelslikemin": 16.7, "feelslike": 20.1, "dew": 16.9, "humidity": 82.34, "precip": 0.0, "precipprob": null, "precipcover": 0.0, "preciptype": null, "snow": 0.0, "snowdepth": 0.0, "windgust": null, "windspeed": 22.3, "winddir": 156.3, "pressure": 1013.0, "cloudcover": 44.2, "visibility": 16.0, "solarradiation": 378.5, "solarenergy": 16.4, "sunrise": "07:07:00", "sunriseEpoch": 1550318820, "sunset": "18:21:47", "sunsetEpoch": 1550359307, "moonphase": 0.43, "conditions": "Partially cloudy", "icon": "partly-cloudy-day", "stations": ["74788012810", "KPIE", "KMCF", "72211612873", "KTPA", "72211012842"], "source": "obs", "hours": null}], "stations": {"74788012810": {"distance": 14065.0, "latitude": 27.85, "longitude": -82.517, "useCount": 0, "id": "74788012810", "name": "MACDILL AFB, FL US", "quality": 99, "contribution": 0.0}, "KPIE": {"distance": 15702.0, "latitude": 27.92, "longitude": -82.68, "useCount": 0, "id": "KPIE", "name": "KPIE", "quality": 100, "contribution": 0.0}, "KMCF": {"distance": 14031.0, "latitude": 27.85, "longitude": -82.52, "useCount": 0, "id": "KMCF", "name": "KMCF", "quality": 100, "contribution": 0.0}, "72211612873": {"distance": 16806.0, "latitude": 27.911, "longitude": -82.687, "useCount": 0, "id": "72211612873", "name": "ST PETERSBURG CLEARWATER INTERNATIONAL AIRPORT, FL US", "quality": 100, "contribution": 0.0}, "KTPA": {"distance": 689.0, "latitude": 27.97, "longitude": -82.53, "useCount": 0, "id": "KTPA", "name": "KTPA", "quality": 100, "contribution": 0.0}, "72211012842": {"distance": 1667.0, "latitude": 27.962, "longitude": -82.54, "useCount": 0, "id": "72211012842", "name": "TAMPA INTERNATIONAL AIRPORT, FL US", "quality": 100, "contribution": 0.0}}}