{"queryCost": 1, "latitude": 27.975500106811523, "longitude": -82.533203125, "resolvedAddress": "27.975500106811523, -82.533203125", "address": "27.975500106811523, -82.533203125", "timezone": "America/New_York", "tzoffset": -5.0, "days": [{"datetime": "2018-02-28", "datetimeEpoch": 1519794000, "tempmax": 27.2, "tempmin": 17.8, "temp": 22.5, "feelslikemax": 28.3, "feelslikemin": 17.8, "feelslike": 22.7, "dew": 17.3, "humidity": 73.79, "precip": 0.0, "precipprob": null, "precipcover": 0.0, "preciptype": null, "snow": 0.0, "snowdepth": 0.0, "windgust": null, "windspeed": 16.6, "winddir": 146.5, "pressure": 1019.7, "cloudcover": 20.0, "visibility": 16.0, "solarradiation": 433.1, "solarenergy": 18.7, "sunrise": "06:55:39", "sunriseEpoch": 1519818939, "sunset": "18:29:57", "sunsetEpoch": 1519860597, "moonphase": 0.48, "conditions": "Clear", "icon": "clear-day", "stations": ["74788012810", "KPIE", "KMCF", "72211612873", "KTPA", "72211012842"], "source": "obs", "hours": null}], "stations": {"74788012810": {"distance": 14065.0, "latitude": 27.85, "longitude": -82.517, "useCount": 0, "id": "74788012810", "name": "MACDILL AFB, FL US", "quality": 99, "contribution": 0.0}, "KPIE": {"distance": 15702.0, "latitude": 27.92, "longitude": -82.68, "useCount": 0, "id": "KPIE", "name": "KPIE", "quality": 100, "contribution": 0.0}, "KMCF": {"distance": 14031.0, "latitude": 27.85, "longitude": -82.52, "useCount": 0, "id": "KMCF", "name": "KMCF", "quality": 100, "contribution": 0.0}, "72211612873": {"distance": 16806.0, "latitude": 27.911, "longitude": -82.687, "useCount": 0, "id": "72211612873", "name": "ST PETERSBURG CLEARWATER INTERNATIONAL AIRPORT, FL US", "quality": 100, "contribution": 0.0}, "KTPA": {"distance": 689.0, "latitude": 27.97, "longitude": -82.53, "useCount": 0, "id": "KTPA", "name": "KTPA", "quality": 100, "contribution": 0.0}, "72211012842": {"distance": 1667.0, "latitude": 27.962, "longitude": -82.54, "useCount": 0, "id": "72211012842", "name": "TAMPA INTERNATIONAL AIRPORT, FL US", "quality": 100, "contribution": 0.0}}}