{"queryCost": 1, "latitude": 40.27669906616211, "longitude": -74.8134994506836, "resolvedAddress": "40.27669906616211, -74.8134994506836", "address": "40.27669906616211, -74.8134994506836", "timezone": "America/New_York", "tzoffset": -5.0, "days": [{"datetime": "2020-01-06", "datetimeEpoch": 1578286800, "tempmax": 8.4, "tempmin": -0.6, "temp": 3.5, "feelslikemax": 6.8, "feelslikemin": -4.4, "feelslike": 1.4, "dew": -3.3, "humidity": 63.9, "precip": 0.0, "precipprob": null, "precipcover": 0.0, "preciptype": null, "snow": 0.0, "snowdepth": 0.0, "windgust": 37.1, "windspeed": 24.1, "winddir": 240.4, "pressure": 1014.8, "cloudcover": 59.6, "visibility": 14.9, "solarradiation": 92.7, "solarenergy": 3.3, "sunrise": "07:22:13", "sunriseEpoch": 1578313333, "sunset": "16:47:55", "sunsetEpoch": 1578347275, "moonphase": 0.4, "conditions": "Partially cloudy", "icon": "partly-cloudy-day", "stations": ["KTTN", "72409514792", "72408594732", "72511354786", "KDYL", "KPNE"], "source": "obs", "hours": null}], "stations": {"KTTN": {"distance": 473.0, "latitude": 40.28, "longitude": -74.81, "useCount": 0, "id": "KTTN", "name": "KTTN", "quality": 100, "contribution": 0.0}, "72409514792": {"distance": 204.0, "latitude": 40.277, "longitude": -74.816, "useCount": 0, "id": "72409514792", "name": "TRENTON MERCER AIRPORT, NJ US", "quality": 100, "contribution": 0.0}, "72408594732": {"distance": 27819.0, "latitude": 40.079, "longitude": -75.013, "useCount": 0, "id": "72408594732", "name": "NORTHEAST PHILADELPHIA AIRPORT, PA US", "quality": 100, "contribution": 0.0}, "72511354786": {"distance": 26933.0, "latitude": 40.33, "longitude": -75.123, "useCount": 0, "id": "72511354786", "name": "DOYLESTOWN AIRPORT, PA US", "quality": 100, "contribution": 0.0}, "KDYL": {"distance": 26688.0, "latitude": 40.33, "longitude": -75.12, "useCount": 0, "id": "KDYL", "name": "KDYL", "quality": 100, "contribution": 0.0}, "KPNE": {"distance": 27546.0, "latitude": 40.08, "longitude": -75.01, "useCount": 0, "id": "KPNE", "name": "KPNE", "quality": 100, "contribution": 0.0}}}