{"queryCost": 1, "latitude": 40.27669906616211, "longitude": -74.8134994506836, "resolvedAddress": "40.27669906616211, -74.8134994506836", "address": "40.27669906616211, -74.8134994506836", "timezone": "America/New_York", "tzoffset": -4.0, "days": [{"datetime": "2019-06-17", "datetimeEpoch": 1560744000, "tempmax": 25.7, "tempmin": 20.0, "temp": 22.4, "feelslikemax": 25.7, "feelslikemin": 20.0, "feelslike": 22.4, "dew": 19.7, "humidity": 85.65, "precip": 0.5, "precipprob": null, "precipcover": 4.17, "preciptype": null, "snow": 0.0, "snowdepth": 0.0, "windgust": 27.7, "windspeed": 11.2, "winddir": 162.4, "pressure": 1013.3, "cloudcover": 55.6, "visibility": 14.4, "solarradiation": 226.8, "solarenergy": 13.1, "sunrise": "05:29:06", "sunriseEpoch": 1560763746, "sunset": "20:31:19", "sunsetEpoch": 1560817879, "moonphase": 0.5, "conditions": "Rain, Partially cloudy", "icon": "rain", "stations": ["KTTN", "72409514792", "72408594732", "72511354786", "KDYL", "KPNE"], "source": "obs", "hours": null}], "stations": {"KTTN": {"distance": 473.0, "latitude": 40.28, "longitude": -74.81, "useCount": 0, "id": "KTTN", "name": "KTTN", "quality": 100, "contribution": 0.0}, "72409514792": {"distance": 204.0, "latitude": 40.277, "longitude": -74.816, "useCount": 0, "id": "72409514792", "name": "TRENTON MERCER AIRPORT, NJ US", "quality": 100, "contribution": 0.0}, "72408594732": {"distance": 27819.0, "latitude": 40.079, "longitude": -75.013, "useCount": 0, "id": "72408594732", "name": "NORTHEAST PHILADELPHIA AIRPORT, PA US", "quality": 100, "contribution": 0.0}, "72511354786": {"distance": 26933.0, "latitude": 40.33, "longitude": -75.123, "useCount": 0, "id": "72511354786", "name": "DOYLESTOWN AIRPORT, PA US", "quality": 100, "contribution": 0.0}, "KDYL": {"distance": 26688.0, "latitude": 40.33, "longitude": -75.12, "useCount": 0, "id": "KDYL", "name": "KDYL", "quality": 100, "contribution": 0.0}, "KPNE": {"distance": 27546.0, "latitude": 40.08, "longitude": -75.01, "useCount": 0, "id": "KPNE", "name": "KPNE", "quality": 100, "contribution": 0.0}}}