{"queryCost": 1, "latitude": 36.19839859008789, "longitude": -95.88809967041016, "resolvedAddress": "36.19839859008789, -95.88809967041016", "address": "36.19839859008789, -95.88809967041016", "timezone": "America/Chicago", "tzoffset": -6.0, "days": [{"datetime": "2020-01-04", "datetimeEpoch": 1578117600, "tempmax": 10.0, "tempmin": -0.6, "temp": 4.8, "feelslikemax": 10.0, "feelslikemin": -3.9, "feelslike": 3.1, "dew": -6.7, "humidity": 45.32, "precip": 0.0, "precipprob": null, "precipcover": 0.0, "preciptype": null, "snow": 0.0, "snowdepth": 0.0, "windgust": null, "windspeed": 16.6, "winddir": 243.3, "pressure": 1025.0, "cloudcover": 22.0, "visibility": 15.9, "solarradiation": 269.2, "solarenergy": 9.7, "sunrise": "07:35:09", "sunriseEpoch": 1578144909, "sunset": "17:21:48", "sunsetEpoch": 1578180108, "moonphase": 0.31, "conditions": "Clear", "icon": "clear-day", "stations": ["72356453908", "KTUL", "KRVS", "72356013968", "72056100467"], "source": "obs", "hours": null}], "stations": {"72356453908": {"distance": 19704.0, "latitude": 36.039, "longitude": -95.984, "useCount": 0, "id": "72356453908", "name": "TULSA RICHARD L JONES JR AIRPORT, OK US", "quality": 100, "contribution": 0.0}, "KTUL": {"distance": 1084.0, "latitude": 36.2, "longitude": -95.9, "useCount": 0, "id": "KTUL", "name": "KTUL", "quality": 100, "contribution": 0.0}, "72356013968": {"distance": 138.0, "latitude": 36.199, "longitude": -95.887, "useCount": 0, "id": "72356013968", "name": "TULSA INTERNATIONAL AIRPORT, OK US", "quality": 100, "contribution": 0.0}, "72056100467": {"distance": 23831.0, "latitude": 36.175, "longitude": -96.152, "useCount": 0, "id": "72056100467", "name": "WILLIAM R POGUE MUNICIPAL AIRPORT, OK US", "quality": 100, "contribution": 0.0}, "KRVS": {"distance": 19473.0, "latitude": 36.04, "longitude": -95.98, "useCount": 0, "id": "KRVS", "name": "KRVS", "quality": 100, "contribution": 0.0}}}