{"queryCost": 1, "latitude": 36.19839859008789, "longitude": -95.88809967041016, "resolvedAddress": "36.19839859008789, -95.88809967041016", "address": "36.19839859008789, -95.88809967041016", "timezone": "America/Chicago", "tzoffset": -6.0, "days": [{"datetime": "2020-01-03", "datetimeEpoch": 1578031200, "tempmax": 12.9, "tempmin": 3.9, "temp": 7.3, "feelslikemax": 12.9, "feelslikemin": 0.5, "feelslike": 4.9, "dew": 2.0, "humidity": 70.55, "precip": 0.0, "precipprob": null, "precipcover": 0.0, "preciptype": null, "snow": 0.0, "snowdepth": 0.0, "windgust": 37.1, "windspeed": 24.1, "winddir": 327.5, "pressure": 1013.8, "cloudcover": 53.1, "visibility": 16.0, "solarradiation": 207.3, "solarenergy": 7.5, "sunrise": "07:35:03", "sunriseEpoch": 1578058503, "sunset": "17:20:59", "sunsetEpoch": 1578093659, "moonphase": 0.26, "conditions": "Partially cloudy", "icon": "partly-cloudy-day", "stations": ["72356453908", "KTUL", "KRVS", "72356013968", "72056100467"], "source": "obs", "hours": null}], "stations": {"72356453908": {"distance": 19704.0, "latitude": 36.039, "longitude": -95.984, "useCount": 0, "id": "72356453908", "name": "TULSA RICHARD L JONES JR AIRPORT, OK US", "quality": 100, "contribution": 0.0}, "KTUL": {"distance": 1084.0, "latitude": 36.2, "longitude": -95.9, "useCount": 0, "id": "KTUL", "name": "KTUL", "quality": 100, "contribution": 0.0}, "72356013968": {"distance": 138.0, "latitude": 36.199, "longitude": -95.887, "useCount": 0, "id": "72356013968", "name": "TULSA INTERNATIONAL AIRPORT, OK US", "quality": 100, "contribution": 0.0}, "72056100467": {"distance": 23831.0, "latitude": 36.175, "longitude": -96.152, "useCount": 0, "id": "72056100467", "name": "WILLIAM R POGUE MUNICIPAL AIRPORT, OK US", "quality": 100, "contribution": 0.0}, "KRVS": {"distance": 19473.0, "latitude": 36.04, "longitude": -95.98, "useCount": 0, "id": "KRVS", "name": "KRVS", "quality": 100, "contribution": 0.0}}}