{"queryCost": 1, "latitude": 32.115004, "longitude": -110.938053, "resolvedAddress": "32.115004, -110.938053", "address": "32.115004, -110.938053", "timezone": "America/Phoenix", "tzoffset": -7.0, "days": [{"datetime": "2019-11-21", "datetimeEpoch": 1574319600, "tempmax": 16.1, "tempmin": 10.0, "temp": 12.3, "feelslikemax": 16.1, "feelslikemin": 8.3, "feelslike": 12.2, "dew": 7.3, "humidity": 72.46, "precip": 18.56, "precipprob": null, "precipcover": 37.5, "preciptype": null, "snow": 0.0, "snowdepth": 0.0, "windgust": 47.0, "windspeed": 27.2, "winddir": 187.4, "pressure": 1012.1, "cloudcover": 57.9, "visibility": 15.2, "solarradiation": 256.4, "solarenergy": 11.1, "sunrise": "06:57:55", "sunriseEpoch": 1574344675, "sunset": "17:21:02", "sunsetEpoch": 1574382062, "moonphase": 0.85, "conditions": "Rain, Partially cloudy", "icon": "rain", "stations": ["KAVQ", "72274023160", "KTUS", "72274523109", "KDMA", "99999953131"], "source": "obs", "hours": null}], "stations": {"KAVQ": {"distance": 40766.0, "latitude": 32.4, "longitude": -111.21, "useCount": 0, "id": "KAVQ", "name": "KAVQ", "quality": 99, "contribution": 0.0}, "72274023160": {"distance": 2417.0, "latitude": 32.131, "longitude": -110.955, "useCount": 0, "id": "72274023160", "name": "TUCSON INTERNATIONAL AIRPORT, AZ US", "quality": 100, "contribution": 0.0}, "KTUS": {"distance": 2659.0, "latitude": 32.13, "longitude": -110.96, "useCount": 0, "id": "KTUS", "name": "KTUS", "quality": 100, "contribution": 0.0}, "72274523109": {"distance": 7749.0, "latitude": 32.167, "longitude": -110.883, "useCount": 0, "id": "72274523109", "name": "DAVIS MONTHAN AFB, AZ US", "quality": 97, "contribution": 0.0}, "KDMA": {"distance": 8211.0, "latitude": 32.17, "longitude": -110.88, "useCount": 0, "id": "KDMA", "name": "KDMA", "quality": 100, "contribution": 0.0}, "99999953131": {"distance": 25878.0, "latitude": 32.24, "longitude": -111.17, "useCount": 0, "id": "99999953131", "name": "TUCSON 11 W, AZ US", "quality": 100, "contribution": 0.0}}}