{"queryCost": 1, "latitude": 32.115004, "longitude": -110.938053, "resolvedAddress": "32.115004, -110.938053", "address": "32.115004, -110.938053", "timezone": "America/Phoenix", "tzoffset": -7.0, "days": [{"datetime": "2018-01-24", "datetimeEpoch": 1516777200, "tempmax": 22.9, "tempmin": 7.8, "temp": 14.5, "feelslikemax": 22.9, "feelslikemin": 4.9, "feelslike": 13.8, "dew": -16.2, "humidity": 11.1, "precip": 0.0, "precipprob": null, "precipcover": 0.0, "preciptype": null, "snow": 0.0, "snowdepth": 0.0, "windgust": 48.8, "windspeed": 33.8, "winddir": 114.5, "pressure": 1019.6, "cloudcover": 0.0, "visibility": 16.0, "solarradiation": 449.0, "solarenergy": 19.4, "sunrise": "07:21:55", "sunriseEpoch": 1516803715, "sunset": "17:50:11", "sunsetEpoch": 1516841411, "moonphase": 0.23, "conditions": "Clear", "icon": "wind", "stations": ["KAVQ", "72274023160", "KTUS", "72274523109", "KDMA", "99999953131"], "source": "obs", "hours": null}], "stations": {"KAVQ": {"distance": 40766.0, "latitude": 32.4, "longitude": -111.21, "useCount": 0, "id": "KAVQ", "name": "KAVQ", "quality": 99, "contribution": 0.0}, "72274023160": {"distance": 2417.0, "latitude": 32.131, "longitude": -110.955, "useCount": 0, "id": "72274023160", "name": "TUCSON INTERNATIONAL AIRPORT, AZ US", "quality": 100, "contribution": 0.0}, "KTUS": {"distance": 2659.0, "latitude": 32.13, "longitude": -110.96, "useCount": 0, "id": "KTUS", "name": "KTUS", "quality": 100, "contribution": 0.0}, "72274523109": {"distance": 7749.0, "latitude": 32.167, "longitude": -110.883, "useCount": 0, "id": "72274523109", "name": "DAVIS MONTHAN AFB, AZ US", "quality": 97, "contribution": 0.0}, "KDMA": {"distance": 8211.0, "latitude": 32.17, "longitude": -110.88, "useCount": 0, "id": "KDMA", "name": "KDMA", "quality": 100, "contribution": 0.0}, "99999953131": {"distance": 25878.0, "latitude": 32.24, "longitude": -111.17, "useCount": 0, "id": "99999953131", "name": "TUCSON 11 W, AZ US", "quality": 100, "contribution": 0.0}}}