{"queryCost": 1, "latitude": 44.74140167236328, "longitude": -85.58219909667969, "resolvedAddress": "44.74140167236328, -85.58219909667969", "address": "44.74140167236328, -85.58219909667969", "timezone": "America/Detroit", "tzoffset": -5.0, "days": [{"datetime": "2020-01-06", "datetimeEpoch": 1578286800, "tempmax": 1.1, "tempmin": -2.2, "temp": -0.3, "feelslikemax": -3.3, "feelslikemin": -7.5, "feelslike": -5.3, "dew": -6.1, "humidity": 64.9, "precip": 0.0, "precipprob": null, "precipcover": 16.67, "preciptype": null, "snow": 2.09, "snowdepth": 10.0, "windgust": 63.0, "windspeed": 38.9, "winddir": 244.2, "pressure": 1013.1, "cloudcover": 48.7, "visibility": 15.6, "solarradiation": 187.5, "solarenergy": 6.8, "sunrise": "08:19:32", "sunriseEpoch": 1578316772, "sunset": "17:16:48", "sunsetEpoch": 1578349008, "moonphase": 0.4, "conditions": "Partially cloudy", "icon": "snow", "stations": ["KGOV", "72638714850", "KTVC", "72209304878", "99999954854", "KMBL"], "source": "obs", "hours": null}], "stations": {"KGOV": {"distance": 67764.0, "latitude": 44.68, "longitude": -84.73, "useCount": 0, "id": "KGOV", "name": "KGOV", "quality": 100, "contribution": 0.0}, "72638714850": {"distance": 71.0, "latitude": 44.741, "longitude": -85.582, "useCount": 0, "id": "72638714850", "name": "TRAVERSE CITY CHERRY CAPITAL AIRPORT, MI US", "quality": 100, "contribution": 0.0}, "KTVC": {"distance": 1594.0, "latitude": 44.73, "longitude": -85.57, "useCount": 0, "id": "KTVC", "name": "KTVC", "quality": 100, "contribution": 0.0}, "72209304878": {"distance": 67870.0, "latitude": 44.68, "longitude": -84.729, "useCount": 0, "id": "72209304878", "name": "GRAYLING ARMY AIR FIELD AIRPORT, MI US", "quality": 99, "contribution": 0.0}, "99999954854": {"distance": 70533.0, "latitude": 44.908, "longitude": -84.72, "useCount": 0, "id": "99999954854", "name": "GAYLORD 9 SSW, MI US", "quality": 100, "contribution": 0.0}, "KMBL": {"distance": 74596.0, "latitude": 44.27, "longitude": -86.25, "useCount": 0, "id": "KMBL", "name": "MANISTEE/BLACKER, MI", "quality": 100, "contribution": 0.0}}}