{"queryCost": 1, "latitude": 42.4818, "longitude": -114.487999, "resolvedAddress": "42.4818, -114.487999", "address": "42.4818, -114.487999", "timezone": "America/Boise", "tzoffset": -7.0, "days": [{"datetime": "2020-01-07", "datetimeEpoch": 1578380400, "tempmax": 8.8, "tempmin": 0.7, "temp": 5.2, "feelslikemax": 7.8, "feelslikemin": -3.9, "feelslike": 1.5, "dew": -2.5, "humidity": 58.35, "precip": 0.0, "precipprob": null, "precipcover": 0.0, "preciptype": null, "snow": 0.0, "snowdepth": 0.0, "windgust": 50.0, "windspeed": 27.7, "winddir": 185.4, "pressure": 1019.9, "cloudcover": 22.9, "visibility": 16.0, "solarradiation": 206.6, "solarenergy": 8.2, "uvindex": 4.0, "sunrise": "08:07:31", "sunriseEpoch": 1578409651, "sunset": "17:21:00", "sunsetEpoch": 1578442860, "moonphase": 0.44, "conditions": "Clear", "description": "Partly cloudly.", "icon": "clear-day", "stations": ["72586694178", "KBYI", "72681604110", "KTWF", "72586724133", "KJER"], "source": "obs", "hours": null}], "stations": {"72586694178": {"distance": 83.0, "latitude": 42.482, "longitude": -114.487, "useCount": 0, "id": "72586694178", "name": "TWIN FALLS SUN VALLEY REGIONAL AIRPORT, ID US", "quality": 100, "contribution": 0.0}, "KBYI": {"distance": 59401.0, "latitude": 42.55, "longitude": -113.77, "useCount": 0, "id": "KBYI", "name": "KBYI", "quality": 100, "contribution": 0.0}, "72681604110": {"distance": 27388.0, "latitude": 42.727, "longitude": -114.456, "useCount": 0, "id": "72681604110", "name": "JEROME CO AIRPORT, ID US", "quality": 100, "contribution": 0.0}, "KTWF": {"distance": 687.0, "latitude": 42.48, "longitude": -114.48, "useCount": 0, "id": "KTWF", "name": "KTWF", "quality": 100, "contribution": 0.0}, "72586724133": {"distance": 59618.0, "latitude": 42.542, "longitude": -113.766, "useCount": 0, "id": "72586724133", "name": "BURLEY MUNICIPAL AIRPORT, ID US", "quality": 100, "contribution": 0.0}, "KJER": {"distance": 27725.0, "latitude": 42.73, "longitude": -114.46, "useCount": 0, "id": "KJER", "name": "KJER", "quality": 100, "contribution": 0.0}}}