{"queryCost": 1, "latitude": 35.81100082, "longitude": -83.9940033, "resolvedAddress": "35.81100082, -83.9940033", "address": "35.81100082, -83.9940033", "timezone": "America/New_York", "tzoffset": -5.0, "days": [{"datetime": "2020-01-07", "datetimeEpoch": 1578373200, "tempmax": 11.1, "tempmin": 3.4, "temp": 7.0, "feelslikemax": 11.1, "feelslikemin": 0.5, "feelslike": 5.3, "dew": -1.2, "humidity": 59.47, "precip": 15.82, "precipprob": null, "precipcover": 29.17, "preciptype": null, "snow": 0.0, "snowdepth": 0.0, "windgust": 37.1, "windspeed": 29.5, "winddir": 216.3, "pressure": 1017.9, "cloudcover": 59.3, "visibility": 14.2, "solarradiation": 315.2, "solarenergy": 11.3, "uvindex": 6.0, "sunrise": "07:46:41", "sunriseEpoch": 1578401201, "sunset": "17:37:46", "sunsetEpoch": 1578436666, "moonphase": 0.44, "conditions": "Rain, Partially cloudy", "description": "Partly cloudly with late afternoon rain.", "icon": "rain", "stations": ["KTYS", "72326013891", "KOQT", "72427053868", "72090799999"], "source": "obs", "hours": null}], "stations": {"KTYS": {"distance": 1613.0, "latitude": 35.82, "longitude": -83.98, "useCount": 0, "id": "KTYS", "name": "KTYS", "quality": 100, "contribution": 0.0}, "72326013891": {"distance": 1083.0, "latitude": 35.818, "longitude": -83.986, "useCount": 0, "id": "72326013891", "name": "KNOXVILLE AIRPORT, TN US", "quality": 100, "contribution": 0.0}, "72090799999": {"distance": 60222.0, "latitude": 36.335, "longitude": -84.162, "useCount": 0, "id": "72090799999", "name": "CAMPBELL CO, TN US", "quality": 100, "contribution": 0.0}, "KOQT": {"distance": 31527.0, "latitude": 36.02, "longitude": -84.23, "useCount": 0, "id": "KOQT", "name": "KOQT", "quality": 100, "contribution": 0.0}, "72427053868": {"distance": 31999.0, "latitude": 36.023, "longitude": -84.234, "useCount": 0, "id": "72427053868", "name": "OAK RIDGE ASOS, TN US", "quality": 100, "contribution": 0.0}}}