{"queryCost": 1, "latitude": 35.81100082, "longitude": -83.9940033, "resolvedAddress": "35.81100082, -83.9940033", "address": "35.81100082, -83.9940033", "timezone": "America/New_York", "tzoffset": -5.0, "days": [{"datetime": "2019-02-04", "datetimeEpoch": 1549256400, "tempmax": 15.0, "tempmin": 2.2, "temp": 8.9, "feelslikemax": 15.0, "feelslikemin": 0.7, "feelslike": 8.9, "dew": 7.1, "humidity": 89.28, "precip": 0.8, "precipprob": null, "precipcover": 8.33, "preciptype": null, "snow": 0.0, "snowdepth": 0.0, "windgust": null, "windspeed": 11.1, "winddir": 87.0, "pressure": 1017.1, "cloudcover": 58.0, "visibility": 9.7, "solarradiation": 203.9, "solarenergy": 8.8, "sunrise": "07:33:59", "sunriseEpoch": 1549283639, "sunset": "18:06:13", "sunsetEpoch": 1549321573, "moonphase": 1.0, "conditions": "Rain, Partially cloudy", "icon": "rain", "stations": ["KTYS", "72326013891", "KOQT", "72427053868", "72090799999", "KMMI"], "source": "obs", "hours": null}], "stations": {"KTYS": {"distance": 1613.0, "latitude": 35.82, "longitude": -83.98, "useCount": 0, "id": "KTYS", "name": "KTYS", "quality": 100, "contribution": 0.0}, "72326013891": {"distance": 1083.0, "latitude": 35.818, "longitude": -83.986, "useCount": 0, "id": "72326013891", "name": "KNOXVILLE AIRPORT, TN US", "quality": 100, "contribution": 0.0}, "KOQT": {"distance": 31527.0, "latitude": 36.02, "longitude": -84.23, "useCount": 0, "id": "KOQT", "name": "KOQT", "quality": 100, "contribution": 0.0}, "72427053868": {"distance": 31999.0, "latitude": 36.023, "longitude": -84.234, "useCount": 0, "id": "72427053868", "name": "OAK RIDGE ASOS, TN US", "quality": 100, "contribution": 0.0}, "72090799999": {"distance": 60222.0, "latitude": 36.335, "longitude": -84.162, "useCount": 0, "id": "72090799999", "name": "CAMPBELL CO, TN US", "quality": 100, "contribution": 0.0}, "KMMI": {"distance": 69361.0, "latitude": 35.4, "longitude": -84.57, "useCount": 0, "id": "KMMI", "name": "KMMI", "quality": 100, "contribution": 0.0}}}