{"queryCost": 1, "latitude": 35.81100082, "longitude": -83.9940033, "resolvedAddress": "35.81100082, -83.9940033", "address": "35.81100082, -83.9940033", "timezone": "America/New_York", "tzoffset": -4.0, "days": [{"datetime": "2018-09-30", "datetimeEpoch": 1538280000, "tempmax": 28.9, "tempmin": 16.7, "temp": 22.4, "feelslikemax": 30.3, "feelslikemin": 16.7, "feelslike": 22.8, "dew": 18.5, "humidity": 80.52, "precip": 0.0, "precipprob": null, "precipcover": 8.33, "preciptype": null, "snow": 0.0, "snowdepth": 0.0, "windgust": null, "windspeed": 12.9, "winddir": 90.4, "pressure": 1022.6, "cloudcover": 38.2, "visibility": 16.0, "solarradiation": 366.8, "solarenergy": 15.8, "sunrise": "07:30:07", "sunriseEpoch": 1538307007, "sunset": "19:21:09", "sunsetEpoch": 1538349669, "moonphase": 0.65, "conditions": "Partially cloudy", "icon": "partly-cloudy-day", "stations": ["KTYS", "72326013891", "KOQT", "72427053868", "72090799999", "KMMI"], "source": "obs", "hours": null}], "stations": {"KTYS": {"distance": 1613.0, "latitude": 35.82, "longitude": -83.98, "useCount": 0, "id": "KTYS", "name": "KTYS", "quality": 100, "contribution": 0.0}, "72326013891": {"distance": 1083.0, "latitude": 35.818, "longitude": -83.986, "useCount": 0, "id": "72326013891", "name": "KNOXVILLE AIRPORT, TN US", "quality": 100, "contribution": 0.0}, "KOQT": {"distance": 31527.0, "latitude": 36.02, "longitude": -84.23, "useCount": 0, "id": "KOQT", "name": "KOQT", "quality": 100, "contribution": 0.0}, "72427053868": {"distance": 31999.0, "latitude": 36.023, "longitude": -84.234, "useCount": 0, "id": "72427053868", "name": "OAK RIDGE ASOS, TN US", "quality": 100, "contribution": 0.0}, "72090799999": {"distance": 60222.0, "latitude": 36.335, "longitude": -84.162, "useCount": 0, "id": "72090799999", "name": "CAMPBELL CO, TN US", "quality": 100, "contribution": 0.0}, "KMMI": {"distance": 69361.0, "latitude": 35.4, "longitude": -84.57, "useCount": 0, "id": "KMMI", "name": "KMMI", "quality": 100, "contribution": 0.0}}}