{"queryCost": 1, "latitude": 35.387798, "longitude": -80.709099, "resolvedAddress": "35.387798, -80.709099", "address": "35.387798, -80.709099", "timezone": "America/New_York", "tzoffset": -5.0, "days": [{"datetime": "2020-01-03", "datetimeEpoch": 1578027600, "tempmax": 11.9, "tempmin": 7.0, "temp": 9.5, "feelslikemax": 11.9, "feelslikemin": 5.1, "feelslike": 9.4, "dew": 9.2, "humidity": 98.37, "precip": 19.98, "precipprob": null, "precipcover": 70.83, "preciptype": null, "snow": 0.0, "snowdepth": 0.0, "windgust": null, "windspeed": 9.3, "winddir": 192.6, "pressure": 1012.9, "cloudcover": 88.0, "visibility": 5.5, "solarradiation": 6.8, "solarenergy": 0.3, "sunrise": "07:32:13", "sunriseEpoch": 1578054733, "sunset": "17:22:20", "sunsetEpoch": 1578090140, "moonphase": 0.26, "conditions": "Rain, Overcast", "icon": "rain", "stations": ["KRUQ", "KEQY", "KCLT", "72315663812", "KJQF", "72314013881"], "source": "obs", "hours": null}], "stations": {"KRUQ": {"distance": 33845.0, "latitude": 35.65, "longitude": -80.52, "useCount": 0, "id": "KRUQ", "name": "KRUQ", "quality": 98, "contribution": 0.0}, "KEQY": {"distance": 41737.0, "latitude": 35.02, "longitude": -80.62, "useCount": 0, "id": "KEQY", "name": "KEQY", "quality": 100, "contribution": 0.0}, "KCLT": {"distance": 28773.0, "latitude": 35.22, "longitude": -80.95, "useCount": 0, "id": "KCLT", "name": "KCLT", "quality": 100, "contribution": 0.0}, "72315663812": {"distance": 33429.0, "latitude": 35.646, "longitude": -80.52, "useCount": 0, "id": "72315663812", "name": "SALISBURY ROWAN CO AIRPORT, NC US", "quality": 98, "contribution": 0.0}, "KJQF": {"distance": 1198.0, "latitude": 35.38, "longitude": -80.7, "useCount": 0, "id": "KJQF", "name": "KJQF", "quality": 100, "contribution": 0.0}, "72314013881": {"distance": 28878.0, "latitude": 35.224, "longitude": -80.955, "useCount": 0, "id": "72314013881", "name": "CHARLOTTE DOUGLAS AIRPORT, NC US", "quality": 100, "contribution": 0.0}}}