{"queryCost": 1, "latitude": 30.4832, "longitude": -86.525398, "resolvedAddress": "30.4832, -86.525398", "address": "30.4832, -86.525398", "timezone": "America/Chicago", "tzoffset": -6.0, "days": [{"datetime": "2020-01-04", "datetimeEpoch": 1578117600, "tempmax": 18.4, "tempmin": 5.4, "temp": 14.5, "feelslikemax": 18.4, "feelslikemin": 2.9, "feelslike": 14.1, "dew": 8.3, "humidity": 71.22, "precip": 0.0, "precipprob": null, "precipcover": 8.33, "preciptype": null, "snow": 0.0, "snowdepth": 0.0, "windgust": 55.4, "windspeed": 40.6, "winddir": 302.9, "pressure": 1019.7, "cloudcover": 40.2, "visibility": 15.4, "solarradiation": 262.6, "solarenergy": 10.4, "sunrise": "06:43:45", "sunriseEpoch": 1578141825, "sunset": "16:58:15", "sunsetEpoch": 1578178695, "moonphase": 0.31, "conditions": "Partially cloudy", "icon": "wind", "stations": ["74777003852", "72206953853", "72221013858", "KDTS", "KHRT", "KVPS"], "source": "obs", "hours": null}], "stations": {"74777003852": {"distance": 16865.0, "latitude": 30.417, "longitude": -86.683, "useCount": 0, "id": "74777003852", "name": "VALPARAISO HURLBURT FIELD, FL US", "quality": 96, "contribution": 0.0}, "72206953853": {"distance": 10599.0, "latitude": 30.4, "longitude": -86.472, "useCount": 0, "id": "72206953853", "name": "DESTIN FORT WALTON BEACH AIRPORT, FL US", "quality": 100, "contribution": 0.0}, "72221013858": {"distance": 834.0, "latitude": 30.483, "longitude": -86.517, "useCount": 0, "id": "72221013858", "name": "VALPARAISO EGLIN AFB, FL US", "quality": 96, "contribution": 0.0}, "KDTS": {"distance": 10679.0, "latitude": 30.4, "longitude": -86.47, "useCount": 0, "id": "KDTS", "name": "KDTS", "quality": 100, "contribution": 0.0}, "KHRT": {"distance": 15974.0, "latitude": 30.43, "longitude": -86.68, "useCount": 0, "id": "KHRT", "name": "KHRT", "quality": 100, "contribution": 0.0}, "KVPS": {"distance": 567.0, "latitude": 30.48, "longitude": -86.53, "useCount": 0, "id": "KVPS", "name": "KVPS", "quality": 100, "contribution": 0.0}}}