{"queryCost": 1, "latitude": 30.4832, "longitude": -86.525398, "resolvedAddress": "30.4832, -86.525398", "address": "30.4832, -86.525398", "timezone": "America/Chicago", "tzoffset": -5.0, "days": [{"datetime": "2019-04-06", "datetimeEpoch": 1554526800, "tempmax": 23.1, "tempmin": 18.2, "temp": 20.5, "feelslikemax": 23.1, "feelslikemin": 18.2, "feelslike": 20.5, "dew": 20.3, "humidity": 98.66, "precip": 11.33, "precipprob": null, "precipcover": 4.17, "preciptype": null, "snow": 0.0, "snowdepth": 0.0, "windgust": null, "windspeed": 16.6, "winddir": 116.3, "pressure": 1019.3, "cloudcover": 75.1, "visibility": 9.3, "solarradiation": 219.1, "solarenergy": 10.3, "sunrise": "06:29:22", "sunriseEpoch": 1554550162, "sunset": "19:08:08", "sunsetEpoch": 1554595688, "moonphase": 0.01, "conditions": "Rain, Overcast", "icon": "rain", "stations": ["74777003852", "72206953853", "72221013858", "KDTS", "KHRT", "KVPS"], "source": "obs", "hours": null}], "stations": {"74777003852": {"distance": 16865.0, "latitude": 30.417, "longitude": -86.683, "useCount": 0, "id": "74777003852", "name": "VALPARAISO HURLBURT FIELD, FL US", "quality": 96, "contribution": 0.0}, "72206953853": {"distance": 10599.0, "latitude": 30.4, "longitude": -86.472, "useCount": 0, "id": "72206953853", "name": "DESTIN FORT WALTON BEACH AIRPORT, FL US", "quality": 100, "contribution": 0.0}, "72221013858": {"distance": 834.0, "latitude": 30.483, "longitude": -86.517, "useCount": 0, "id": "72221013858", "name": "VALPARAISO EGLIN AFB, FL US", "quality": 96, "contribution": 0.0}, "KDTS": {"distance": 10679.0, "latitude": 30.4, "longitude": -86.47, "useCount": 0, "id": "KDTS", "name": "KDTS", "quality": 100, "contribution": 0.0}, "KHRT": {"distance": 15974.0, "latitude": 30.43, "longitude": -86.68, "useCount": 0, "id": "KHRT", "name": "KHRT", "quality": 100, "contribution": 0.0}, "KVPS": {"distance": 567.0, "latitude": 30.48, "longitude": -86.53, "useCount": 0, "id": "KVPS", "name": "KVPS", "quality": 100, "contribution": 0.0}}}