{"queryCost": 1, "latitude": 30.4832, "longitude": -86.525398, "resolvedAddress": "30.4832, -86.525398", "address": "30.4832, -86.525398", "timezone": "America/Chicago", "tzoffset": -6.0, "days": [{"datetime": "2020-01-06", "datetimeEpoch": 1578290400, "tempmax": 17.9, "tempmin": 3.4, "temp": 10.9, "feelslikemax": 17.9, "feelslikemin": 1.4, "feelslike": 10.6, "dew": 6.9, "humidity": 78.01, "precip": 0.0, "precipprob": null, "precipcover": 0.0, "preciptype": null, "snow": 0.0, "snowdepth": 0.0, "windgust": null, "windspeed": 16.5, "winddir": 264.2, "pressure": 1023.4, "cloudcover": 6.2, "visibility": 16.0, "solarradiation": 376.2, "solarenergy": 14.9, "sunrise": "06:44:01", "sunriseEpoch": 1578314641, "sunset": "16:59:47", "sunsetEpoch": 1578351587, "moonphase": 0.4, "conditions": "Clear", "icon": "clear-day", "stations": ["74777003852", "72206953853", "72221013858", "KDTS", "KHRT", "KVPS"], "source": "obs", "hours": null}], "stations": {"74777003852": {"distance": 16865.0, "latitude": 30.417, "longitude": -86.683, "useCount": 0, "id": "74777003852", "name": "VALPARAISO HURLBURT FIELD, FL US", "quality": 96, "contribution": 0.0}, "72206953853": {"distance": 10599.0, "latitude": 30.4, "longitude": -86.472, "useCount": 0, "id": "72206953853", "name": "DESTIN FORT WALTON BEACH AIRPORT, FL US", "quality": 100, "contribution": 0.0}, "72221013858": {"distance": 834.0, "latitude": 30.483, "longitude": -86.517, "useCount": 0, "id": "72221013858", "name": "VALPARAISO EGLIN AFB, FL US", "quality": 96, "contribution": 0.0}, "KDTS": {"distance": 10679.0, "latitude": 30.4, "longitude": -86.47, "useCount": 0, "id": "KDTS", "name": "KDTS", "quality": 100, "contribution": 0.0}, "KHRT": {"distance": 15974.0, "latitude": 30.43, "longitude": -86.68, "useCount": 0, "id": "KHRT", "name": "KHRT", "quality": 100, "contribution": 0.0}, "KVPS": {"distance": 567.0, "latitude": 30.48, "longitude": -86.53, "useCount": 0, "id": "KVPS", "name": "KVPS", "quality": 100, "contribution": 0.0}}}