{"queryCost": 1, "latitude": 36.281898, "longitude": -94.306801, "resolvedAddress": "36.281898, -94.306801", "address": "36.281898, -94.306801", "timezone": "America/Chicago", "tzoffset": -6.0, "days": [{"datetime": "2020-01-07", "datetimeEpoch": 1578376800, "tempmax": 12.2, "tempmin": -2.1, "temp": 5.0, "feelslikemax": 12.2, "feelslikemin": -5.7, "feelslike": 2.8, "dew": -6.2, "humidity": 47.71, "precip": 0.0, "precipprob": null, "precipcover": 0.0, "preciptype": null, "snow": 0.0, "snowdepth": 0.0, "windgust": null, "windspeed": 20.5, "winddir": 252.5, "pressure": 1025.4, "cloudcover": 0.0, "visibility": 16.0, "solarradiation": 294.0, "solarenergy": 11.6, "uvindex": 5.0, "sunrise": "07:29:09", "sunriseEpoch": 1578403749, "sunset": "17:17:50", "sunsetEpoch": 1578439070, "moonphase": 0.44, "conditions": "Clear", "description": "Clear conditions.", "icon": "clear-day", "stations": ["KSLG", "KXNA", "72344353955", "72343653922", "72344403978", "KVBT"], "source": "obs", "hours": null}], "stations": {"KSLG": {"distance": 18026.0, "latitude": 36.2, "longitude": -94.48, "useCount": 0, "id": "KSLG", "name": "SILOAM SPRINGS, AR", "quality": 100, "contribution": 0.0}, "KXNA": {"distance": 356.0, "latitude": 36.28, "longitude": -94.31, "useCount": 0, "id": "KXNA", "name": "KXNA", "quality": 100, "contribution": 0.0}, "72344353955": {"distance": 19397.0, "latitude": 36.191, "longitude": -94.491, "useCount": 0, "id": "72344353955", "name": "SILOAM SPRINGS SMITH FIELD AIRPORT, AR US", "quality": 100, "contribution": 0.0}, "72343653922": {"distance": 630.0, "latitude": 36.283, "longitude": -94.3, "useCount": 0, "id": "72343653922", "name": "FAYETTEVILLE SPRINGDALE NW AR REGL AIRPORT, AR US", "quality": 100, "contribution": 0.0}, "72344403978": {"distance": 11081.0, "latitude": 36.35, "longitude": -94.217, "useCount": 0, "id": "72344403978", "name": "BENTONVILLE MUNICIPAL AIRPORT, AR US", "quality": 100, "contribution": 0.0}, "KVBT": {"distance": 10867.0, "latitude": 36.35, "longitude": -94.22, "useCount": 0, "id": "KVBT", "name": "BENTONVILLE (AWOS), AR", "quality": 100, "contribution": 0.0}}}