{"queryCost": 1, "latitude": 32.65660095, "longitude": -114.6060028, "resolvedAddress": "32.65660095, -114.6060028", "address": "32.65660095, -114.6060028", "timezone": "America/Phoenix", "tzoffset": -7.0, "days": [{"datetime": "2020-01-02", "datetimeEpoch": 1577948400, "tempmax": 21.1, "tempmin": 5.0, "temp": 13.0, "feelslikemax": 21.1, "feelslikemin": 4.0, "feelslike": 12.6, "dew": -0.9, "humidity": 43.12, "precip": 0.0, "precipprob": null, "precipcover": 0.0, "preciptype": null, "snow": 0.0, "snowdepth": 0.0, "windgust": 40.7, "windspeed": 27.7, "winddir": 235.2, "pressure": 1013.6, "cloudcover": 0.0, "visibility": 16.0, "solarradiation": 214.6, "solarenergy": 8.5, "sunrise": "07:40:50", "sunriseEpoch": 1577976050, "sunset": "17:44:02", "sunsetEpoch": 1578012242, "moonphase": 0.22, "conditions": "Clear", "icon": "clear-day", "stations": ["76005399999", "74003503145", "KNYL", "76040099999", "MMML", "99999953154"], "source": "obs", "hours": null}], "stations": {"76005399999": {"distance": 59686.0, "latitude": 32.631, "longitude": -115.242, "useCount": 0, "id": "76005399999", "name": "GENERAL RODOLFO SANCHEZ TABOADA INTERNATIONAL, MX", "quality": 4, "contribution": 0.0}, "74003503145": {"distance": 1266.0, "latitude": 32.65, "longitude": -114.617, "useCount": 0, "id": "74003503145", "name": "YUMA MCAS, AZ US", "quality": 100, "contribution": 0.0}, "KNYL": {"distance": 1504.0, "latitude": 32.65, "longitude": -114.62, "useCount": 0, "id": "KNYL", "name": "KNYL", "quality": 100, "contribution": 0.0}, "76040099999": {"distance": 61226.0, "latitude": 32.4, "longitude": -115.183, "useCount": 0, "id": "76040099999", "name": "EJIDO NUEVO LEON BC., MX", "quality": 10, "contribution": 0.0}, "MMML": {"distance": 58727.0, "latitude": 32.61, "longitude": -115.23, "useCount": 0, "id": "MMML", "name": "MMML", "quality": 8, "contribution": 0.0}, "99999953154": {"distance": 43887.0, "latitude": 32.835, "longitude": -114.188, "useCount": 0, "id": "99999953154", "name": "YUMA 27 ENE, AZ US", "quality": 100, "contribution": 0.0}}}