{"queryCost": 1, "latitude": 35.877601623535156, "longitude": -78.7874984741211, "resolvedAddress": "35.877601623535156, -78.7874984741211", "address": "35.877601623535156, -78.7874984741211", "timezone": "America/New_York", "tzoffset": -4.0, "days": [{"datetime": "2018-06-21", "datetimeEpoch": 1529553600, "tempmax": 32.2, "tempmin": 22.2, "temp": 27.4, "feelslikemax": 36.2, "feelslikemin": 22.2, "feelslike": 29.5, "dew": 23.0, "humidity": 79.18, "precip": 3.09, "precipprob": null, "precipcover": 12.5, "preciptype": null, "snow": 0.0, "snowdepth": 0.0, "windgust": null, "windspeed": 14.7, "winddir": 194.6, "pressure": 1008.7, "cloudcover": 70.5, "visibility": 15.5, "solarradiation": null, "solarenergy": null, "sunrise": "05:59:10", "sunriseEpoch": 1529575150, "sunset": "20:34:48", "sunsetEpoch": 1529627688, "moonphase": 0.31, "conditions": "Rain, Partially cloudy", "icon": "rain", "stations": ["KLHZ", "KTTA", "72306013722", "KRDU", "99999903758", "72220103723"], "source": "obs", "hours": null}], "stations": {"KLHZ": {"distance": 44171.0, "latitude": 36.02, "longitude": -78.33, "useCount": 0, "id": "KLHZ", "name": "KLHZ", "quality": 99, "contribution": 0.0}, "KTTA": {"distance": 42951.0, "latitude": 35.58, "longitude": -79.09, "useCount": 0, "id": "KTTA", "name": "KTTA", "quality": 98, "contribution": 0.0}, "72306013722": {"distance": 1712.0, "latitude": 35.892, "longitude": -78.782, "useCount": 0, "id": "72306013722", "name": "RALEIGH AIRPORT, NC US", "quality": 100, "contribution": 0.0}, "KRDU": {"distance": 2073.0, "latitude": 35.86, "longitude": -78.78, "useCount": 0, "id": "KRDU", "name": "KRDU", "quality": 100, "contribution": 0.0}, "99999903758": {"distance": 29426.0, "latitude": 35.971, "longitude": -79.093, "useCount": 0, "id": "99999903758", "name": "DURHAM 11 W, NC US", "quality": 100, "contribution": 0.0}, "72220103723": {"distance": 43410.0, "latitude": 35.582, "longitude": -79.101, "useCount": 0, "id": "72220103723", "name": "SANFORD LEE CO REGIONAL AIRPORT, NC US", "quality": 98, "contribution": 0.0}}}