{"queryCost": 1, "latitude": 35.877601623535156, "longitude": -78.7874984741211, "resolvedAddress": "35.877601623535156, -78.7874984741211", "address": "35.877601623535156, -78.7874984741211", "timezone": "America/New_York", "tzoffset": -5.0, "days": [{"datetime": "2018-03-11", "datetimeEpoch": 1520744400, "tempmax": 9.3, "tempmin": 3.8, "temp": 6.5, "feelslikemax": 8.0, "feelslikemin": 1.0, "feelslike": 4.3, "dew": 4.3, "humidity": 86.45, "precip": 5.64, "precipprob": null, "precipcover": 62.5, "preciptype": null, "snow": 0.0, "snowdepth": 0.0, "windgust": 27.7, "windspeed": 20.5, "winddir": 71.3, "pressure": 1016.5, "cloudcover": 99.3, "visibility": 12.3, "solarradiation": null, "solarenergy": null, "sunrise": "07:31:29", "sunriseEpoch": 1520767889, "sunset": "19:19:15", "sunsetEpoch": 1520810355, "moonphase": 0.85, "conditions": "Rain, Overcast", "icon": "rain", "stations": ["KLHZ", "KTTA", "72306013722", "KRDU", "99999903758"], "source": "obs", "hours": null}], "stations": {"KLHZ": {"distance": 44171.0, "latitude": 36.02, "longitude": -78.33, "useCount": 0, "id": "KLHZ", "name": "KLHZ", "quality": 99, "contribution": 0.0}, "72306013722": {"distance": 1712.0, "latitude": 35.892, "longitude": -78.782, "useCount": 0, "id": "72306013722", "name": "RALEIGH AIRPORT, NC US", "quality": 100, "contribution": 0.0}, "KRDU": {"distance": 2073.0, "latitude": 35.86, "longitude": -78.78, "useCount": 0, "id": "KRDU", "name": "KRDU", "quality": 100, "contribution": 0.0}, "KTTA": {"distance": 42951.0, "latitude": 35.58, "longitude": -79.09, "useCount": 0, "id": "KTTA", "name": "KTTA", "quality": 98, "contribution": 0.0}, "99999903758": {"distance": 29426.0, "latitude": 35.971, "longitude": -79.093, "useCount": 0, "id": "99999903758", "name": "DURHAM 11 W, NC US", "quality": 100, "contribution": 0.0}}}